time,pos_x,pos_y,pos_z,vel_x,vel_y,vel_z,att_phi,att_theta,att_psi,rate_p,rate_q,rate_r,cmd_thrust,cmd_roll,cmd_pitch,cmd_yaw
23.370743,-1.898438,-1.289062,0.007812,0.000000,0.000000,-0.019566,-0.009400,0.014893,-0.255460,0.000732,0.000732,-0.000977,0,0,0,0
23.380508,-1.898438,-1.289062,0.007812,0.000000,0.000000,-0.019796,-0.009400,0.014893,-0.255460,-0.000977,-0.001221,-0.000977,0,0,0,0
23.390272,-1.898438,-1.289062,0.007812,0.000000,0.000000,-0.018660,-0.009400,0.014893,-0.255460,0.000000,-0.001221,-0.002686,0,0,0,0
23.400040,-1.898438,-1.289062,0.007812,0.000000,0.000000,-0.019041,-0.009400,0.014893,-0.255460,-0.002441,0.000732,-0.000977,0,0,0,0
23.409803,-1.898438,-1.289062,0.007812,0.000000,0.000000,-0.019146,-0.009277,0.014893,-0.255371,-0.003174,-0.000244,-0.000488,0,0,0,0
23.419567,-1.898438,-1.289062,0.007812,0.000000,0.000000,-0.017950,-0.009400,0.014893,-0.255460,-0.002441,0.000732,-0.001465,0,0,0,0
23.429333,-1.898438,-1.289062,0.007812,0.000000,0.000000,-0.018293,-0.009400,0.014893,-0.255460,-0.003662,0.003906,-0.000488,0,0,0,0
23.439098,-1.898438,-1.289062,0.007812,0.000000,0.000000,-0.019608,-0.009400,0.014893,-0.255460,0.001221,-0.001709,-0.000977,0,0,0,0
23.448866,-1.898438,-1.289062,0.007812,0.000000,0.000000,-0.018759,-0.009400,0.014893,-0.255460,-0.001465,-0.000244,-0.000488,0,0,0,0
23.458630,-1.898438,-1.289062,0.007812,0.000000,0.000000,-0.019287,-0.009400,0.014893,-0.255460,-0.005127,0.000732,-0.001953,0,0,0,0
23.468395,-1.898438,-1.289062,0.007812,0.000000,0.000000,-0.019903,-0.009400,0.014893,-0.255460,-0.002441,-0.000732,0.001221,0,0,0,0
23.478163,-1.898438,-1.289062,0.007812,0.000000,0.000000,-0.020052,-0.009400,0.014893,-0.255460,0.001709,0.000732,-0.003174,0,0,0,0
23.487928,-1.898438,-1.289062,0.007812,0.000000,0.000000,-0.018539,-0.009400,0.014893,-0.255460,-0.001465,-0.003906,-0.000488,0,0,0,0
23.497700,-1.898438,-1.289062,0.007812,0.000000,0.000000,-0.019077,-0.009400,0.014893,-0.255460,-0.000977,0.000244,0.000000,0,0,0,0
23.507458,-1.898438,-1.289062,0.007812,0.000000,0.000000,-0.019066,-0.009400,0.014893,-0.255460,-0.001465,-0.000732,-0.000488,0,0,0,0
23.517223,-1.898438,-1.289062,0.007812,0.000000,0.000000,-0.018747,-0.009400,0.014893,-0.255460,-0.000977,-0.000732,0.001709,0,0,0,0
23.526993,-1.898438,-1.289062,0.007812,0.000000,0.000000,-0.019312,-0.009400,0.014893,-0.255460,0.002197,0.001221,-0.000977,0,0,0,0
23.536758,-1.898438,-1.289062,0.007812,0.000000,0.000000,-0.019564,-0.009400,0.014893,-0.255460,0.001221,0.000244,-0.003662,0,0,0,0
23.546524,-1.898438,-1.289062,0.007812,0.000000,0.000000,-0.020071,-0.009400,0.014893,-0.255460,-0.000977,0.001709,0.001221,0,0,0,0
23.556292,-1.898438,-1.289062,0.007812,0.000000,0.000000,-0.018820,-0.009400,0.014893,-0.255460,-0.001953,-0.001221,0.001709,0,0,0,0
23.566055,-1.898438,-1.289062,0.007812,0.000000,0.000000,-0.019426,-0.009400,0.014893,-0.255460,-0.000977,-0.001221,-0.000488,0,0,0,0
23.575821,-1.898438,-1.289062,0.007812,0.000000,0.000000,-0.019718,-0.009400,0.014893,-0.255460,-0.000488,-0.000244,-0.000977,0,0,0,0
23.585587,-1.898438,-1.289062,0.007812,0.000000,0.000000,-0.018698,-0.009400,0.014893,-0.255460,-0.000977,0.002441,0.001221,0,0,0,0
23.595352,-1.898438,-1.289062,0.007812,0.000000,0.000000,-0.019817,-0.009400,0.014893,-0.255460,-0.001953,-0.001221,0.002197,0,0,0,0
23.605118,-1.898438,-1.289062,0.007812,0.000000,0.000000,-0.020254,-0.009400,0.014893,-0.255460,-0.000977,-0.001709,0.001709,0,0,0,0
23.614882,-1.898438,-1.289062,0.007812,0.000000,0.000000,-0.020929,-0.009400,0.014893,-0.255460,-0.000488,0.000244,0.002197,0,0,0,0
23.624645,-1.898438,-1.289062,0.007812,0.000000,0.000000,-0.019804,-0.009400,0.014893,-0.255460,0.003906,0.000732,-0.000977,0,0,0,0
23.634413,-1.898438,-1.289062,0.007812,0.000000,0.000000,-0.020418,-0.009400,0.014893,-0.255460,0.000732,-0.001221,0.001221,0,0,0,0
23.644178,-1.898438,-1.289062,0.007812,0.000000,0.000000,-0.020926,-0.009400,0.014893,-0.255460,0.000000,-0.001221,-0.000488,0,0,0,0
23.653942,-1.898438,-1.289062,0.007812,0.000000,0.000000,-0.019405,-0.009400,0.014893,-0.255460,0.000000,0.000732,0.000488,0,0,0,0
23.663710,-1.898438,-1.289062,0.007812,0.000000,0.000000,-0.019745,-0.009400,0.014893,-0.255460,-0.000977,0.001221,-0.000488,0,0,0,0
23.673473,-1.898438,-1.289062,0.007812,0.000000,0.000000,-0.020819,-0.009400,0.014893,-0.255460,-0.001953,0.001709,0.001709,0,0,0,0
23.683241,-1.898438,-1.289062,0.007812,0.000000,0.000000,-0.019501,-0.009400,0.014893,-0.255460,-0.001953,-0.000244,0.000000,0,0,0,0
23.693005,-1.898438,-1.289062,0.007812,0.000000,0.000000,-0.019762,-0.009400,0.014893,-0.255460,-0.001465,-0.002686,-0.000488,0,0,0,0
23.702772,-1.898438,-1.289062,0.007812,0.000000,0.000000,-0.019743,-0.009400,0.014893,-0.255460,-0.000977,-0.000244,0.001709,0,0,0,0
23.712538,-1.898438,-1.289062,0.007812,0.000000,0.000000,-0.020266,-0.009400,0.014893,-0.255460,-0.001953,0.001221,0.000488,0,0,0,0
23.722303,-1.898438,-1.289062,0.007812,0.000000,0.000000,-0.018606,-0.009400,0.014893,-0.255460,-0.001953,0.001221,0.001709,0,0,0,0
23.732067,-1.898438,-1.289062,0.007812,0.000000,0.000000,-0.018692,-0.009400,0.014893,-0.255460,-0.002441,-0.001709,0.002197,0,0,0,0
23.741835,-1.898438,-1.289062,0.007812,0.000000,0.000000,-0.019436,-0.009400,0.014893,-0.255460,-0.001465,-0.002197,-0.000977,0,0,0,0
23.751600,-1.898438,-1.289062,0.007812,0.000000,0.000000,-0.018951,-0.009400,0.014893,-0.255460,0.000732,0.000732,-0.000488,0,0,0,0
23.761366,-1.898438,-1.289062,0.007812,0.000000,0.000000,-0.019133,-0.009400,0.014893,-0.255460,-0.000488,-0.001221,0.000488,0,0,0,0
23.771130,-1.898438,-1.289062,0.007812,0.000000,0.000000,-0.019327,-0.009400,0.014893,-0.255460,-0.001953,0.000732,0.001221,0,0,0,0
23.780897,-1.898438,-1.289062,0.007812,0.000000,0.000000,-0.019470,-0.009400,0.014893,-0.255460,-0.000488,0.000732,0.001221,0,0,0,0
23.790663,-1.898438,-1.289062,0.007812,0.000000,0.000000,-0.018211,-0.009400,0.014893,-0.255460,-0.000488,-0.000244,-0.000977,0,0,0,0
23.800428,-1.898438,-1.289062,0.007812,0.000000,0.000000,-0.018528,-0.009400,0.014893,-0.255460,-0.000977,-0.001221,0.000488,0,0,0,0
23.810196,-1.898438,-1.289062,0.007812,0.000000,0.000000,-0.018774,-0.009400,0.014893,-0.255460,-0.001465,-0.001709,-0.000977,0,0,0,0
23.819960,-1.898438,-1.289062,0.007812,0.000000,0.000000,-0.017532,-0.009400,0.014893,-0.255460,-0.000977,0.000244,0.001709,0,0,0,0
23.829723,-1.898438,-1.289062,0.007812,0.000000,0.000000,-0.018372,-0.009400,0.014893,-0.255460,-0.000977,-0.001221,0.001221,0,0,0,0
23.839491,-1.898438,-1.289062,0.007812,0.000000,0.000000,-0.018595,-0.009400,0.014893,-0.255460,-0.000488,0.000244,-0.000488,0,0,0,0
23.849257,-1.898438,-1.289062,0.007812,0.000000,0.000000,-0.017508,-0.009400,0.014893,-0.255460,-0.000488,-0.000244,0.000488,0,0,0,0
23.859020,-1.898438,-1.289062,0.007812,0.000000,0.000000,-0.017864,-0.009400,0.014893,-0.255460,-0.002441,0.000244,0.001709,0,0,0,0
23.868788,-1.898438,-1.289062,0.007812,0.000000,0.000000,-0.018209,-0.009400,0.014893,-0.255460,0.002686,-0.000732,0.001709,0,0,0,0
23.878553,-1.898438,-1.289062,0.007812,0.000000,0.000000,-0.018314,-0.009400,0.014893,-0.255460,-0.000488,-0.001221,-0.000488,0,0,0,0
23.888319,-1.898438,-1.289062,0.007812,0.000000,0.000000,-0.017250,-0.009400,0.014832,-0.255460,-0.001953,-0.001709,-0.000977,0,0,0,0
23.898088,-1.898438,-1.289062,0.007812,0.000000,0.000000,-0.017666,-0.009400,0.014832,-0.255460,0.001709,-0.000732,0.000000,0,0,0,0
23.907850,-1.898438,-1.289062,0.007812,0.000000,0.000000,-0.018593,-0.009400,0.014832,-0.255460,0.002197,0.001221,-0.000977,0,0,0,0
23.917616,-1.898438,-1.289062,0.007812,0.000000,0.000000,-0.017469,-0.009400,0.014832,-0.255460,0.002197,-0.002686,0.000000,0,0,0,0
23.927382,-1.898438,-1.289062,0.007812,0.000000,0.000000,-0.017418,-0.009400,0.014832,-0.255460,-0.000977,-0.001709,0.001709,0,0,0,0
23.937149,-1.898438,-1.289062,0.007812,0.000000,0.000000,-0.017977,-0.009400,0.014832,-0.255460,0.000732,0.001221,0.002686,0,0,0,0
23.946913,-1.898438,-1.289062,0.007812,0.000000,0.000000,-0.018250,-0.009400,0.014832,-0.255460,-0.000488,0.000732,-0.001953,0,0,0,0
23.956676,-1.898438,-1.289062,0.007812,0.000000,0.000000,-0.017567,-0.009400,0.014832,-0.255460,0.000000,0.000244,0.000488,0,0,0,0
23.966442,-1.898438,-1.289062,0.007812,0.000000,0.000000,-0.018269,-0.009400,0.014832,-0.255460,0.000000,-0.000244,0.001221,0,0,0,0
23.976210,-1.898438,-1.289062,0.007812,0.000000,0.000000,-0.018679,-0.009400,0.014832,-0.255460,-0.000977,-0.000732,-0.000488,0,0,0,0
23.985977,-1.898438,-1.289062,0.007812,0.000000,0.000000,-0.017815,-0.009339,0.014832,-0.255460,-0.000488,0.001221,-0.000488,0,0,0,0
23.995743,-1.898438,-1.289062,0.007812,0.000000,0.000000,-0.018616,-0.009339,0.014832,-0.255460,-0.001953,-0.000244,0.000488,0,0,0,0
24.005507,-1.898438,-1.289062,0.007812,0.000000,0.000000,-0.019278,-0.009339,0.014832,-0.255460,-0.003174,-0.001709,0.000000,0,0,0,0
24.015278,-1.898438,-1.289062,0.007812,0.000000,0.000000,-0.018187,-0.009277,0.014648,-0.255371,0.000732,-0.002197,0.002686,0,0,0,0
24.025040,-1.898438,-1.289062,0.007812,0.000000,0.000000,-0.018974,-0.009339,0.014832,-0.255460,-0.000488,0.001221,0.001709,0,0,0,0
24.034805,-1.898438,-1.289062,0.007812,0.000000,0.000000,-0.019115,-0.009339,0.014832,-0.255460,-0.000977,0.001709,0.000000,0,0,0,0
24.044571,-1.898438,-1.289062,0.007812,0.000000,0.000000,-0.019890,-0.009339,0.014832,-0.255460,-0.001465,0.001221,-0.001953,0,0,0,0
24.054337,-1.898438,-1.289062,0.007812,0.000000,0.000000,-0.018385,-0.009339,0.014832,-0.255460,-0.003662,-0.001709,-0.001953,0,0,0,0
24.064102,-1.898438,-1.289062,0.007812,0.000000,0.000000,-0.017843,-0.009339,0.014832,-0.255460,-0.001465,-0.001709,0.000000,0,0,0,0
24.073864,-1.898438,-1.289062,0.007812,0.000000,0.000000,-0.018158,-0.009339,0.014832,-0.255460,-0.000977,-0.002686,0.001221,0,0,0,0
24.083630,-1.898438,-1.289062,0.007812,0.000000,0.000000,-0.017397,-0.009339,0.014832,-0.255460,0.000000,0.002441,-0.000488,0,0,0,0
24.093397,-1.898438,-1.289062,0.007812,0.000000,0.000000,-0.017696,-0.009339,0.014832,-0.255460,-0.001465,0.004883,0.001709,0,0,0,0
24.103163,-1.898438,-1.289062,0.007812,0.000000,0.000000,-0.017935,-0.009339,0.014832,-0.255460,-0.003662,-0.000732,0.001709,0,0,0,0
24.112928,-1.898438,-1.289062,0.007812,0.000000,0.000000,-0.018099,-0.009339,0.014832,-0.255460,-0.002441,0.000732,0.001221,0,0,0,0
24.122692,-1.898438,-1.289062,0.007812,0.000000,0.000000,-0.017595,-0.009339,0.014832,-0.255460,0.000000,-0.001221,-0.001465,0,0,0,0
24.132460,-1.898438,-1.289062,0.007812,0.000000,0.000000,-0.017952,-0.009339,0.014832,-0.255460,-0.002441,-0.001709,0.000488,0,0,0,0
24.142223,-1.898438,-1.289062,0.007812,0.000000,0.000000,-0.017178,-0.009339,0.014832,-0.255460,0.002686,0.000244,-0.000488,0,0,0,0
24.151991,-1.898438,-1.289062,0.007812,0.000000,0.000000,-0.016615,-0.009339,0.014832,-0.255460,-0.000977,-0.000732,-0.001465,0,0,0,0
24.161757,-1.898438,-1.289062,0.007812,0.000000,0.000000,-0.016750,-0.009339,0.014832,-0.255460,-0.000977,0.000244,0.000000,0,0,0,0
24.171522,-1.898438,-1.289062,0.007812,0.000000,0.000000,-0.017345,-0.009339,0.014832,-0.255460,0.002197,0.000244,0.000000,0,0,0,0
24.181288,-1.898438,-1.289062,0.007812,0.000000,0.000000,-0.017443,-0.009339,0.014832,-0.255460,0.000000,0.001221,0.001221,0,0,0,0
24.191053,-1.898438,-1.289062,0.007812,0.000000,0.000000,-0.016575,-0.009339,0.014832,-0.255460,-0.000488,-0.003174,-0.000488,0,0,0,0
24.200821,-1.898438,-1.289062,0.007812,0.000000,0.000000,-0.016909,-0.009339,0.014832,-0.255460,-0.000977,0.000732,0.000488,0,0,0,0
24.210587,-1.898438,-1.289062,0.007812,0.000000,0.000000,-0.017668,-0.009339,0.014832,-0.255460,0.000732,-0.003906,0.001709,0,0,0,0
24.220350,-1.898438,-1.289062,0.007812,0.000000,0.000000,-0.015915,-0.009339,0.014832,-0.255460,-0.000488,-0.001221,0.001709,0,0,0,0
24.230118,-1.898438,-1.289062,0.007812,0.000000,0.000000,-0.016312,-0.009339,0.014832,-0.255460,-0.000488,-0.000244,0.001221,0,0,0,0
24.239883,-1.898438,-1.289062,0.007812,0.000000,0.000000,-0.016449,-0.009339,0.014832,-0.255460,0.000732,-0.000244,-0.000488,0,0,0,0
24.249645,-1.898438,-1.289062,0.007812,0.000000,0.000000,-0.015867,-0.009339,0.014832,-0.255460,-0.002441,0.002441,0.001221,0,0,0,0
24.259413,-1.898438,-1.289062,0.007812,0.000000,0.000000,-0.016172,-0.009339,0.014832,-0.255460,-0.001465,-0.000732,-0.000488,0,0,0,0
24.269176,-1.898438,-1.289062,0.007812,0.000000,0.000000,-0.016657,-0.009339,0.014832,-0.255460,-0.000488,0.003906,0.000000,0,0,0,0
24.278946,-1.898438,-1.289062,0.007812,0.000000,0.000000,-0.016703,-0.009339,0.014832,-0.255460,0.000000,0.000244,-0.000488,0,0,0,0
24.288710,-1.898438,-1.289062,0.007812,0.000000,0.000000,-0.016405,-0.009339,0.014832,-0.255460,0.000732,-0.000244,0.001709,0,0,0,0
24.298473,-1.898438,-1.289062,0.007812,0.000000,0.000000,-0.016731,-0.009339,0.014832,-0.255460,-0.001465,-0.000732,-0.000977,0,0,0,0
24.308239,-1.898438,-1.289062,0.007812,0.000000,0.000000,-0.016787,-0.009339,0.014832,-0.255460,-0.000488,-0.000244,-0.000977,0,0,0,0
24.318007,-1.898438,-1.289062,0.007812,0.000000,0.000000,-0.016451,-0.009339,0.014832,-0.255460,-0.001953,-0.000244,0.002197,0,0,0,0
24.327770,-1.898438,-1.289062,0.007812,0.000000,0.000000,-0.016348,-0.009339,0.014832,-0.255460,-0.000488,0.002441,-0.001953,0,0,0,0
24.337538,-1.898438,-1.289062,0.007812,0.000000,0.000000,-0.016436,-0.009339,0.014832,-0.255460,0.000000,-0.000244,-0.000488,0,0,0,0
24.347307,-1.898438,-1.289062,0.007812,0.000000,0.000000,-0.016909,-0.009339,0.014832,-0.255460,-0.004150,-0.002686,-0.001465,0,0,0,0
24.357067,-1.898438,-1.289062,0.007812,0.000000,0.000000,-0.016516,-0.009339,0.014832,-0.255460,0.000732,-0.000244,-0.000488,0,0,0,0
24.366833,-1.898438,-1.289062,0.007812,0.000000,0.000000,-0.016806,-0.009339,0.014832,-0.255460,-0.003174,-0.000244,0.000488,0,0,0,0
24.376598,-1.898438,-1.289062,0.007812,0.000000,0.000000,-0.017319,-0.009339,0.014832,-0.255460,-0.005127,-0.001221,-0.001953,0,0,0,0
24.386366,-1.898438,-1.289062,0.007812,0.000000,0.000000,-0.016537,-0.009339,0.014832,-0.255460,0.000732,-0.001221,-0.001465,0,0,0,0
24.396130,-1.898438,-1.289062,0.007812,0.000000,0.000000,-0.017067,-0.009339,0.014832,-0.255460,0.002197,-0.000244,0.000000,0,0,0,0
24.405895,-1.898438,-1.289062,0.007812,0.000000,0.000000,-0.017502,-0.009339,0.014832,-0.255460,-0.001465,-0.001221,0.002197,0,0,0,0
24.415663,-1.898438,-1.289062,0.007812,0.000000,0.000000,-0.016523,-0.009339,0.014832,-0.255460,0.001221,0.002930,-0.000977,0,0,0,0
24.425426,-1.898438,-1.289062,0.007812,0.000000,0.000000,-0.016760,-0.009339,0.014832,-0.255460,0.001221,-0.003906,0.000488,0,0,0,0
24.435192,-1.898438,-1.289062,0.007812,0.000000,0.000000,-0.016603,-0.009339,0.014832,-0.255460,-0.004150,-0.004395,-0.000488,0,0,0,0
24.444963,-1.898438,-1.289062,0.007812,0.000000,0.000000,-0.017042,-0.009339,0.014832,-0.255460,-0.000977,-0.003906,-0.000977,0,0,0,0
24.454725,-1.898438,-1.289062,0.007812,0.000000,0.000000,-0.016449,-0.009339,0.014832,-0.255460,-0.000977,-0.001221,0.000488,0,0,0,0
24.464491,-1.898438,-1.289062,0.007812,0.000000,0.000000,-0.016739,-0.009339,0.014832,-0.255460,-0.001953,0.001709,0.000488,0,0,0,0
24.474257,-1.898438,-1.289062,0.007812,0.000000,0.000000,-0.017330,-0.009339,0.014832,-0.255460,0.001221,-0.000732,-0.001953,0,0,0,0
24.484022,-1.898438,-1.289062,0.007812,0.000000,0.000000,-0.016502,-0.009339,0.014832,-0.255460,0.001709,0.001709,0.000488,0,0,0,0
24.493790,-1.898438,-1.289062,0.007812,0.000000,0.000000,-0.017216,-0.009339,0.014832,-0.255460,-0.001953,-0.000732,0.001221,0,0,0,0
24.503553,-1.898438,-1.289062,0.007812,0.000000,0.000000,-0.017174,-0.009339,0.014832,-0.255460,0.000732,0.002441,-0.000488,0,0,0,0
24.513319,-1.898438,-1.289062,0.007812,0.000000,0.000000,-0.017111,-0.009339,0.014832,-0.255460,-0.001953,-0.000244,0.000000,0,0,0,0
24.523087,-1.898438,-1.289062,0.007812,0.000000,0.000000,-0.015659,-0.009339,0.014832,-0.255460,0.002197,0.000732,0.001221,0,0,0,0
24.532848,-1.898438,-1.289062,0.007812,0.000000,0.000000,-0.015970,-0.009339,0.014832,-0.255460,-0.000488,0.002441,0.000488,0,0,0,0
24.542616,-1.898438,-1.289062,0.007812,0.000000,0.000000,-0.016415,-0.009339,0.014832,-0.255460,-0.001465,-0.001709,0.001221,0,0,0,0
24.552383,-1.898438,-1.289062,0.007812,0.000000,0.000000,-0.015646,-0.009339,0.014832,-0.255460,0.003418,0.002441,-0.001465,0,0,0,0
24.562147,-1.898438,-1.289062,0.007812,0.000000,0.000000,-0.016401,-0.009339,0.014832,-0.255460,-0.000977,0.002930,0.001221,0,0,0,0
24.571913,-1.898438,-1.289062,0.007812,0.000000,0.000000,-0.016804,-0.009339,0.014832,-0.255460,-0.002441,-0.000244,-0.000977,0,0,0,0
24.581676,-1.898438,-1.289062,0.007812,0.000000,0.000000,-0.016056,-0.009339,0.014832,-0.255460,0.001221,0.000244,0.000488,0,0,0,0
24.591444,-1.898438,-1.289062,0.007812,0.000000,0.000000,-0.016329,-0.009339,0.014832,-0.255460,0.001709,0.000244,0.000488,0,0,0,0
24.601212,-1.898438,-1.289062,0.007812,0.000000,0.000000,-0.016752,-0.009339,0.014832,-0.255460,-0.000977,-0.001221,-0.001465,0,0,0,0
24.610975,-1.898438,-1.289062,0.007812,0.000000,0.000000,-0.015842,-0.009339,0.014832,-0.255460,-0.000977,0.000732,-0.001953,0,0,0,0
24.620743,-1.898438,-1.289062,0.007812,0.000000,0.000000,-0.015369,-0.009339,0.014832,-0.255460,-0.000488,0.001221,0.000488,0,0,0,0
24.630507,-1.898438,-1.289062,0.007812,0.000000,0.000000,-0.015579,-0.009339,0.014832,-0.255460,-0.003174,0.001221,0.002686,0,0,0,0
24.640278,-1.898438,-1.289062,0.007812,0.000000,0.000000,-0.016138,-0.009339,0.014832,-0.255460,0.000732,0.000732,0.000488,0,0,0,0
24.650038,-1.898438,-1.289062,0.007812,0.000000,0.000000,-0.015676,-0.009339,0.014832,-0.255460,-0.000488,-0.000732,-0.001465,0,0,0,0
24.659803,-1.898438,-1.289062,0.007812,0.000000,0.000000,-0.015919,-0.009339,0.014832,-0.255460,0.000000,-0.000244,0.000488,0,0,0,0
24.669567,-1.898438,-1.289062,0.007812,0.000000,0.000000,-0.016613,-0.009339,0.014832,-0.255460,-0.000488,-0.000732,0.003174,0,0,0,0
24.679333,-1.898438,-1.289062,0.007812,0.000000,0.000000,-0.017162,-0.009339,0.014832,-0.255460,0.000000,-0.001221,0.000488,0,0,0,0
24.689098,-1.898438,-1.289062,0.007812,0.000000,0.000000,-0.015924,-0.009339,0.014832,-0.255460,-0.001953,-0.002686,-0.002686,0,0,0,0
24.698866,-1.898438,-1.289062,0.007812,0.000000,0.000000,-0.016207,-0.009339,0.014832,-0.255460,-0.001953,0.000732,-0.001953,0,0,0,0
24.708632,-1.898438,-1.289062,0.007812,0.000000,0.000000,-0.016678,-0.009339,0.014832,-0.255460,-0.001465,-0.000244,-0.001465,0,0,0,0
24.718397,-1.898438,-1.289062,0.007812,0.000000,0.000000,-0.016073,-0.009339,0.014832,-0.255460,-0.001953,-0.001221,-0.001465,0,0,0,0
24.728163,-1.898438,-1.289062,0.007812,0.000000,0.000000,-0.015944,-0.009278,0.014832,-0.255460,-0.001953,0.000732,-0.000977,0,0,0,0
24.737926,-1.898438,-1.289062,0.007812,0.000000,0.000000,-0.016449,-0.009278,0.014832,-0.255460,0.000000,-0.000732,0.000488,0,0,0,0
24.747694,-1.898438,-1.289062,0.007812,0.000000,0.000000,-0.017105,-0.009278,0.014832,-0.255460,-0.000977,-0.001709,-0.001465,0,0,0,0
24.757458,-1.898438,-1.289062,0.007812,0.000000,0.000000,-0.016710,-0.009278,0.014832,-0.255460,-0.000977,0.000244,-0.001465,0,0,0,0
24.767223,-1.898438,-1.289062,0.007812,0.000000,0.000000,-0.016176,-0.009278,0.014832,-0.255460,-0.001953,-0.001221,-0.001465,0,0,0,0
24.776991,-1.898438,-1.289062,0.007812,0.000000,0.000000,-0.016823,-0.009278,0.014832,-0.255460,0.000000,0.000732,0.001221,0,0,0,0
24.786757,-1.898438,-1.289062,0.007812,0.000000,0.000000,-0.016678,-0.009278,0.014771,-0.255460,0.000732,0.001221,0.002197,0,0,0,0
24.796522,-1.898438,-1.289062,0.007812,0.000000,0.000000,-0.017254,-0.009278,0.014771,-0.255460,0.000732,-0.000244,0.002686,0,0,0,0
24.806288,-1.898438,-1.289062,0.007812,0.000000,0.000000,-0.017426,-0.009278,0.014771,-0.255460,0.000000,-0.001221,0.001221,0,0,0,0
24.816053,-1.898438,-1.289062,0.007812,0.000000,0.000000,-0.017773,-0.009278,0.014771,-0.255460,-0.000977,-0.001709,0.000488,0,0,0,0
24.825823,-1.898438,-1.289062,0.007812,0.000000,0.000000,-0.017614,-0.009278,0.014771,-0.255460,-0.001953,0.000244,-0.001953,0,0,0,0
24.835583,-1.898438,-1.289062,0.007812,0.000000,0.000000,-0.017838,-0.009278,0.014771,-0.255460,-0.000977,-0.000732,0.000488,0,0,0,0
24.845350,-1.898438,-1.289062,0.007812,0.000000,0.000000,-0.017025,-0.009278,0.014771,-0.255460,0.001709,0.001221,0.001221,0,0,0,0
24.855116,-1.898438,-1.289062,0.007812,0.000000,0.000000,-0.016657,-0.009278,0.014771,-0.255460,-0.001465,0.000732,0.001221,0,0,0,0
24.864882,-1.898438,-1.289062,0.007812,0.000000,0.000000,-0.017092,-0.009157,0.014771,-0.255432,-0.000488,0.001221,-0.001953,0,0,0,0
24.874645,-1.898438,-1.289062,0.007812,0.000000,0.000000,-0.017307,-0.009157,0.014771,-0.255432,-0.000977,0.000732,0.000000,0,0,0,0
24.884413,-1.898438,-1.289062,0.007812,0.000000,0.000000,-0.016693,-0.009157,0.014771,-0.255432,-0.000977,-0.001221,0.002197,0,0,0,0
24.894176,-1.898438,-1.289062,0.007812,0.000000,0.000000,-0.017248,-0.009157,0.014771,-0.255432,0.000732,-0.000732,0.000488,0,0,0,0
24.903946,-1.898438,-1.289062,0.007812,0.000000,0.000000,-0.017529,-0.009157,0.014771,-0.255432,0.000000,-0.001221,-0.000488,0,0,0,0
24.913712,-1.898438,-1.289062,0.007812,0.000000,0.000000,-0.018154,-0.009157,0.014771,-0.255432,0.000000,0.000732,-0.000488,0,0,0,0
24.923483,-1.898438,-1.289062,0.007812,0.000000,0.000000,-0.018198,-0.009157,0.014771,-0.255432,-0.000488,-0.000244,-0.000488,0,0,0,0
24.933243,-1.898438,-1.289062,0.007812,0.000000,0.000000,-0.017815,-0.009157,0.014771,-0.255432,-0.000488,-0.000244,0.001221,0,0,0,0
24.943008,-1.898438,-1.289062,0.007812,0.000000,0.000000,-0.018145,-0.009157,0.014771,-0.255432,-0.002441,-0.000244,0.001221,0,0,0,0
24.952772,-1.898438,-1.289062,0.007812,0.000000,0.000000,-0.017748,-0.009157,0.014771,-0.255432,-0.003174,0.001221,0.001221,0,0,0,0
24.962542,-1.898438,-1.289062,0.007812,0.000000,0.000000,-0.017942,-0.009157,0.014771,-0.255432,-0.002441,-0.001709,-0.000488,0,0,0,0
24.972305,-1.898438,-1.289062,0.007812,0.000000,0.000000,-0.018461,-0.009157,0.014771,-0.255432,-0.000488,-0.001709,0.000488,0,0,0,0
24.982073,-1.898438,-1.289062,0.007812,0.000000,0.000000,-0.018381,-0.009157,0.014771,-0.255432,-0.003662,-0.002197,0.001709,0,0,0,0
24.991835,-1.898438,-1.289062,0.007812,0.000000,0.000000,-0.018433,-0.009157,0.014771,-0.255432,-0.004150,-0.004395,0.001709,0,0,0,0
25.001598,-1.898438,-1.289062,0.007812,0.000000,0.000000,-0.018887,-0.009157,0.014771,-0.255432,-0.001465,0.000732,-0.000488,0,0,0,0
25.011366,-1.898438,-1.289062,0.007812,0.000000,0.000000,-0.019440,-0.009157,0.014771,-0.255432,-0.001953,-0.002197,0.000000,0,0,0,0
25.021130,-1.898438,-1.289062,0.007812,0.000000,0.000000,-0.019032,-0.009157,0.014771,-0.255432,0.001709,-0.001709,-0.001953,0,0,0,0
25.030895,-1.898438,-1.289062,0.007812,0.000000,0.000000,-0.019836,-0.009157,0.014771,-0.255432,-0.000488,0.000244,-0.001953,0,0,0,0
25.040663,-1.898438,-1.289062,0.007812,0.000000,0.000000,-0.019989,-0.009157,0.014771,-0.255432,-0.004150,0.000244,0.001221,0,0,0,0
25.050428,-1.898438,-1.289062,0.007812,0.000000,0.000000,-0.019093,-0.009218,0.014710,-0.255432,0.000732,0.000732,0.000000,0,0,0,0
25.060198,-1.898438,-1.289062,0.007812,0.000000,0.000000,-0.019432,-0.009218,0.014710,-0.255432,0.001709,-0.002197,0.000488,0,0,0,0
25.069960,-1.898438,-1.289062,0.007812,0.000000,0.000000,-0.020220,-0.009218,0.014649,-0.255432,-0.002441,-0.000732,0.000000,0,0,0,0
25.079723,-1.898438,-1.289062,0.007812,0.000000,0.000000,-0.019434,-0.009218,0.014649,-0.255432,0.001709,-0.001221,-0.000488,0,0,0,0
25.089491,-1.898438,-1.289062,0.007812,0.000000,0.000000,-0.019197,-0.009218,0.014649,-0.255432,0.000732,0.002930,-0.000977,0,0,0,0
25.099255,-1.898438,-1.289062,0.007812,0.000000,0.000000,-0.019541,-0.009218,0.014649,-0.255432,0.000732,0.000732,-0.000488,0,0,0,0
25.109020,-1.898438,-1.289062,0.007812,0.000000,0.000000,-0.019999,-0.009218,0.014649,-0.255432,-0.000977,0.000244,0.000488,0,0,0,0
25.118788,-1.898438,-1.289062,0.007812,0.000000,0.000000,-0.019300,-0.009218,0.014649,-0.255432,0.001221,0.000732,0.000488,0,0,0,0
25.128551,-1.898438,-1.289062,0.007812,0.000000,0.000000,-0.019657,-0.009218,0.014649,-0.255432,-0.001953,-0.001221,0.001221,0,0,0,0
25.138317,-1.898438,-1.289062,0.007812,0.000000,0.000000,-0.019053,-0.009218,0.014649,-0.255432,0.001221,0.000244,0.001221,0,0,0,0
25.148083,-1.898438,-1.289062,0.007812,0.000000,0.000000,-0.019741,-0.009218,0.014649,-0.255432,-0.000977,-0.000732,-0.000977,0,0,0,0
25.157848,-1.898438,-1.289062,0.007812,0.000000,0.000000,-0.016657,-0.009218,0.014649,-0.255432,0.002197,0.000732,0.001709,0,0,0,0
25.167616,-1.898438,-1.289062,0.007812,0.000000,0.000000,-0.016962,-0.009218,0.014649,-0.255432,-0.000977,-0.000732,0.000000,0,0,0,0
25.177380,-1.898438,-1.289062,0.007812,0.000000,0.000000,-0.017006,-0.009218,0.014649,-0.255432,0.001709,0.001709,-0.001953,0,0,0,0
25.187145,-1.898438,-1.289062,0.007812,0.000000,0.000000,-0.016699,-0.009218,0.014649,-0.255432,-0.001953,-0.002197,-0.001953,0,0,0,0
25.196934,-1.898438,-1.289062,0.007812,0.000000,0.000000,-0.017269,-0.009218,0.014649,-0.255432,-0.001465,-0.002686,-0.001465,0,0,0,0
25.206692,-1.898438,-1.289062,0.007812,0.000000,0.000000,-0.017494,-0.009218,0.014649,-0.255432,-0.000488,0.000244,0.001709,0,0,0,0
25.216440,-1.898438,-1.289062,0.007812,0.000000,0.000000,-0.017101,-0.009218,0.014649,-0.255432,-0.000488,0.001709,0.000000,0,0,0,0
25.227186,-1.898438,-1.289062,0.007812,0.000000,0.000000,-0.016983,-0.009218,0.014649,-0.255432,-0.002441,0.001709,0.000000,0,0,0,0
25.235970,-1.898438,-1.289062,0.007812,0.000000,0.000000,-0.016579,-0.009218,0.014649,-0.255432,-0.003174,0.000732,0.000000,0,0,0,0
25.245735,-1.898438,-1.289062,0.007812,0.000000,0.000000,-0.016968,-0.009218,0.014649,-0.255432,0.002197,0.000244,0.001221,0,0,0,0
25.255501,-1.898438,-1.289062,0.007812,0.000000,0.000000,-0.016453,-0.009218,0.014649,-0.255432,0.000732,0.002441,0.003906,0,0,0,0
25.265266,-1.898438,-1.289062,0.007812,0.000000,0.000000,-0.016901,-0.009218,0.014649,-0.255432,0.001709,-0.001221,0.001709,0,0,0,0
25.275032,-1.898438,-1.289062,0.007812,0.000000,0.000000,-0.017277,-0.009218,0.014649,-0.255432,-0.001465,0.002441,0.001221,0,0,0,0
25.284798,-1.898438,-1.289062,0.007812,0.000000,0.000000,-0.016830,-0.009218,0.014649,-0.255432,-0.000977,-0.000244,0.000000,0,0,0,0
25.294563,-1.898438,-1.289062,0.007812,0.000000,0.000000,-0.017437,-0.009218,0.014649,-0.255432,-0.001953,-0.001221,0.002197,0,0,0,0
25.304329,-1.898438,-1.289062,0.007812,0.000000,0.000000,-0.018141,-0.009218,0.014649,-0.255432,0.002686,-0.002197,0.000488,0,0,0,0
25.314095,-1.898438,-1.289062,0.007812,0.000000,0.000000,-0.017332,-0.009218,0.014649,-0.255432,-0.000977,0.000244,-0.001953,0,0,0,0
25.323860,-1.898438,-1.289062,0.007812,0.000000,0.000000,-0.016895,-0.009218,0.014649,-0.255432,-0.001465,0.000732,-0.000977,0,0,0,0
25.333626,-1.898438,-1.289062,0.007812,0.000000,0.000000,-0.017288,-0.009218,0.014649,-0.255432,0.000732,-0.002197,-0.000488,0,0,0,0
25.343395,-1.898438,-1.289062,0.007812,0.000000,0.000000,-0.017633,-0.009218,0.014649,-0.255432,0.000000,0.001221,-0.001953,0,0,0,0
25.353161,-1.898438,-1.289062,0.007812,0.000000,0.000000,-0.017395,-0.009218,0.014649,-0.255432,0.000000,-0.001709,0.000000,0,0,0,0
25.362926,-1.898438,-1.289062,0.007812,0.000000,0.000000,-0.017809,-0.009218,0.014649,-0.255432,0.001709,-0.002686,-0.001465,0,0,0,0
25.372690,-1.898438,-1.289062,0.007812,0.000000,0.000000,-0.018278,-0.009218,0.014649,-0.255432,-0.000488,0.000244,-0.001465,0,0,0,0
25.382460,-1.898438,-1.289062,0.007812,0.000000,0.000000,-0.017838,-0.009218,0.014649,-0.255432,0.001709,0.000732,0.000000,0,0,0,0
25.392227,-1.898438,-1.289062,0.007812,0.000000,0.000000,-0.017675,-0.009218,0.014649,-0.255432,-0.003662,-0.001709,0.002686,0,0,0,0
25.401991,-1.898438,-1.289062,0.007812,0.000000,0.000000,-0.018259,-0.009218,0.014649,-0.255432,0.000000,0.000244,0.000488,0,0,0,0
25.411757,-1.898438,-1.289062,0.007812,0.000000,0.000000,-0.018702,-0.009218,0.014649,-0.255432,0.002197,0.000732,-0.000488,0,0,0,0
25.421520,-1.898438,-1.289062,0.007812,0.000000,0.000000,-0.018099,-0.009218,0.014649,-0.255432,0.000732,0.000244,0.001709,0,0,0,0
25.431284,-1.898438,-1.289062,0.007812,0.000000,0.000000,-0.018698,-0.009218,0.014649,-0.255432,0.000000,0.000732,0.001221,0,0,0,0
25.441050,-1.898438,-1.289062,0.007812,0.000000,0.000000,-0.018913,-0.009218,0.014649,-0.255432,0.001221,-0.000244,-0.000488,0,0,0,0
25.450815,-1.898438,-1.289062,0.007812,0.000000,0.000000,-0.017960,-0.009218,0.014649,-0.255432,0.000732,-0.000732,0.001221,0,0,0,0
25.460585,-1.898438,-1.289062,0.007812,0.000000,0.000000,-0.018263,-0.009218,0.014649,-0.255432,0.001709,-0.002197,0.001709,0,0,0,0
25.470346,-1.898438,-1.289062,0.007812,0.000000,0.000000,-0.018480,-0.009218,0.014649,-0.255432,-0.000488,0.001709,0.000488,0,0,0,0
25.480124,-1.898438,-1.289062,0.007812,0.000000,0.000000,-0.018850,-0.009218,0.014649,-0.255432,0.000732,-0.000732,-0.001465,0,0,0,0
25.489891,-1.898438,-1.289062,0.007812,0.000000,0.000000,-0.018236,-0.009218,0.014649,-0.255432,-0.003174,0.001221,-0.000488,0,0,0,0
25.499643,-1.898438,-1.289062,0.007812,0.000000,0.000000,-0.018576,-0.009218,0.014649,-0.255432,-0.001953,-0.003174,-0.002686,0,0,0,0
25.509411,-1.898438,-1.289062,0.007812,0.000000,0.000000,-0.019018,-0.009218,0.014649,-0.255432,0.000732,0.001221,0.001221,0,0,0,0
25.519175,-1.898438,-1.289062,0.007812,0.000000,0.000000,-0.018234,-0.009218,0.014649,-0.255432,-0.001953,0.002441,0.002197,0,0,0,0
25.528946,-1.898438,-1.289062,0.007812,0.000000,0.000000,-0.018389,-0.009033,0.014648,-0.255371,0.000000,-0.000732,0.002197,0,0,0,0
25.538710,-1.898438,-1.289062,0.007812,0.000000,0.000000,-0.018768,-0.009218,0.014649,-0.255432,-0.001953,-0.000244,-0.000488,0,0,0,0
25.548477,-1.898438,-1.289062,0.007812,0.000000,0.000000,-0.017323,-0.009218,0.014649,-0.255432,0.001709,-0.000732,-0.000977,0,0,0,0
25.558241,-1.898438,-1.289062,0.007812,0.000000,0.000000,-0.017622,-0.009218,0.014649,-0.255432,0.001221,0.002930,0.001709,0,0,0,0
25.568007,-1.898438,-1.289062,0.007812,0.000000,0.000000,-0.017817,-0.009218,0.014649,-0.255432,-0.000488,0.001221,0.002686,0,0,0,0
25.577772,-1.898438,-1.289062,0.007812,0.000000,0.000000,-0.018021,-0.009218,0.014649,-0.255432,0.000000,-0.000732,0.001221,0,0,0,0
25.587534,-1.898438,-1.289062,0.007812,0.000000,0.000000,-0.017076,-0.009218,0.014649,-0.255432,-0.000977,-0.000732,-0.000488,0,0,0,0
25.597300,-1.898438,-1.289062,0.007812,0.000000,0.000000,-0.017467,-0.009218,0.014649,-0.255432,-0.003662,-0.000732,0.001221,0,0,0,0
25.607065,-1.898438,-1.289062,0.007812,0.000000,0.000000,-0.017672,-0.009218,0.014649,-0.255432,-0.001953,0.001221,0.002197,0,0,0,0
25.616831,-1.898438,-1.289062,0.007812,0.000000,0.000000,-0.016752,-0.009218,0.014649,-0.255432,-0.001465,0.000244,0.002197,0,0,0,0
25.626595,-1.898438,-1.289062,0.007812,0.000000,0.000000,-0.016972,-0.009218,0.014649,-0.255432,-0.003174,0.001221,-0.000977,0,0,0,0
25.636362,-1.898438,-1.289062,0.007812,0.000000,0.000000,-0.017141,-0.009218,0.014649,-0.255432,-0.000977,0.000244,0.000488,0,0,0,0
25.646147,-1.898438,-1.289062,0.007812,0.000000,0.000000,-0.017641,-0.009218,0.014649,-0.255432,-0.001465,-0.000244,-0.001465,0,0,0,0
25.655891,-1.898438,-1.289062,0.007812,0.000000,0.000000,-0.016388,-0.009218,0.014649,-0.255432,-0.001465,-0.000244,-0.000977,0,0,0,0
25.665661,-1.898438,-1.289062,0.007812,0.000000,0.000000,-0.016575,-0.009218,0.014649,-0.255432,0.001221,-0.001709,0.001709,0,0,0,0
25.675425,-1.898438,-1.289062,0.007812,0.000000,0.000000,-0.016939,-0.009218,0.014649,-0.255432,-0.000488,-0.000244,-0.001465,0,0,0,0
25.685188,-1.898438,-1.289062,0.007812,0.000000,0.000000,-0.015972,-0.009218,0.014649,-0.255432,-0.002441,0.000244,-0.001953,0,0,0,0
25.694954,-1.898438,-1.289062,0.007812,0.000000,0.000000,-0.016256,-0.009218,0.014649,-0.255432,0.001709,0.001709,-0.001953,0,0,0,0
25.704721,-1.898438,-1.289062,0.007812,0.000000,0.000000,-0.016415,-0.009218,0.014649,-0.255432,-0.000977,0.000244,-0.000488,0,0,0,0
25.714487,-1.898438,-1.289062,0.007812,0.000000,0.000000,-0.017038,-0.009218,0.014649,-0.255432,0.001221,-0.001221,-0.000488,0,0,0,0
25.724253,-1.898438,-1.289062,0.007812,0.000000,0.000000,-0.016306,-0.009218,0.014649,-0.255432,0.000732,0.001221,0.001709,0,0,0,0
25.734018,-1.898438,-1.289062,0.007812,0.000000,0.000000,-0.016737,-0.009218,0.014649,-0.255432,-0.000977,-0.000732,0.001221,0,0,0,0
25.743813,-1.898438,-1.289062,0.007812,0.000000,0.000000,-0.017147,-0.009218,0.014649,-0.255432,0.001709,-0.000732,-0.000977,0,0,0,0
25.753550,-1.898438,-1.289062,0.007812,0.000000,0.000000,-0.016249,-0.009218,0.014588,-0.255432,0.000000,-0.001221,-0.001465,0,0,0,0
25.763315,-1.898438,-1.289062,0.007812,0.000000,0.000000,-0.016441,-0.009218,0.014588,-0.255432,0.000732,-0.001709,0.000488,0,0,0,0
25.773085,-1.898438,-1.289062,0.007812,0.000000,0.000000,-0.016737,-0.009218,0.014588,-0.255432,-0.003174,0.000244,0.000000,0,0,0,0
25.782850,-1.898438,-1.289062,0.007812,0.000000,0.000000,-0.014820,-0.009218,0.014588,-0.255432,-0.000488,0.001221,0.002686,0,0,0,0
25.792618,-1.898438,-1.289062,0.007812,0.000000,0.000000,-0.015236,-0.009218,0.014588,-0.255432,0.002686,0.001709,-0.000488,0,0,0,0
25.802383,-1.898438,-1.289062,0.007812,0.000000,0.000000,-0.015652,-0.009218,0.014588,-0.255432,0.002197,-0.000732,0.001709,0,0,0,0
25.812149,-1.898438,-1.289062,0.007812,0.000000,0.000000,-0.016161,-0.009218,0.014588,-0.255432,-0.000488,-0.002197,0.000000,0,0,0,0
25.821907,-1.898438,-1.289062,0.007812,0.000000,0.000000,-0.015676,-0.009218,0.014588,-0.255432,-0.004150,-0.001709,-0.000488,0,0,0,0
25.831675,-1.898438,-1.289062,0.007812,0.000000,0.000000,-0.015856,-0.009218,0.014588,-0.255432,-0.000488,-0.001709,-0.001465,0,0,0,0
25.841440,-1.898438,-1.289062,0.007812,0.000000,0.000000,-0.016230,-0.009218,0.014588,-0.255432,-0.002441,0.000732,0.001221,0,0,0,0
25.851206,-1.898438,-1.289062,0.007812,0.000000,0.000000,-0.015703,-0.009218,0.014588,-0.255432,-0.000488,-0.001709,0.000488,0,0,0,0
25.860971,-1.898438,-1.289062,0.007812,0.000000,0.000000,-0.015272,-0.009218,0.014588,-0.255432,0.000000,-0.000732,-0.002686,0,0,0,0
25.870739,-1.898438,-1.289062,0.007812,0.000000,0.000000,-0.015913,-0.009218,0.014588,-0.255432,-0.001953,-0.000244,-0.001465,0,0,0,0
25.880505,-1.898438,-1.289062,0.007812,0.000000,0.000000,-0.016119,-0.009218,0.014527,-0.255432,0.000732,-0.000732,0.002686,0,0,0,0
25.890270,-1.898438,-1.289062,0.007812,0.000000,0.000000,-0.015856,-0.009218,0.014527,-0.255432,-0.003662,0.001709,-0.001465,0,0,0,0
25.900038,-1.898438,-1.289062,0.007812,0.000000,0.000000,-0.016314,-0.009033,0.014404,-0.255371,-0.004639,0.002930,0.000000,0,0,0,0
25.909807,-1.898438,-1.289062,0.007812,0.000000,0.000000,-0.016420,-0.009218,0.014527,-0.255432,-0.004150,0.001709,0.000000,0,0,0,0
25.919563,-1.898438,-1.289062,0.007812,0.000000,0.000000,-0.015749,-0.009218,0.014527,-0.255432,-0.004150,-0.000732,0.000488,0,0,0,0
25.929331,-1.898438,-1.289062,0.007812,0.000000,0.000000,-0.015982,-0.009218,0.014527,-0.255432,-0.003174,0.003418,-0.000488,0,0,0,0
25.939095,-1.898438,-1.289062,0.007812,0.000000,0.000000,-0.016121,-0.009218,0.014527,-0.255432,-0.001465,-0.000244,0.000488,0,0,0,0
25.948862,-1.898438,-1.289062,0.007812,0.000000,0.000000,-0.015480,-0.009218,0.014527,-0.255432,-0.003662,0.001221,0.000000,0,0,0,0
25.958628,-1.898438,-1.289062,0.007812,0.000000,0.000000,-0.015888,-0.009218,0.014527,-0.255432,-0.001953,0.000244,0.001709,0,0,0,0
25.968393,-1.898438,-1.289062,0.007812,0.000000,0.000000,-0.016264,-0.009218,0.014527,-0.255432,-0.001953,-0.000732,0.001709,0,0,0,0
25.978159,-1.898438,-1.289062,0.007812,0.000000,0.000000,-0.016523,-0.009218,0.014527,-0.255432,-0.001465,0.001221,-0.000488,0,0,0,0
25.987925,-1.898438,-1.289062,0.007812,0.000000,0.000000,-0.015831,-0.009218,0.014527,-0.255432,0.001221,-0.000732,-0.001465,0,0,0,0
25.997690,-1.898438,-1.289062,0.007812,0.000000,0.000000,-0.016335,-0.009218,0.014527,-0.255432,-0.000488,-0.000244,0.000488,0,0,0,0
26.007456,-1.898438,-1.289062,0.007812,0.000000,0.000000,-0.016624,-0.009218,0.014527,-0.255432,0.000732,0.000244,-0.000977,0,0,0,0
26.017221,-1.898438,-1.289062,0.007812,0.000000,0.000000,-0.015594,-0.009218,0.014527,-0.255432,0.000000,0.000732,0.001221,0,0,0,0
26.026987,-1.898438,-1.289062,0.007812,0.000000,0.000000,-0.016169,-0.009218,0.014527,-0.255432,0.001221,-0.000244,0.001709,0,0,0,0
26.036751,-1.898438,-1.289062,0.007812,0.000000,0.000000,-0.016493,-0.009218,0.014527,-0.255432,0.000000,0.000244,0.004395,0,0,0,0
26.046516,-1.898438,-1.289062,0.007812,0.000000,0.000000,-0.016996,-0.009218,0.014527,-0.255432,0.003906,-0.001221,0.000000,0,0,0,0
26.056284,-1.898438,-1.289062,0.007812,0.000000,0.000000,-0.016087,-0.009218,0.014527,-0.255491,-0.000977,-0.004883,0.001709,0,0,0,0
26.066050,-1.898438,-1.289062,0.007812,0.000000,0.000000,-0.016285,-0.009218,0.014527,-0.255491,-0.001465,-0.000244,0.000488,0,0,0,0
26.075834,-1.898438,-1.289062,0.007812,0.000000,0.000000,-0.016657,-0.009218,0.014527,-0.255491,0.002686,0.002441,0.001709,0,0,0,0
26.085590,-1.898438,-1.289062,0.007812,0.000000,0.000000,-0.015871,-0.009218,0.014527,-0.255491,-0.000977,-0.000244,0.002197,0,0,0,0
26.095346,-1.898438,-1.289062,0.007812,0.000000,0.000000,-0.016716,-0.009218,0.014527,-0.255491,0.001709,-0.000244,0.000488,0,0,0,0
26.105110,-1.898438,-1.289062,0.007812,0.000000,0.000000,-0.017059,-0.009218,0.014527,-0.255491,0.001221,-0.002686,0.002197,0,0,0,0
26.114878,-1.898438,-1.289062,0.007812,0.000000,0.000000,-0.017603,-0.009218,0.014527,-0.255491,-0.001465,0.001709,0.002686,0,0,0,0
26.124641,-1.898438,-1.289062,0.007812,0.000000,0.000000,-0.016687,-0.009218,0.014527,-0.255491,-0.001465,0.000732,0.001221,0,0,0,0
26.134413,-1.898438,-1.289062,0.007812,0.000000,0.000000,-0.017279,-0.009218,0.014527,-0.255491,0.001221,0.000244,0.000000,0,0,0,0
26.144173,-1.898438,-1.289062,0.007812,0.000000,0.000000,-0.017435,-0.009218,0.014527,-0.255491,-0.001465,-0.000244,0.000488,0,0,0,0
26.153938,-1.898438,-1.289062,0.007812,0.000000,0.000000,-0.016665,-0.009218,0.014527,-0.255491,0.000000,-0.000244,0.001709,0,0,0,0
26.163706,-1.898438,-1.289062,0.007812,0.000000,0.000000,-0.017267,-0.009218,0.014527,-0.255491,-0.000488,0.000244,-0.000488,0,0,0,0
26.173471,-1.898438,-1.289062,0.007812,0.000000,0.000000,-0.018890,-0.009218,0.014527,-0.255491,-0.000488,0.000732,-0.000488,0,0,0,0
26.183237,-1.898438,-1.289062,0.007812,0.000000,0.000000,-0.017550,-0.009218,0.014527,-0.255491,-0.002441,-0.000732,-0.000977,0,0,0,0
26.193003,-1.898438,-1.289062,0.007812,0.000000,0.000000,-0.017771,-0.009218,0.014527,-0.255491,-0.003174,-0.001709,-0.000488,0,0,0,0
26.202768,-1.898438,-1.289062,0.007812,0.000000,0.000000,-0.017778,-0.009218,0.014527,-0.255491,0.000000,0.002441,-0.000977,0,0,0,0
26.212538,-1.898438,-1.289062,0.007812,0.000000,0.000000,-0.017645,-0.009218,0.014527,-0.255491,-0.000977,-0.000244,-0.001465,0,0,0,0
26.222303,-1.898438,-1.289062,0.007812,0.000000,0.000000,-0.016399,-0.009218,0.014527,-0.255491,-0.002441,-0.001221,-0.003174,0,0,0,0
26.232069,-1.898438,-1.289062,0.007812,0.000000,0.000000,-0.016693,-0.009218,0.014527,-0.255491,0.000732,-0.000732,0.001221,0,0,0,0
26.241833,-1.898438,-1.289062,0.007812,0.000000,0.000000,-0.017296,-0.009218,0.014527,-0.255491,-0.000488,-0.001709,-0.000488,0,0,0,0
26.251595,-1.898438,-1.289062,0.007812,0.000000,0.000000,-0.017458,-0.009218,0.014527,-0.255491,-0.000488,0.002441,0.001709,0,0,0,0
26.261360,-1.898438,-1.289062,0.007812,0.000000,0.000000,-0.017811,-0.009218,0.014527,-0.255491,-0.000977,-0.000732,-0.002686,0,0,0,0
26.271130,-1.898438,-1.289062,0.007812,0.000000,0.000000,-0.017916,-0.009033,0.014404,-0.255371,-0.000488,0.000732,-0.000977,0,0,0,0
26.280895,-1.898438,-1.289062,0.007812,0.000000,0.000000,-0.018366,-0.009218,0.014527,-0.255491,0.000000,0.000244,0.001221,0,0,0,0
26.290659,-1.898438,-1.289062,0.007812,0.000000,0.000000,-0.017071,-0.009218,0.014527,-0.255491,-0.001953,0.000732,0.000488,0,0,0,0
26.300426,-1.898438,-1.289062,0.007812,0.000000,0.000000,-0.017620,-0.009218,0.014527,-0.255491,-0.000977,-0.000244,0.001221,0,0,0,0
26.310198,-1.898438,-1.289062,0.007812,0.000000,0.000000,-0.017900,-0.009218,0.014527,-0.255491,0.000732,0.000732,-0.001465,0,0,0,0
26.319960,-1.898438,-1.289062,0.007812,0.000000,0.000000,-0.016815,-0.009218,0.014527,-0.255491,0.001709,-0.000244,0.000488,0,0,0,0
26.329721,-1.898438,-1.289062,0.007812,0.000000,0.000000,-0.018238,-0.009218,0.014527,-0.255491,-0.001953,-0.001709,0.001221,0,0,0,0
26.339487,-1.898438,-1.289062,0.007812,0.000000,0.000000,-0.018986,-0.009218,0.014527,-0.255491,-0.001465,-0.000244,0.000488,0,0,0,0
26.349255,-1.898438,-1.289062,0.007812,0.000000,0.000000,-0.017378,-0.009218,0.014527,-0.255491,0.000000,-0.001709,0.002686,0,0,0,0
26.359020,-1.898438,-1.289062,0.007812,0.000000,0.000000,-0.017681,-0.009218,0.014527,-0.255491,0.000000,0.002441,0.002197,0,0,0,0
26.368788,-1.898438,-1.289062,0.007812,0.000000,0.000000,-0.017754,-0.009218,0.014527,-0.255491,-0.000977,-0.001709,0.000000,0,0,0,0
26.378550,-1.898438,-1.289062,0.007812,0.000000,0.000000,-0.018301,-0.009218,0.014527,-0.255491,-0.000488,0.000732,0.000488,0,0,0,0
26.388313,-1.898438,-1.289062,0.007812,0.000000,0.000000,-0.017130,-0.009218,0.014527,-0.255491,-0.000977,0.001221,0.000488,0,0,0,0
26.398081,-1.898438,-1.289062,0.007812,0.000000,0.000000,-0.017721,-0.009218,0.014527,-0.255491,-0.000977,0.001221,-0.001465,0,0,0,0
26.407846,-1.898438,-1.289062,0.007812,0.000000,0.000000,-0.018318,-0.009218,0.014527,-0.255491,0.000000,-0.001221,0.000000,0,0,0,0
26.417610,-1.898438,-1.289062,0.007812,0.000000,0.000000,-0.017065,-0.009218,0.014527,-0.255491,0.002686,0.001709,-0.000488,0,0,0,0
26.427376,-1.898438,-1.289062,0.007812,0.000000,0.000000,-0.017252,-0.009218,0.014527,-0.255491,0.000732,0.000732,0.002197,0,0,0,0
26.437153,-1.898438,-1.289062,0.007812,0.000000,0.000000,-0.017811,-0.009218,0.014527,-0.255491,-0.000977,0.001709,0.000000,0,0,0,0
26.446907,-1.898438,-1.289062,0.007812,0.000000,0.000000,-0.018496,-0.009218,0.014527,-0.255491,-0.000977,0.000244,-0.001465,0,0,0,0
26.456673,-1.898438,-1.289062,0.007812,0.000000,0.000000,-0.017263,-0.009218,0.014527,-0.255491,0.000000,-0.001221,0.000000,0,0,0,0
26.466440,-1.898438,-1.289062,0.007812,0.000000,0.000000,-0.017130,-0.009218,0.014527,-0.255491,0.000732,-0.000244,-0.000977,0,0,0,0
26.476202,-1.898438,-1.289062,0.007812,0.000000,0.000000,-0.017290,-0.009218,0.014527,-0.255491,-0.000488,0.000732,0.001709,0,0,0,0
26.485968,-1.898438,-1.289062,0.007812,0.000000,0.000000,-0.015583,-0.009218,0.014527,-0.255491,-0.000977,-0.001709,-0.001953,0,0,0,0
26.495735,-1.898438,-1.289062,0.007812,0.000000,0.000000,-0.016249,-0.009218,0.014527,-0.255491,-0.001953,-0.000244,0.001221,0,0,0,0
26.505501,-1.898438,-1.289062,0.007812,0.000000,0.000000,-0.016653,-0.009218,0.014527,-0.255491,-0.001953,-0.001709,0.000488,0,0,0,0
26.515268,-1.898438,-1.289062,0.007812,0.000000,0.000000,-0.015884,-0.009218,0.014527,-0.255491,0.000000,-0.001709,-0.001465,0,0,0,0
26.525030,-1.898438,-1.289062,0.007812,0.000000,0.000000,-0.016407,-0.009218,0.014527,-0.255491,-0.003662,-0.000244,-0.000977,0,0,0,0
26.534798,-1.898438,-1.289062,0.007812,0.000000,0.000000,-0.016758,-0.009218,0.014527,-0.255491,-0.002441,0.001221,-0.001465,0,0,0,0
26.544567,-1.898438,-1.289062,0.007812,0.000000,0.000000,-0.016939,-0.009218,0.014527,-0.255491,-0.001953,-0.001221,-0.000488,0,0,0,0
26.554329,-1.898438,-1.289062,0.007812,0.000000,0.000000,-0.015896,-0.009218,0.014527,-0.255491,0.001221,-0.001221,-0.001465,0,0,0,0
26.564096,-1.898438,-1.289062,0.007812,0.000000,0.000000,-0.015936,-0.009218,0.014527,-0.255491,-0.002441,-0.001709,0.001221,0,0,0,0
26.573860,-1.898438,-1.289062,0.007812,0.000000,0.000000,-0.016424,-0.009218,0.014527,-0.255491,0.000000,-0.002686,0.001709,0,0,0,0
26.583626,-1.898438,-1.289062,0.007812,0.000000,0.000000,-0.015627,-0.009218,0.014527,-0.255491,-0.000977,-0.000244,0.002197,0,0,0,0
26.593390,-1.898438,-1.289062,0.007812,0.000000,0.000000,-0.015497,-0.009218,0.014527,-0.255491,0.000732,0.002930,-0.000977,0,0,0,0
26.603157,-1.898438,-1.289062,0.007812,0.000000,0.000000,-0.015650,-0.009218,0.014527,-0.255491,-0.001465,0.000244,0.001221,0,0,0,0
26.612925,-1.898438,-1.289062,0.007812,0.000000,0.000000,-0.016100,-0.009218,0.014527,-0.255491,0.000000,-0.000244,-0.001953,0,0,0,0
26.622688,-1.898438,-1.289062,0.007812,0.000000,0.000000,-0.015339,-0.009218,0.014527,-0.255491,-0.004150,0.001221,-0.000977,0,0,0,0
26.632454,-1.898438,-1.289062,0.007812,0.000000,0.000000,-0.016108,-0.009218,0.014527,-0.255491,0.000000,0.001221,0.000000,0,0,0,0
26.642221,-1.898438,-1.289062,0.007812,0.000000,0.000000,-0.016085,-0.009218,0.014527,-0.255491,-0.000488,-0.000244,0.001709,0,0,0,0
26.651987,-1.898438,-1.289062,0.007812,0.000000,0.000000,-0.014906,-0.009218,0.014527,-0.255491,0.000732,-0.000244,0.000000,0,0,0,0
26.661753,-1.898438,-1.289062,0.007812,0.000000,0.000000,-0.015469,-0.009218,0.014527,-0.255491,0.003418,0.000244,-0.000488,0,0,0,0
26.671524,-1.898438,-1.289062,0.007812,0.000000,0.000000,-0.015560,-0.009218,0.014527,-0.255491,0.001221,-0.000732,-0.000488,0,0,0,0
26.681290,-1.898438,-1.289062,0.007812,0.000000,0.000000,-0.016239,-0.009218,0.014527,-0.255491,0.002686,0.001221,0.002197,0,0,0,0
26.691053,-1.898438,-1.289062,0.007812,0.000000,0.000000,-0.015532,-0.009218,0.014527,-0.255491,-0.001953,-0.001221,0.001221,0,0,0,0
26.700819,-1.898438,-1.289062,0.007812,0.000000,0.000000,-0.015957,-0.009218,0.014527,-0.255491,0.000732,-0.002686,0.000488,0,0,0,0
26.710585,-1.898438,-1.289062,0.007812,0.000000,0.000000,-0.016779,-0.009218,0.014527,-0.255491,0.001221,-0.000732,-0.000977,0,0,0,0
26.720348,-1.898438,-1.289062,0.007812,0.000000,0.000000,-0.015854,-0.009218,0.014527,-0.255491,0.000732,-0.000244,-0.003662,0,0,0,0
26.730110,-1.898438,-1.289062,0.007812,0.000000,0.000000,-0.016335,-0.009218,0.014527,-0.255491,0.001709,0.001709,0.001709,0,0,0,0
26.739891,-1.898438,-1.289062,0.007812,0.000000,0.000000,-0.016449,-0.009218,0.014527,-0.255491,0.000000,-0.000732,-0.001465,0,0,0,0
26.749643,-1.898438,-1.289062,0.007812,0.000000,0.000000,-0.015379,-0.009218,0.014527,-0.255491,0.002197,-0.003174,0.000488,0,0,0,0
26.759407,-1.898438,-1.289062,0.007812,0.000000,0.000000,-0.015715,-0.009218,0.014527,-0.255491,-0.001953,0.001221,0.000488,0,0,0,0
26.769192,-1.898438,-1.289062,0.007812,0.000000,0.000000,-0.015812,-0.009218,0.014527,-0.255491,0.000000,-0.000244,-0.000977,0,0,0,0
26.778938,-1.898438,-1.289062,0.007812,0.000000,0.000000,-0.016371,-0.009218,0.014527,-0.255491,-0.001465,0.001709,0.001709,0,0,0,0
26.788706,-1.898438,-1.289062,0.007812,0.000000,0.000000,-0.015690,-0.009218,0.014527,-0.255491,0.001221,0.000732,-0.000977,0,0,0,0
26.798471,-1.898438,-1.289062,0.007812,0.000000,0.000000,-0.015945,-0.009218,0.014588,-0.255491,0.000732,0.002441,-0.000488,0,0,0,0
26.808239,-1.898438,-1.289062,0.007812,0.000000,0.000000,-0.016209,-0.009218,0.014588,-0.255491,-0.000488,0.001709,-0.001465,0,0,0,0
26.818003,-1.898438,-1.289062,0.007812,0.000000,0.000000,-0.015532,-0.009218,0.014588,-0.255550,-0.001953,-0.000732,-0.000488,0,0,0,0
26.827768,-1.898438,-1.289062,0.007812,0.000000,0.000000,-0.015930,-0.009218,0.014588,-0.255550,0.001709,-0.001221,0.000000,0,0,0,0
26.837532,-1.898438,-1.289062,0.007812,0.000000,0.000000,-0.016281,-0.009218,0.014588,-0.255550,-0.001953,-0.000244,0.000000,0,0,0,0
26.847300,-1.898438,-1.289062,0.007812,0.000000,0.000000,-0.016853,-0.009218,0.014588,-0.255550,-0.001953,0.000244,-0.002686,0,0,0,0
26.857063,-1.898438,-1.289062,0.007812,0.000000,0.000000,-0.015825,-0.009218,0.014588,-0.255550,0.001221,0.000732,0.000488,0,0,0,0
26.866831,-1.898438,-1.289062,0.007812,0.000000,0.000000,-0.016153,-0.009218,0.014588,-0.255550,-0.002441,0.001221,0.000000,0,0,0,0
26.876595,-1.898438,-1.289062,0.007812,0.000000,0.000000,-0.016386,-0.009218,0.014588,-0.255550,-0.000977,0.002930,0.001221,0,0,0,0
26.886360,-1.898438,-1.289062,0.007812,0.000000,0.000000,-0.015480,-0.009218,0.014588,-0.255550,-0.003174,0.002441,0.000000,0,0,0,0
26.896126,-1.898438,-1.289062,0.007812,0.000000,0.000000,-0.015875,-0.009218,0.014588,-0.255550,0.000000,0.001221,-0.000488,0,0,0,0
26.905895,-1.898438,-1.289062,0.007812,0.000000,0.000000,-0.016409,-0.009218,0.014588,-0.255550,-0.000977,-0.001709,0.000000,0,0,0,0
26.915663,-1.898438,-1.289062,0.007812,0.000000,0.000000,-0.015324,-0.009218,0.014588,-0.255550,-0.000977,-0.001221,-0.001465,0,0,0,0
26.925425,-1.898438,-1.289062,0.007812,0.000000,0.000000,-0.015850,-0.009157,0.014649,-0.255550,-0.000977,-0.000244,0.002686,0,0,0,0
26.935198,-1.898438,-1.289062,0.007812,0.000000,0.000000,-0.015728,-0.009157,0.014710,-0.255550,0.000000,-0.001221,0.001709,0,0,0,0
26.944962,-1.898438,-1.289062,0.007812,0.000000,0.000000,-0.016071,-0.009033,0.014648,-0.255371,0.001709,-0.000732,0.001221,0,0,0,0
26.954720,-1.898438,-1.289062,0.007812,0.000000,0.000000,-0.015436,-0.009157,0.014710,-0.255550,-0.001953,-0.000244,0.001709,0,0,0,0
26.964485,-1.898438,-1.289062,0.007812,0.000000,0.000000,-0.015669,-0.009157,0.014710,-0.255550,0.001221,0.001221,0.000488,0,0,0,0
26.974253,-1.898438,-1.289062,0.007812,0.000000,0.000000,-0.015636,-0.009157,0.014710,-0.255550,-0.000977,-0.001709,-0.000488,0,0,0,0
26.984016,-1.898438,-1.289062,0.007812,0.000000,0.000000,-0.014843,-0.009157,0.014710,-0.255550,0.001221,0.000244,-0.000488,0,0,0,0
26.993782,-1.898438,-1.289062,0.007812,0.000000,0.000000,-0.015673,-0.009157,0.014710,-0.255550,0.000732,0.001221,0.003906,0,0,0,0
27.003548,-1.898438,-1.289062,0.007812,0.000000,0.000000,-0.015856,-0.009157,0.014710,-0.255550,0.000732,-0.000244,0.001221,0,0,0,0
27.014297,-1.898438,-1.289062,0.007812,0.000000,0.000000,-0.015591,-0.009157,0.014710,-0.255550,-0.001953,0.000244,-0.001953,0,0,0,0
27.023081,-1.898438,-1.289062,0.007812,0.000000,0.000000,-0.014755,-0.009157,0.014710,-0.255550,-0.010986,0.010254,0.005859,0,0,0,0
27.032848,-1.898438,-1.289062,0.007812,0.000000,0.000000,-0.014668,-0.009035,0.014832,-0.255372,0.088623,-0.008545,0.027100,0,0,0,0
27.042608,-1.898438,-1.289062,0.007812,0.000000,0.000000,-0.014950,-0.008852,0.014405,-0.255372,-0.072754,-0.022949,-0.034180,0,0,0,0
27.052374,-1.898438,-1.289062,0.007812,0.000000,0.000000,-0.013845,-0.009157,0.014405,-0.255994,-0.052979,0.024170,-0.069336,0,0,0,0
27.062141,-1.898438,-1.289062,0.007812,0.000000,0.000000,-0.013128,-0.009461,0.014893,-0.256171,0.095703,0.063965,0.049072,0,0,0,0
27.071907,-1.898438,-1.289062,0.007812,0.000000,0.000000,-0.013248,-0.008119,0.015198,-0.254810,0.087158,-0.034668,0.177246,0,0,0,0
27.081675,-1.898438,-1.289062,0.007812,0.000000,0.000000,-0.013233,-0.007569,0.014527,-0.254217,-0.012695,-0.086182,-0.081543,0,0,0,0
27.091440,-1.898438,-1.289062,0.007812,0.000000,0.000000,-0.013788,-0.009095,0.014283,-0.256674,-0.118652,0.036865,-0.302490,0,0,0,0
27.101215,-1.898438,-1.289062,0.007812,0.000000,0.000000,-0.014189,-0.009218,0.015015,-0.257889,0.008057,0.086426,0.076660,0,0,0,0
27.110971,-1.898438,-1.289062,0.007812,0.000000,0.000000,-0.012524,-0.007692,0.015381,-0.254425,0.239258,-0.063477,0.470947,0,0,0,0
27.120739,-1.898438,-1.289062,0.007812,0.000000,0.000000,-0.012911,-0.006287,0.014283,-0.252322,0.030029,-0.121826,-0.081543,0,0,0,0
27.130505,-1.898438,-1.289062,0.007812,0.000000,0.000000,-0.013531,-0.008302,0.014222,-0.256942,-0.288330,0.124268,-0.616455,0,0,0,0
27.140268,-1.898438,-1.289062,0.007812,0.000000,0.000000,-0.012356,-0.010074,0.015687,-0.259934,-0.065918,0.086426,0.087402,0,0,0,0
27.150036,-1.898438,-1.289062,0.007812,0.000000,0.000000,-0.011261,-0.007448,0.014710,-0.254158,0.441406,-0.175049,0.733398,0,0,0,0
27.159798,-1.898438,-1.289062,0.007812,0.000000,0.000000,-0.015387,-0.004761,0.013794,-0.250930,0.054443,-0.011230,-0.120605,0,0,0,0
27.169563,-1.898438,-1.289062,0.007812,0.000000,0.000000,-0.014734,-0.007813,0.015076,-0.257178,-0.443115,0.170410,-0.772949,0,0,0,0
27.179329,-1.898438,-1.289062,0.007812,0.000000,0.000000,-0.012733,-0.009584,0.015626,-0.260288,0.102539,-0.090576,0.153320,0,0,0,0
27.189095,-1.898438,-1.289062,0.007812,0.000000,0.000000,-0.010223,-0.006470,0.013733,-0.253713,0.308594,-0.155518,0.784424,0,0,0,0
27.198883,-1.898438,-1.289062,0.007812,0.000000,0.000000,-0.012497,-0.004944,0.014222,-0.251166,-0.024902,0.171631,-0.231689,0,0,0,0
27.208628,-1.898438,-1.289062,0.007812,0.000000,0.000000,-0.014744,-0.008241,0.015870,-0.257799,-0.377197,0.081543,-0.722900,0,0,0,0
27.218393,-1.898438,-1.289062,0.007812,0.000000,0.000000,-0.015566,-0.007814,0.014649,-0.259340,0.263184,-0.213867,0.298096,0,0,0,0
27.228157,-1.898438,-1.289062,0.007812,0.000000,0.000000,-0.014067,-0.005921,0.013428,-0.252974,0.120605,-0.000244,0.632812,0,0,0,0
27.237925,-1.898438,-1.289062,0.007812,0.000000,0.000000,-0.011175,-0.005005,0.015137,-0.252558,0.014404,0.243896,-0.358398,0,0,0,0
27.247704,-1.898438,-1.289062,0.007812,0.000000,0.000000,-0.012239,-0.007265,0.015870,-0.258156,-0.253662,-0.093750,-0.503174,0,0,0,0
27.257456,-1.898438,-1.289062,0.007812,0.000000,0.000000,-0.015429,-0.006532,0.013794,-0.257830,0.233887,-0.200195,0.378418,0,0,0,0
27.267223,-1.898438,-1.289062,0.007812,0.000000,0.000000,-0.014889,-0.005128,0.013611,-0.253092,0.043701,0.128418,0.359863,0,0,0,0
27.276985,-1.898438,-1.289062,0.007812,0.000000,0.000000,-0.011457,-0.005128,0.015443,-0.254217,-0.054199,0.166748,-0.392334,0,0,0,0
27.286749,-1.898438,-1.289062,0.007812,0.000000,0.000000,-0.010952,-0.006104,0.015381,-0.257740,-0.069092,-0.126709,-0.206787,0,0,0,0
27.296516,-1.898438,-1.289062,0.007812,0.000000,0.000000,-0.014648,-0.005739,0.013855,-0.256202,0.088135,-0.111816,0.333252,0,0,0,0
27.306282,-1.898438,-1.289062,0.007812,0.000000,0.000000,-0.014854,-0.005067,0.013916,-0.253803,0.028320,0.076416,0.084717,0,0,0,0
27.316051,-1.898438,-1.289062,0.007812,0.000000,0.000000,-0.011803,-0.005372,0.014771,-0.255432,-0.047363,0.075195,-0.264648,0,0,0,0
27.325811,-1.898438,-1.289062,0.007812,0.000000,0.000000,-0.011717,-0.005433,0.014832,-0.256792,0.024170,-0.046387,-0.000488,0,0,0,0
27.335581,-1.898438,-1.289062,0.007812,0.000000,0.000000,-0.014347,-0.005067,0.014100,-0.255313,0.030029,-0.068604,0.186279,0,0,0,0
27.345345,-1.898438,-1.289062,0.007812,0.000000,0.000000,-0.014032,-0.004762,0.014039,-0.254810,0.011719,0.036865,-0.057129,0,0,0,0
27.355112,-1.898438,-1.289062,0.007812,0.000000,0.000000,-0.011288,-0.004945,0.014710,-0.255994,-0.023926,0.094482,-0.099854,0,0,0,0
27.364876,-1.898438,-1.289062,0.007812,0.000000,0.000000,-0.010902,-0.004701,0.014893,-0.255876,0.057861,-0.055420,0.093262,0,0,0,0
27.374641,-1.898438,-1.289062,0.007812,0.000000,0.000000,-0.012928,-0.004395,0.013855,-0.255164,0.001709,-0.100098,0.019287,0,0,0,0
27.384407,-1.898438,-1.289062,0.007812,0.000000,0.000000,-0.011822,-0.004517,0.014039,-0.255609,-0.046143,0.107666,-0.089600,0,0,0,0
27.394173,-1.898438,-1.289062,0.007812,0.000000,0.000000,-0.010862,-0.004823,0.014954,-0.255758,0.009766,0.015625,0.069336,0,0,0,0
27.403936,-1.898438,-1.289062,0.007812,0.000000,0.000000,-0.012030,-0.004090,0.013978,-0.255105,0.078125,-0.135254,0.031982,0,0,0,0
27.413702,-1.898438,-1.289062,0.007812,0.000000,0.000000,-0.012732,-0.004395,0.014161,-0.255519,-0.089355,0.152344,-0.072021,0,0,0,0
27.423468,-1.898438,-1.289062,0.007812,0.000000,0.000000,-0.008896,-0.004701,0.015076,-0.255609,0.031982,-0.044189,0.022949,0,0,0,0
27.433235,-1.898438,-1.289062,0.007812,0.000000,0.000000,-0.009632,-0.003785,0.013855,-0.255372,0.039062,-0.034180,0.025146,0,0,0,0
27.443975,-1.898438,-1.289062,0.007812,0.000000,0.000000,-0.008762,-0.004823,0.014527,-0.255195,-0.083008,0.014160,-0.006836,0,0,0,0
27.453741,-1.898438,-1.289062,0.007812,0.000000,0.000000,-0.009169,-0.004395,0.014283,-0.255668,0.057373,0.020020,-0.051270,0,0,0,0
27.463507,-1.898438,-1.289062,0.007812,0.000000,0.000000,-0.008110,-0.004273,0.014710,-0.255550,-0.007324,-0.010254,0.055420,0,0,0,0
27.473274,-1.898438,-1.289062,0.007812,0.000000,0.000000,-0.010406,-0.004457,0.014222,-0.255254,-0.017334,0.020996,-0.003662,0,0,0,0
27.483046,-1.898438,-1.289062,0.007812,0.000000,0.000000,-0.009211,-0.004335,0.014771,-0.255313,0.004883,-0.034668,-0.011719,0,0,0,0
27.492805,-1.898438,-1.289062,0.007812,0.000000,0.000000,-0.010757,-0.004701,0.014344,-0.255432,-0.032959,0.034180,-0.007812,0,0,0,0
27.502569,-1.898438,-1.289062,0.007812,0.000000,0.000000,-0.008228,-0.004335,0.014588,-0.255313,0.026123,-0.052734,0.023438,0,0,0,0
27.512337,-1.898438,-1.289062,0.007812,0.000000,0.000000,-0.008444,-0.004701,0.014344,-0.255372,-0.036621,0.054443,-0.031738,0,0,0,0
27.522100,-1.898438,-1.289062,0.007812,0.000000,0.000000,-0.008827,-0.004151,0.014588,-0.255432,0.059570,-0.049072,0.023926,0,0,0,0
27.531868,-1.898438,-1.289062,0.007812,0.000000,0.000000,-0.009136,-0.004457,0.014283,-0.255372,-0.031250,0.056152,-0.018799,0,0,0,0
27.541632,-1.898438,-1.289062,0.007812,0.000000,0.000000,-0.009434,-0.004090,0.014649,-0.255372,0.050049,-0.050049,0.018799,0,0,0,0
27.551401,-1.898438,-1.289062,0.007812,0.000000,0.000000,-0.009113,-0.004273,0.014222,-0.255372,-0.033936,0.050293,-0.024658,0,0,0,0
27.561165,-1.898438,-1.289062,0.007812,0.000000,0.000000,-0.009706,-0.004334,0.014710,-0.255432,0.018311,-0.048584,0.027100,0,0,0,0
27.570930,-1.898438,-1.289062,0.007812,0.000000,0.000000,-0.010382,-0.004335,0.014100,-0.255313,-0.014893,0.024658,-0.019287,0,0,0,0
27.580700,-1.898438,-1.289062,0.007812,0.000000,0.000000,-0.007921,-0.004517,0.014527,-0.255432,-0.043945,-0.028320,0.021240,0,0,0,0
27.590464,-1.898438,-1.289062,0.007812,0.000000,0.000000,-0.008322,-0.004579,0.014039,-0.255313,0.058350,0.027832,-0.022461,0,0,0,0
27.600231,-1.898438,-1.289062,0.007812,0.000000,0.000000,-0.006575,-0.004395,0.014588,-0.255432,-0.039307,-0.031494,0.017578,0,0,0,0
27.609999,-1.898438,-1.289062,0.007812,0.000000,0.000000,-0.007689,-0.004518,0.013978,-0.255372,0.045410,0.009766,-0.026855,0,0,0,0
27.619759,-1.898438,-1.289062,0.007812,0.000000,0.000000,-0.007654,-0.004151,0.014588,-0.255491,-0.027100,0.004395,0.029785,0,0,0,0
27.629522,-1.898438,-1.289062,0.007812,0.000000,0.000000,-0.008375,-0.004335,0.013855,-0.255254,0.035645,-0.035645,-0.003662,0,0,0,0
27.639290,-1.898438,-1.289062,0.007812,0.000000,0.000000,-0.007362,-0.004212,0.014527,-0.255432,-0.050537,0.036377,-0.002686,0,0,0,0
27.649055,-1.898438,-1.289062,0.007812,0.000000,0.000000,-0.007711,-0.004335,0.013794,-0.255372,0.061523,-0.062988,0.000488,0,0,0,0
27.658819,-1.898438,-1.289062,0.007812,0.000000,0.000000,-0.006620,-0.004212,0.014405,-0.255432,-0.064697,0.047607,0.020752,450,120,-144,0
27.668587,-1.898438,-1.289062,0.007812,0.000000,0.000000,-0.008133,-0.004517,0.013733,-0.255164,0.057373,-0.078369,0.011719,450,60,9,0
27.678352,-1.898438,-1.289062,0.007812,0.000000,0.000000,-0.009096,-0.003968,0.014344,-0.255283,-0.031250,0.093262,-0.005371,450,92,-201,0
27.688118,-1.898438,-1.289062,0.007812,0.000000,0.000000,-0.007755,-0.005189,0.013916,-0.255223,-0.071289,-0.069824,0.001709,1425,203,-41,0
27.697891,-1.898438,-1.289062,0.007812,0.000000,0.000000,-0.006443,-0.003907,0.014222,-0.255283,0.129150,0.040771,0.007568,1425,2,-176,0
27.707647,-1.898438,-1.289062,0.007812,0.000000,0.000000,-0.012337,-0.004822,0.013978,-0.255223,-0.125000,-0.026611,-0.003662,1425,245,-116,0
27.717415,-1.898438,-1.289062,0.007812,0.000000,0.000000,-0.011606,-0.003663,0.014283,-0.255223,0.200928,0.020020,-0.001953,1425,-15,-193,0
27.727180,-1.898438,-1.289062,0.007812,0.000000,0.000000,-0.008385,-0.004944,0.013978,-0.255283,-0.316406,-0.014893,0.017578,2025,414,-159,0
27.736944,-1.898438,-1.289062,0.007812,0.000000,0.000000,-0.009747,-0.004090,0.014283,-0.255164,0.360107,-0.012207,-0.004639,2025,-53,-197,0
27.746710,-1.898438,-1.289062,0.007812,0.000000,0.000000,-0.004742,-0.005067,0.014039,-0.255164,-0.364502,0.017822,0.004395,2025,474,-221,0
27.756475,-1.898438,-1.289062,0.007812,0.000000,0.000000,-0.002293,-0.003663,0.014344,-0.255342,0.226074,-0.002686,-0.034180,2700,33,-240,0
27.766249,-1.898438,-1.289062,0.007812,0.000000,0.000000,-0.010483,-0.004517,0.014527,-0.255460,-0.040283,-0.057129,0.004395,2700,275,-226,0
