time,pos_x,pos_y,pos_z,vel_x,vel_y,vel_z,att_phi,att_theta,att_psi,rate_p,rate_q,rate_r,cmd_thrust,cmd_roll,cmd_pitch,cmd_yaw
10.913090,-0.009252,-0.000248,-0.034797,-0.005645,-0.000030,0.037326,0.000000,0.000732,0.000488,-0.000169,0.234080,-0.000077,0,0,0,0
10.922860,-0.009261,-0.000248,-0.034797,-0.005645,-0.000030,0.037326,0.000000,0.000732,0.000488,-0.000169,0.234080,-0.000077,0,0,0,0
10.932630,-0.009269,-0.000248,-0.034797,-0.005645,-0.000030,0.037326,0.000000,0.000732,0.000488,-0.000169,0.234080,-0.000077,0,0,0,0
10.942400,-0.009277,-0.000248,-0.034797,-0.005645,-0.000030,0.037326,0.000000,0.000732,0.000488,-0.000169,0.234080,-0.000077,0,0,0,0
10.952170,-0.009286,-0.000249,-0.034797,-0.005645,-0.000030,0.037326,0.000000,0.000732,0.000488,-0.000169,0.234080,-0.000077,0,0,0,0
10.961940,-0.009294,-0.000249,-0.034797,-0.005645,-0.000030,0.037326,0.000000,0.000732,0.000488,-0.000169,0.234080,-0.000077,0,0,0,0
10.971710,-0.009303,-0.000249,-0.034797,-0.005645,-0.000030,0.037326,0.000000,0.000732,0.000488,-0.000169,0.234080,-0.000077,0,0,0,0
10.981480,-0.009311,-0.000249,-0.034797,-0.005645,-0.000030,0.037326,0.000000,0.000732,0.000488,-0.000169,0.234080,-0.000077,0,0,0,0
10.991250,-0.009319,-0.000249,-0.034797,-0.005645,-0.000030,0.037326,0.000000,0.000732,0.000488,-0.000169,0.234080,-0.000077,0,0,0,0
11.001020,-0.009328,-0.000250,-0.034797,-0.005645,-0.000030,0.037326,0.000000,0.000732,0.000488,-0.000169,0.234080,-0.000077,0,0,0,0
11.010790,-0.009336,-0.000250,-0.034797,-0.005645,-0.000030,0.037326,0.000000,0.000732,0.000488,-0.000169,0.234080,-0.000077,0,0,0,0
11.020560,-0.009344,-0.000250,-0.034797,-0.005645,-0.000030,0.037326,0.000000,0.000732,0.000488,-0.000169,0.234080,-0.000077,0,0,0,0
11.030330,-0.009353,-0.000250,-0.034797,-0.005645,-0.000030,0.037326,0.000000,0.000732,0.000488,-0.000169,0.234080,-0.000077,0,0,0,0
11.040100,-0.009361,-0.000251,-0.034797,-0.005645,-0.000030,0.037326,0.000000,0.000732,0.000488,-0.000169,0.234080,-0.000077,0,0,0,0
11.049870,-0.009370,-0.000251,-0.034797,-0.005645,-0.000030,0.037326,0.000000,0.000732,0.000488,-0.000169,0.234080,-0.000077,0,0,0,0
11.059640,-0.009378,-0.000251,-0.034797,-0.005645,-0.000030,0.037326,0.000000,0.000732,0.000488,-0.000169,0.234080,-0.000077,0,0,0,0
11.069410,-0.009386,-0.000251,-0.034797,-0.005645,-0.000030,0.037326,0.000000,0.000732,0.000488,-0.000169,0.234080,-0.000077,0,0,0,0
11.079180,-0.009395,-0.000251,-0.034797,-0.005645,-0.000030,0.037326,0.000000,0.000732,0.000488,-0.000169,0.234080,-0.000077,0,0,0,0
11.088950,-0.009403,-0.000252,-0.034797,-0.005645,-0.000030,0.037326,0.000000,0.000732,0.000488,-0.000169,0.234080,-0.000077,0,0,0,0
11.098720,-0.009411,-0.000252,-0.034797,-0.005645,-0.000030,0.037326,0.000000,0.000732,0.000488,-0.000169,0.234080,-0.000077,0,0,0,0
11.108490,-0.009420,-0.000252,-0.034797,-0.005645,-0.000030,0.037326,0.000000,0.000732,0.000488,-0.000169,0.234080,-0.000077,0,0,0,0
11.118260,-0.009428,-0.000252,-0.034797,-0.005645,-0.000030,0.037326,0.000000,0.000732,0.000488,-0.000169,0.234080,-0.000077,0,0,0,0
11.128030,-0.009437,-0.000253,-0.034797,-0.005645,-0.000030,0.037326,0.000000,0.000732,0.000488,-0.000169,0.234080,-0.000077,0,0,0,0
11.137800,-0.009445,-0.000253,-0.034797,-0.005645,-0.000030,0.037326,0.000000,0.000732,0.000488,-0.000169,0.234080,-0.000077,0,0,0,0
11.147570,-0.009453,-0.000253,-0.034797,-0.005645,-0.000030,0.037326,0.000000,0.000732,0.000488,-0.000169,0.234080,-0.000077,0,0,0,0
11.157340,-0.009462,-0.000253,-0.034797,-0.005645,-0.000030,0.037326,0.000000,0.000732,0.000488,-0.000169,0.234080,-0.000077,0,0,0,0
11.167110,-0.009470,-0.000253,-0.034797,-0.005645,-0.000030,0.037326,0.000000,0.000732,0.000488,-0.000169,0.234080,-0.000077,0,0,0,0
11.176880,-0.009478,-0.000254,-0.034797,-0.005645,-0.000030,0.037326,0.000000,0.000732,0.000488,-0.000169,0.234080,-0.000077,0,0,0,0
11.186650,-0.009487,-0.000254,-0.034797,-0.005645,-0.000030,0.037326,0.000000,0.000732,0.000488,-0.000169,0.234080,-0.000077,0,0,0,0
11.196420,-0.009495,-0.000254,-0.034797,-0.005645,-0.000030,0.037326,0.000000,0.000732,0.000488,-0.000169,0.234080,-0.000077,0,0,0,0
11.206190,-0.009504,-0.000254,-0.034797,-0.005645,-0.000030,0.037326,0.000000,0.000732,0.000488,-0.000169,0.234080,-0.000077,0,0,0,0
11.215960,-0.009512,-0.000255,-0.034797,-0.005645,-0.000030,0.037326,0.000000,0.000732,0.000488,-0.000169,0.234080,-0.000077,0,0,0,0
11.225730,-0.009520,-0.000255,-0.034797,-0.005645,-0.000030,0.037326,0.000000,0.000732,0.000488,-0.000169,0.234080,-0.000077,0,0,0,0
11.235500,-0.009529,-0.000255,-0.034797,-0.005645,-0.000030,0.037326,0.000000,0.000732,0.000488,-0.000169,0.234080,-0.000077,0,0,0,0
11.245270,-0.009537,-0.000255,-0.034797,-0.005645,-0.000030,0.037326,0.000000,0.000732,0.000488,-0.000169,0.234080,-0.000077,0,0,0,0
11.255040,-0.009545,-0.000256,-0.034797,-0.005645,-0.000030,0.037326,0.000000,0.000732,0.000488,-0.000169,0.234080,-0.000077,0,0,0,0
11.264810,-0.009554,-0.000256,-0.034797,-0.005645,-0.000030,0.037326,0.000000,0.000732,0.000488,-0.000169,0.234080,-0.000077,0,0,0,0
11.274580,-0.009562,-0.000256,-0.034797,-0.005645,-0.000030,0.037326,0.000000,0.000732,0.000488,-0.000169,0.234080,-0.000077,0,0,0,0
11.284350,-0.009571,-0.000256,-0.034797,-0.005645,-0.000030,0.037326,0.000000,0.000732,0.000488,-0.000169,0.234080,-0.000077,0,0,0,0
11.294120,-0.009579,-0.000256,-0.034797,-0.005645,-0.000030,0.037326,0.000000,0.000732,0.000488,-0.000169,0.234080,-0.000077,0,0,0,0
11.303890,-0.009587,-0.000257,-0.034797,-0.005645,-0.000030,0.037326,0.000000,0.000732,0.000488,-0.000169,0.234080,-0.000077,0,0,0,0
11.313660,-0.009596,-0.000257,-0.034797,-0.005645,-0.000030,0.037326,0.000000,0.000732,0.000488,-0.000169,0.234080,-0.000077,0,0,0,0
11.323430,-0.009604,-0.000257,-0.034797,-0.005645,-0.000030,0.037326,0.000000,0.000732,0.000488,-0.000169,0.234080,-0.000077,0,0,0,0
11.333200,-0.009612,-0.000257,-0.034797,-0.005645,-0.000030,0.037326,0.000000,0.000732,0.000488,-0.000169,0.234080,-0.000077,0,0,0,0
11.342970,-0.009621,-0.000258,-0.034797,-0.005645,-0.000030,0.037326,0.000000,0.000732,0.000488,-0.000169,0.234080,-0.000077,0,0,0,0
11.352740,-0.009629,-0.000258,-0.034797,-0.005645,-0.000030,0.037326,0.000000,0.000732,0.000488,-0.000169,0.234080,-0.000077,0,0,0,0
11.362510,-0.009638,-0.000258,-0.034797,-0.005645,-0.000030,0.037326,0.000000,0.000732,0.000488,-0.000169,0.234080,-0.000077,0,0,0,0
11.372280,-0.009646,-0.000258,-0.034797,-0.005645,-0.000030,0.037326,0.000000,0.000732,0.000488,-0.000169,0.234080,-0.000077,0,0,0,0
11.382050,-0.009654,-0.000258,-0.034797,-0.005645,-0.000030,0.037326,0.000000,0.000732,0.000488,-0.000169,0.234080,-0.000077,0,0,0,0
11.391820,-0.009663,-0.000259,-0.034797,-0.005645,-0.000030,0.037326,0.000000,0.000732,0.000488,-0.000169,0.234080,-0.000077,0,0,0,0
11.401590,-0.009671,-0.000259,-0.034797,-0.005645,-0.000030,0.037326,0.000000,0.000732,0.000488,-0.000169,0.234080,-0.000077,0,0,0,0
11.411360,-0.009679,-0.000259,-0.034797,-0.005645,-0.000030,0.037326,0.000000,0.000732,0.000488,-0.000169,0.234080,-0.000077,0,0,0,0
11.421130,-0.009688,-0.000259,-0.034797,-0.005645,-0.000030,0.037326,0.000000,0.000732,0.000488,-0.000169,0.234080,-0.000077,0,0,0,0
11.430900,-0.009696,-0.000260,-0.034797,-0.005645,-0.000030,0.037326,0.000000,0.000732,0.000488,-0.000169,0.234080,-0.000077,0,0,0,0
11.440670,-0.009705,-0.000260,-0.034797,-0.005645,-0.000030,0.037326,0.000000,0.000732,0.000488,-0.000169,0.234080,-0.000077,0,0,0,0
11.450440,-0.009713,-0.000260,-0.034797,-0.005645,-0.000030,0.037326,0.000000,0.000732,0.000488,-0.000169,0.234080,-0.000077,0,0,0,0
11.460210,-0.009721,-0.000260,-0.034797,-0.005645,-0.000030,0.037326,0.000000,0.000732,0.000488,-0.000169,0.234080,-0.000077,0,0,0,0
11.469980,-0.009730,-0.000261,-0.034797,-0.005645,-0.000030,0.037326,0.000000,0.000732,0.000488,-0.000169,0.234080,-0.000077,0,0,0,0
11.479750,-0.009738,-0.000261,-0.034797,-0.005645,-0.000030,0.037326,0.000000,0.000732,0.000488,-0.000169,0.234080,-0.000077,0,0,0,0
11.489520,-0.009746,-0.000261,-0.034797,-0.005645,-0.000030,0.037326,0.000000,0.000732,0.000488,-0.000169,0.234080,-0.000077,0,0,0,0
11.499290,-0.009755,-0.000261,-0.034797,-0.005645,-0.000030,0.037326,0.000000,0.000732,0.000488,-0.000169,0.234080,-0.000077,0,0,0,0
11.509060,-0.009763,-0.000261,-0.034797,-0.005645,-0.000030,0.037326,0.000000,0.000732,0.000488,-0.000169,0.234080,-0.000077,0,0,0,0
11.518830,-0.009772,-0.000262,-0.034797,-0.005645,-0.000030,0.037326,0.000000,0.000732,0.000488,-0.000169,0.234080,-0.000077,0,0,0,0
11.528600,-0.009780,-0.000262,-0.034797,-0.005645,-0.000030,0.037326,0.000000,0.000732,0.000488,-0.000169,0.234080,-0.000077,0,0,0,0
11.538370,-0.009788,-0.000262,-0.034797,-0.005645,-0.000030,0.037326,0.000000,0.000732,0.000488,-0.000169,0.234080,-0.000077,0,0,0,0
11.548140,-0.009797,-0.000262,-0.034797,-0.005645,-0.000030,0.037326,0.000000,0.000732,0.000488,-0.000169,0.234080,-0.000077,0,0,0,0
11.557910,-0.009805,-0.000263,-0.034797,-0.005645,-0.000030,0.037326,0.000000,0.000732,0.000488,-0.000169,0.234080,-0.000077,0,0,0,0
11.567680,-0.009813,-0.000263,-0.034797,-0.005645,-0.000030,0.037326,0.000000,0.000732,0.000488,-0.000169,0.234080,-0.000077,0,0,0,0
11.577450,-0.009822,-0.000263,-0.034797,-0.005645,-0.000030,0.037326,0.000000,0.000732,0.000488,-0.000169,0.234080,-0.000077,0,0,0,0
11.587220,-0.009830,-0.000263,-0.034797,-0.005645,-0.000030,0.037326,0.000000,0.000732,0.000488,-0.000169,0.234080,-0.000077,0,0,0,0
11.596990,-0.009839,-0.000263,-0.034797,-0.005645,-0.000030,0.037326,0.000000,0.000732,0.000488,-0.000169,0.234080,-0.000077,0,0,0,0
11.606760,-0.009847,-0.000264,-0.034797,-0.005645,-0.000030,0.037326,0.000000,0.000732,0.000488,-0.000169,0.234080,-0.000077,0,0,0,0
11.616530,-0.009855,-0.000264,-0.034797,-0.005645,-0.000030,0.037326,0.000000,0.000732,0.000488,-0.000169,0.234080,-0.000077,0,0,0,0
11.626300,-0.009864,-0.000264,-0.034797,-0.005645,-0.000030,0.037326,0.000000,0.000732,0.000488,-0.000169,0.234080,-0.000077,0,0,0,0
11.636070,-0.009872,-0.000264,-0.034797,-0.005645,-0.000030,0.037326,0.000000,0.000732,0.000488,-0.000169,0.234080,-0.000077,0,0,0,0
11.645840,-0.009880,-0.000265,-0.034797,-0.005645,-0.000030,0.037326,0.000000,0.000732,0.000488,-0.000169,0.234080,-0.000077,0,0,0,0
11.655610,-0.009889,-0.000265,-0.034797,-0.005645,-0.000030,0.037326,0.000000,0.000732,0.000488,-0.000169,0.234080,-0.000077,0,0,0,0
11.665380,-0.009897,-0.000265,-0.034797,-0.005645,-0.000030,0.037326,0.000000,0.000732,0.000488,-0.000169,0.234080,-0.000077,0,0,0,0
11.675150,-0.009905,-0.000265,-0.034797,-0.005645,-0.000030,0.037326,0.000000,0.000732,0.000488,-0.000169,0.234080,-0.000077,0,0,0,0
11.684920,-0.009914,-0.000266,-0.034797,-0.005645,-0.000030,0.037326,0.000000,0.000732,0.000488,-0.000169,0.234080,-0.000077,0,0,0,0
11.694690,-0.009922,-0.000266,-0.034797,-0.005645,-0.000030,0.037326,0.000000,0.000732,0.000488,-0.000169,0.234080,-0.000077,0,0,0,0
11.704460,-0.009931,-0.000266,-0.034797,-0.005645,-0.000030,0.037326,0.000000,0.000732,0.000488,-0.000169,0.234080,-0.000077,0,0,0,0
11.714230,-0.009939,-0.000266,-0.034797,-0.005645,-0.000030,0.037326,0.000000,0.000732,0.000488,-0.000169,0.234080,-0.000077,0,0,0,0
11.724000,-0.009947,-0.000266,-0.034797,-0.005645,-0.000030,0.037326,0.000000,0.000732,0.000488,-0.000169,0.234080,-0.000077,0,0,0,0
11.733770,-0.009956,-0.000267,-0.034797,-0.005645,-0.000030,0.037326,0.000000,0.000732,0.000488,-0.000169,0.234080,-0.000077,0,0,0,0
11.743540,-0.009964,-0.000267,-0.034797,-0.005645,-0.000030,0.037326,0.000000,0.000732,0.000488,-0.000169,0.234080,-0.000077,0,0,0,0
11.753310,-0.009972,-0.000267,-0.034797,-0.005645,-0.000030,0.037326,0.000000,0.000732,0.000488,-0.000169,0.234080,-0.000077,0,0,0,0
11.763080,-0.009981,-0.000267,-0.034797,-0.005645,-0.000030,0.037326,0.000000,0.000732,0.000488,-0.000169,0.234080,-0.000077,0,0,0,0
11.772850,-0.009989,-0.000268,-0.034797,-0.005645,-0.000030,0.037326,0.000000,0.000732,0.000488,-0.000169,0.234080,-0.000077,0,0,0,0
11.782620,-0.009998,-0.000268,-0.034797,-0.005645,-0.000030,0.037326,0.000000,0.000732,0.000488,-0.000169,0.234080,-0.000077,0,0,0,0
11.792390,-0.010006,-0.000268,-0.034797,-0.005645,-0.000030,0.037326,0.000000,0.000732,0.000488,-0.000169,0.234080,-0.000077,0,0,0,0
11.802160,-0.010014,-0.000268,-0.034797,-0.005645,-0.000030,0.037326,0.000000,0.000732,0.000488,-0.000169,0.234080,-0.000077,0,0,0,0
11.811930,-0.010023,-0.000268,-0.034797,-0.005645,-0.000030,0.037326,0.000000,0.000732,0.000488,-0.000169,0.234080,-0.000077,0,0,0,0
11.821700,-0.010031,-0.000269,-0.034797,-0.005645,-0.000030,0.037326,0.000000,0.000732,0.000488,-0.000169,0.234080,-0.000077,0,0,0,0
11.831470,-0.010039,-0.000269,-0.034797,-0.005645,-0.000030,0.037326,0.000000,0.000732,0.000488,-0.000169,0.234080,-0.000077,0,0,0,0
11.841240,-0.010048,-0.000269,-0.034797,-0.005645,-0.000030,0.037326,0.000000,0.000732,0.000488,-0.000169,0.234080,-0.000077,0,0,0,0
11.851010,-0.010056,-0.000269,-0.034797,-0.005645,-0.000030,0.037326,0.000000,0.000732,0.000488,-0.000169,0.234080,-0.000077,0,0,0,0
11.860780,-0.010065,-0.000270,-0.034797,-0.005645,-0.000030,0.037326,0.000000,0.000732,0.000488,-0.000169,0.234080,-0.000077,0,0,0,0
11.870550,-0.010073,-0.000270,-0.034797,-0.005645,-0.000030,0.037326,0.000000,0.000732,0.000488,-0.000169,0.234080,-0.000077,0,0,0,0
11.880320,-0.010081,-0.000270,-0.034797,-0.005645,-0.000030,0.037326,0.000000,0.000732,0.000488,-0.000169,0.234080,-0.000077,0,0,0,0
11.890090,-0.010090,-0.000270,-0.034797,-0.005645,-0.000030,0.037326,0.000000,0.000732,0.000488,-0.000169,0.234080,-0.000077,0,0,0,0
11.899860,-0.010098,-0.000271,-0.034797,-0.005645,-0.000030,0.037326,0.000000,0.000732,0.000488,-0.000169,0.234080,-0.000077,0,0,0,0
11.909630,-0.010106,-0.000271,-0.034797,-0.005645,-0.000030,0.037326,0.000000,0.000732,0.000488,-0.000169,0.234080,-0.000077,0,0,0,0
11.919400,-0.010115,-0.000271,-0.034797,-0.005645,-0.000030,0.037326,0.000000,0.000732,0.000488,-0.000169,0.234080,-0.000077,0,0,0,0
11.929170,-0.010123,-0.000271,-0.034797,-0.005645,-0.000030,0.037326,0.000000,0.000732,0.000488,-0.000169,0.234080,-0.000077,0,0,0,0
11.938940,-0.010132,-0.000271,-0.034797,-0.005645,-0.000030,0.037326,0.000000,0.000732,0.000488,-0.000169,0.234080,-0.000077,0,0,0,0
11.948710,-0.010140,-0.000272,-0.034797,-0.005645,-0.000030,0.037326,0.000000,0.000732,0.000488,-0.000169,0.234080,-0.000077,0,0,0,0
11.958480,-0.010148,-0.000272,-0.034797,-0.005645,-0.000030,0.037326,0.000000,0.000732,0.000488,-0.000169,0.234080,-0.000077,0,0,0,0
11.968250,-0.010157,-0.000272,-0.034797,-0.005645,-0.000030,0.037326,0.000000,0.000732,0.000488,-0.000169,0.234080,-0.000077,0,0,0,0
11.978020,-0.010165,-0.000272,-0.034797,-0.005645,-0.000030,0.037326,0.000000,0.000732,0.000488,-0.000169,0.234080,-0.000077,0,0,0,0
11.987790,-0.010173,-0.000273,-0.034797,-0.005645,-0.000030,0.037326,0.000000,0.000732,0.000488,-0.000169,0.234080,-0.000077,0,0,0,0
11.997561,-0.010182,-0.000273,-0.034797,-0.005645,-0.000030,0.037326,0.000000,0.000732,0.000488,-0.000169,0.234080,-0.000077,0,0,0,0
12.007330,-0.010190,-0.000273,-0.034797,-0.005645,-0.000030,0.037326,0.000000,0.000732,0.000488,-0.000169,0.234080,-0.000077,0,0,0,0
12.017100,-0.010199,-0.000273,-0.034797,-0.005645,-0.000030,0.037326,0.000000,0.000732,0.000488,-0.000169,0.234080,-0.000077,0,0,0,0
12.026870,-0.010207,-0.000273,-0.034797,-0.005645,-0.000030,0.037326,0.000000,0.000732,0.000488,-0.000169,0.234080,-0.000077,0,0,0,0
12.036640,-0.010215,-0.000274,-0.034797,-0.005645,-0.000030,0.037326,0.000000,0.000732,0.000488,-0.000169,0.234080,-0.000077,0,0,0,0
12.046410,-0.010224,-0.000274,-0.034797,-0.005645,-0.000030,0.037326,0.000000,0.000732,0.000488,-0.000169,0.234080,-0.000077,0,0,0,0
12.056180,-0.010232,-0.000274,-0.034797,-0.005645,-0.000030,0.037326,0.000000,0.000732,0.000488,-0.000169,0.234080,-0.000077,0,0,0,0
12.065950,-0.010240,-0.000274,-0.034797,-0.005645,-0.000030,0.037326,0.000000,0.000732,0.000488,-0.000169,0.234080,-0.000077,0,0,0,0
12.075720,-0.010249,-0.000275,-0.034797,-0.005645,-0.000030,0.037326,0.000000,0.000732,0.000488,-0.000169,0.234080,-0.000077,0,0,0,0
12.085490,-0.010257,-0.000275,-0.034797,-0.005645,-0.000030,0.037326,0.000000,0.000732,0.000488,-0.000170,0.234080,-0.000077,0,0,0,0
12.095260,-0.010266,-0.000275,-0.034797,-0.005645,-0.000030,0.037326,0.000000,0.000732,0.000488,-0.000170,0.234080,-0.000077,0,0,0,0
12.105030,-0.010274,-0.000275,-0.034797,-0.005645,-0.000030,0.037326,0.000000,0.000732,0.000488,-0.000170,0.234080,-0.000077,0,0,0,0
12.114800,-0.010282,-0.000276,-0.034797,-0.005645,-0.000030,0.037326,0.000000,0.000732,0.000488,-0.000170,0.234080,-0.000077,0,0,0,0
12.124570,-0.010291,-0.000276,-0.034797,-0.005645,-0.000030,0.037326,0.000000,0.000732,0.000488,-0.000170,0.234080,-0.000077,0,0,0,0
12.134340,-0.010299,-0.000276,-0.034797,-0.005645,-0.000030,0.037326,0.000000,0.000732,0.000488,-0.000170,0.234080,-0.000077,0,0,0,0
12.144110,-0.010307,-0.000276,-0.034797,-0.005645,-0.000030,0.037326,0.000000,0.000732,0.000488,-0.000170,0.234080,-0.000077,0,0,0,0
12.153880,-0.010316,-0.000276,-0.034797,-0.005645,-0.000030,0.037326,0.000000,0.000732,0.000488,-0.000170,0.234080,-0.000077,0,0,0,0
12.163650,-0.010324,-0.000277,-0.034797,-0.005645,-0.000030,0.037326,0.000000,0.000732,0.000488,-0.000170,0.234080,-0.000077,0,0,0,0
12.173420,-0.010333,-0.000277,-0.034797,-0.005645,-0.000030,0.037326,0.000000,0.000732,0.000488,-0.000170,0.234080,-0.000077,0,0,0,0
12.183190,-0.010341,-0.000277,-0.034797,-0.005645,-0.000030,0.037326,0.000000,0.000732,0.000488,-0.000170,0.234080,-0.000077,0,0,0,0
12.192960,-0.010349,-0.000277,-0.034797,-0.005645,-0.000030,0.037326,0.000000,0.000732,0.000488,-0.000170,0.234080,-0.000077,0,0,0,0
12.202730,-0.010358,-0.000278,-0.034797,-0.005645,-0.000030,0.037326,0.000000,0.000732,0.000488,-0.000170,0.234080,-0.000077,0,0,0,0
12.212500,-0.010366,-0.000278,-0.034797,-0.005645,-0.000030,0.037326,0.000000,0.000732,0.000488,-0.000170,0.234080,-0.000077,0,0,0,0
12.222270,-0.010374,-0.000278,-0.034797,-0.005645,-0.000030,0.037326,0.000000,0.000732,0.000488,-0.000170,0.234080,-0.000077,0,0,0,0
12.232040,-0.010383,-0.000278,-0.034797,-0.005645,-0.000030,0.037326,0.000000,0.000732,0.000488,-0.000170,0.234080,-0.000077,0,0,0,0
12.241810,-0.010391,-0.000278,-0.034797,-0.005645,-0.000030,0.037326,0.000000,0.000732,0.000488,-0.000170,0.234080,-0.000077,0,0,0,0
12.251580,-0.010400,-0.000279,-0.034797,-0.005645,-0.000030,0.037326,0.000000,0.000732,0.000488,-0.000170,0.234080,-0.000077,0,0,0,0
12.261350,-0.010408,-0.000279,-0.034797,-0.005645,-0.000030,0.037326,0.000000,0.000732,0.000488,-0.000170,0.234080,-0.000077,0,0,0,0
12.271120,-0.010416,-0.000279,-0.034797,-0.005645,-0.000030,0.037326,0.000000,0.000732,0.000488,-0.000170,0.234080,-0.000077,0,0,0,0
12.280890,-0.010425,-0.000279,-0.034797,-0.005645,-0.000030,0.037326,0.000000,0.000732,0.000488,-0.000170,0.234080,-0.000077,0,0,0,0
12.290660,-0.010433,-0.000280,-0.034797,-0.005645,-0.000030,0.037326,0.000000,0.000732,0.000488,-0.000170,0.234080,-0.000077,0,0,0,0
12.300430,-0.010441,-0.000280,-0.034797,-0.005645,-0.000030,0.037326,0.000000,0.000732,0.000488,-0.000170,0.234080,-0.000077,0,0,0,0
12.310200,-0.010450,-0.000280,-0.034797,-0.005645,-0.000030,0.037326,0.000000,0.000732,0.000488,-0.000170,0.234080,-0.000077,0,0,0,0
12.319970,-0.010458,-0.000280,-0.034797,-0.005645,-0.000030,0.037326,0.000000,0.000732,0.000488,-0.000170,0.234080,-0.000077,0,0,0,0
12.329740,-0.010467,-0.000281,-0.034797,-0.005645,-0.000030,0.037326,0.000000,0.000732,0.000488,-0.000170,0.234080,-0.000077,0,0,0,0
12.339510,-0.010475,-0.000281,-0.034797,-0.005645,-0.000030,0.037326,0.000000,0.000732,0.000488,-0.000170,0.234080,-0.000077,0,0,0,0
12.349280,-0.010483,-0.000281,-0.034797,-0.005645,-0.000030,0.037326,0.000000,0.000732,0.000488,-0.000170,0.234080,-0.000077,0,0,0,0
12.359050,-0.010492,-0.000281,-0.034797,-0.005645,-0.000030,0.037326,0.000000,0.000732,0.000488,-0.000170,0.234080,-0.000077,0,0,0,0
12.368820,-0.010500,-0.000281,-0.034797,-0.005645,-0.000030,0.037326,0.000000,0.000732,0.000488,-0.000170,0.234080,-0.000077,0,0,0,0
12.378590,-0.010508,-0.000282,-0.034797,-0.005645,-0.000030,0.037326,0.000000,0.000732,0.000488,-0.000170,0.234080,-0.000077,0,0,0,0
12.388360,-0.010517,-0.000282,-0.034797,-0.005645,-0.000030,0.037326,0.000000,0.000732,0.000488,-0.000170,0.234080,-0.000077,0,0,0,0
12.398130,-0.010525,-0.000282,-0.034797,-0.005645,-0.000030,0.037326,0.000000,0.000732,0.000488,-0.000170,0.234080,-0.000077,0,0,0,0
12.407900,-0.010534,-0.000282,-0.034797,-0.005645,-0.000030,0.037326,0.000000,0.000732,0.000488,-0.000170,0.234080,-0.000077,0,0,0,0
12.417670,-0.010542,-0.000283,-0.034797,-0.005645,-0.000030,0.037326,0.000000,0.000732,0.000488,-0.000170,0.234080,-0.000077,0,0,0,0
12.427440,-0.010550,-0.000283,-0.034797,-0.005645,-0.000030,0.037326,0.000000,0.000732,0.000488,-0.000170,0.234080,-0.000077,0,0,0,0
12.437210,-0.010559,-0.000283,-0.034797,-0.005645,-0.000030,0.037326,0.000000,0.000732,0.000244,-0.000170,0.234080,-0.000077,0,0,0,0
12.446980,-0.010567,-0.000283,-0.034797,-0.005645,-0.000030,0.037326,0.000000,0.000732,0.000244,-0.000170,0.234080,-0.000077,0,0,0,0
12.456750,-0.010575,-0.000283,-0.034797,-0.005645,-0.000030,0.037326,0.000000,0.000732,0.000244,-0.000170,0.234080,-0.000077,0,0,0,0
12.466520,-0.010584,-0.000284,-0.034797,-0.005645,-0.000030,0.037326,0.000000,0.000732,0.000244,-0.000170,0.234080,-0.000077,0,0,0,0
12.476290,-0.010592,-0.000284,-0.034797,-0.005645,-0.000030,0.037326,0.000000,0.000732,0.000244,-0.000170,0.234080,-0.000077,0,0,0,0
12.486060,-0.010601,-0.000284,-0.034797,-0.005645,-0.000030,0.037326,0.000000,0.000732,0.000244,-0.000170,0.234080,-0.000077,0,0,0,0
12.495830,-0.010609,-0.000284,-0.034797,-0.005645,-0.000030,0.037326,0.000000,0.000732,0.000244,-0.000170,0.234080,-0.000077,0,0,0,0
12.505600,-0.010617,-0.000285,-0.034797,-0.005645,-0.000030,0.037326,0.000000,0.000732,0.000244,-0.000170,0.234080,-0.000077,0,0,0,0
12.515370,-0.010626,-0.000285,-0.034797,-0.005645,-0.000030,0.037326,0.000000,0.000732,0.000244,-0.000170,0.234080,-0.000077,0,0,0,0
12.525140,-0.010634,-0.000285,-0.034797,-0.005645,-0.000030,0.037326,0.000000,0.000732,0.000244,-0.000170,0.234080,-0.000077,0,0,0,0
12.534910,-0.010642,-0.000285,-0.034797,-0.005645,-0.000030,0.037326,0.000000,0.000732,0.000244,-0.000170,0.234080,-0.000077,0,0,0,0
12.544680,-0.010651,-0.000286,-0.034797,-0.005645,-0.000030,0.037326,0.000000,0.000732,0.000244,-0.000170,0.234080,-0.000077,0,0,0,0
12.554450,-0.010659,-0.000286,-0.034797,-0.005645,-0.000030,0.037326,0.000000,0.000732,0.000244,-0.000170,0.234080,-0.000077,0,0,0,0
12.564220,-0.010667,-0.000286,-0.034797,-0.005645,-0.000030,0.037326,0.000000,0.000732,0.000244,-0.000170,0.234080,-0.000077,0,0,0,0
12.573990,-0.010676,-0.000286,-0.034797,-0.005645,-0.000030,0.037326,0.000000,0.000732,0.000244,-0.000170,0.234080,-0.000077,0,0,0,0
12.583760,-0.010684,-0.000286,-0.034797,-0.005645,-0.000030,0.037326,0.000000,0.000732,0.000244,-0.000170,0.234080,-0.000077,0,0,0,0
12.593530,-0.010693,-0.000287,-0.034797,-0.005645,-0.000030,0.037326,0.000000,0.000732,0.000244,-0.000170,0.234080,-0.000077,0,0,0,0
12.603300,-0.010701,-0.000287,-0.034797,-0.005645,-0.000030,0.037326,0.000000,0.000732,0.000244,-0.000170,0.234080,-0.000077,0,0,0,0
12.613070,-0.010709,-0.000287,-0.034797,-0.005645,-0.000030,0.037326,0.000000,0.000732,0.000244,-0.000170,0.234080,-0.000077,0,0,0,0
12.622840,-0.010718,-0.000287,-0.034797,-0.005645,-0.000030,0.037326,0.000000,0.000732,0.000244,-0.000170,0.234080,-0.000077,0,0,0,0
12.632610,-0.010726,-0.000288,-0.034797,-0.005645,-0.000030,0.037326,0.000000,0.000732,0.000244,-0.000170,0.234080,-0.000077,0,0,0,0
12.642380,-0.010734,-0.000288,-0.034797,-0.005645,-0.000030,0.037326,0.000000,0.000732,0.000244,-0.000170,0.234080,-0.000077,0,0,0,0
12.652150,-0.010743,-0.000288,-0.034797,-0.005645,-0.000030,0.037326,0.000000,0.000732,0.000244,-0.000170,0.234080,-0.000077,0,0,0,0
12.661920,-0.010751,-0.000288,-0.034797,-0.005645,-0.000030,0.037326,0.000000,0.000732,0.000244,-0.000170,0.234080,-0.000077,0,0,0,0
12.671690,-0.010760,-0.000288,-0.034797,-0.005645,-0.000030,0.037326,0.000000,0.000732,0.000244,-0.000170,0.234080,-0.000077,0,0,0,0
12.681460,-0.010768,-0.000289,-0.034797,-0.005645,-0.000030,0.037326,0.000000,0.000732,0.000244,-0.000170,0.234080,-0.000077,0,0,0,0
12.691230,-0.010776,-0.000289,-0.034797,-0.005645,-0.000030,0.037326,0.000000,0.000732,0.000244,-0.000170,0.234080,-0.000077,0,0,0,0
12.701000,-0.010785,-0.000289,-0.034797,-0.005645,-0.000030,0.037326,0.000000,0.000732,0.000244,-0.000170,0.234080,-0.000077,0,0,0,0
12.710770,-0.010793,-0.000289,-0.034797,-0.005645,-0.000030,0.037326,0.000000,0.000732,0.000244,-0.000170,0.234080,-0.000077,0,0,0,0
12.720540,-0.010801,-0.000290,-0.034797,-0.005645,-0.000030,0.037326,0.000000,0.000732,0.000244,-0.000170,0.234080,-0.000077,0,0,0,0
12.730310,-0.010810,-0.000290,-0.034797,-0.005645,-0.000030,0.037326,0.000000,0.000732,0.000244,-0.000170,0.234080,-0.000077,0,0,0,0
12.740080,-0.010818,-0.000290,-0.034797,-0.005645,-0.000030,0.037326,0.000000,0.000732,0.000244,-0.000170,0.234080,-0.000077,0,0,0,0
12.749850,-0.010827,-0.000290,-0.034797,-0.005645,-0.000030,0.037326,0.000000,0.000732,0.000244,-0.000170,0.234080,-0.000077,0,0,0,0
12.759620,-0.010835,-0.000291,-0.034797,-0.005645,-0.000030,0.037326,0.000000,0.000732,0.000244,-0.000170,0.234080,-0.000077,0,0,0,0
12.769390,-0.010843,-0.000291,-0.034797,-0.005645,-0.000030,0.037326,0.000000,0.000732,0.000244,-0.000170,0.234080,-0.000077,0,0,0,0
12.779160,-0.010852,-0.000291,-0.034797,-0.005645,-0.000030,0.037326,0.000000,0.000732,0.000244,-0.000170,0.234080,-0.000077,0,0,0,0
12.788930,-0.010860,-0.000291,-0.034797,-0.005645,-0.000030,0.037326,0.000000,0.000732,0.000244,-0.000170,0.234080,-0.000077,0,0,0,0
12.798700,-0.010868,-0.000291,-0.034797,-0.005645,-0.000030,0.037326,0.000000,0.000732,0.000244,-0.000170,0.234080,-0.000077,0,0,0,0
12.808470,-0.010877,-0.000292,-0.034797,-0.005645,-0.000030,0.037326,0.000000,0.000732,0.000244,-0.000170,0.234080,-0.000077,0,0,0,0
12.818240,-0.010885,-0.000292,-0.034797,-0.005645,-0.000030,0.037326,0.000000,0.000732,0.000244,-0.000170,0.234080,-0.000077,0,0,0,0
12.828010,-0.010894,-0.000292,-0.034797,-0.005645,-0.000030,0.037326,0.000000,0.000732,0.000244,-0.000170,0.234080,-0.000077,0,0,0,0
12.837780,-0.010902,-0.000292,-0.034797,-0.005645,-0.000030,0.037326,0.000000,0.000732,0.000244,-0.000170,0.234080,-0.000077,0,0,0,0
12.847550,-0.010910,-0.000293,-0.034797,-0.005645,-0.000030,0.037326,0.000000,0.000732,0.000244,-0.000170,0.234080,-0.000077,0,0,0,0
12.857320,-0.010919,-0.000293,-0.034797,-0.005645,-0.000030,0.037326,0.000000,0.000732,0.000244,-0.000170,0.234080,-0.000077,0,0,0,0
12.867090,-0.010927,-0.000293,-0.034797,-0.005645,-0.000030,0.037326,0.000000,0.000732,0.000244,-0.000170,0.234080,-0.000077,0,0,0,0
12.876860,-0.010935,-0.000293,-0.034797,-0.005645,-0.000030,0.037326,0.000000,0.000732,0.000244,-0.000170,0.234080,-0.000077,0,0,0,0
12.886630,-0.010944,-0.000293,-0.034797,-0.005645,-0.000030,0.037326,0.000000,0.000732,0.000244,-0.000170,0.234080,-0.000077,0,0,0,0
12.896400,-0.010952,-0.000294,-0.034797,-0.005645,-0.000030,0.037326,0.000000,0.000732,0.000244,-0.000170,0.234080,-0.000077,0,0,0,0
12.906170,-0.010961,-0.000294,-0.034797,-0.005645,-0.000030,0.037326,0.000000,0.000732,0.000244,-0.000170,0.234080,-0.000077,0,0,0,0
12.915940,-0.010969,-0.000294,-0.034797,-0.005645,-0.000030,0.037326,0.000000,0.000732,0.000244,-0.000170,0.234080,-0.000077,0,0,0,0
12.925710,-0.010977,-0.000294,-0.034797,-0.005645,-0.000030,0.037326,0.000000,0.000732,0.000244,-0.000170,0.234080,-0.000077,0,0,0,0
12.935480,-0.010986,-0.000295,-0.034797,-0.005645,-0.000030,0.037326,0.000000,0.000732,0.000244,-0.000170,0.234080,-0.000077,0,0,0,0
12.945250,-0.010994,-0.000295,-0.034797,-0.005645,-0.000030,0.037326,0.000000,0.000732,0.000244,-0.000170,0.234080,-0.000077,0,0,0,0
12.955020,-0.011002,-0.000295,-0.034797,-0.005645,-0.000030,0.037326,0.000000,0.000732,0.000244,-0.000170,0.234080,-0.000077,0,0,0,0
12.964790,-0.011011,-0.000295,-0.034797,-0.005645,-0.000030,0.037326,0.000000,0.000732,0.000244,-0.000170,0.234080,-0.000077,0,0,0,0
12.974560,-0.011019,-0.000296,-0.034797,-0.005645,-0.000030,0.037326,0.000000,0.000732,0.000244,-0.000170,0.234080,-0.000077,0,0,0,0
12.984330,-0.011028,-0.000296,-0.034797,-0.005645,-0.000030,0.037326,0.000000,0.000732,0.000244,-0.000170,0.234080,-0.000077,0,0,0,0
12.994100,-0.011036,-0.000296,-0.034797,-0.005645,-0.000030,0.037326,0.000000,0.000732,0.000244,-0.000170,0.234080,-0.000077,0,0,0,0
13.003870,-0.011044,-0.000296,-0.034797,-0.005645,-0.000030,0.037326,0.000000,0.000732,0.000244,-0.000170,0.234080,-0.000077,0,0,0,0
13.013640,-0.011053,-0.000296,-0.034797,-0.005645,-0.000030,0.037326,0.000000,0.000732,0.000244,-0.000170,0.234080,-0.000077,0,0,0,0
13.023410,-0.011061,-0.000297,-0.034797,-0.005645,-0.000030,0.037326,0.000000,0.000732,0.000244,-0.000170,0.234080,-0.000077,0,0,0,0
13.033180,-0.011069,-0.000297,-0.034797,-0.005645,-0.000030,0.037326,0.000000,0.000732,0.000244,-0.000170,0.234080,-0.000077,0,0,0,0
13.042950,-0.011078,-0.000297,-0.034797,-0.005645,-0.000030,0.037326,0.000000,0.000732,0.000244,-0.000170,0.234080,-0.000077,0,0,0,0
13.052720,-0.011086,-0.000297,-0.034797,-0.005645,-0.000030,0.037326,0.000000,0.000732,0.000244,-0.000170,0.234080,-0.000077,0,0,0,0
13.062490,-0.011095,-0.000298,-0.034797,-0.005645,-0.000030,0.037326,0.000000,0.000732,0.000244,-0.000170,0.234080,-0.000077,0,0,0,0
13.072260,-0.011103,-0.000298,-0.034797,-0.005645,-0.000030,0.037326,0.000000,0.000732,0.000244,-0.000170,0.234080,-0.000077,0,0,0,0
13.082030,-0.011111,-0.000298,-0.034797,-0.005645,-0.000030,0.037326,0.000000,0.000732,0.000244,-0.000170,0.234080,-0.000077,0,0,0,0
13.091800,-0.011120,-0.000298,-0.034797,-0.005645,-0.000030,0.037326,0.000000,0.000732,0.000244,-0.000170,0.234080,-0.000077,0,0,0,0
13.101570,-0.011128,-0.000298,-0.034797,-0.005645,-0.000030,0.037326,0.000000,0.000732,0.000244,-0.000170,0.234080,-0.000077,0,0,0,0
13.111340,-0.011136,-0.000299,-0.034797,-0.005645,-0.000030,0.037326,0.000000,0.000732,0.000244,-0.000170,0.234080,-0.000077,0,0,0,0
13.121110,-0.011145,-0.000299,-0.034797,-0.005645,-0.000030,0.037326,0.000000,0.000732,0.000244,-0.000170,0.234080,-0.000077,0,0,0,0
13.130880,-0.011153,-0.000299,-0.034797,-0.005645,-0.000030,0.037326,0.000000,0.000732,0.000244,-0.000170,0.234080,-0.000077,0,0,0,0
13.140650,-0.011162,-0.000299,-0.034797,-0.005645,-0.000030,0.037326,0.000000,0.000732,0.000244,-0.000170,0.234080,-0.000077,0,0,0,0
13.150420,-0.011170,-0.000300,-0.034797,-0.005645,-0.000030,0.037326,0.000000,0.000732,0.000244,-0.000170,0.234080,-0.000077,0,0,0,0
13.160190,-0.011178,-0.000300,-0.034797,-0.005645,-0.000030,0.037326,0.000000,0.000732,0.000244,-0.000170,0.234080,-0.000077,0,0,0,0
13.169960,-0.011187,-0.000300,-0.034797,-0.005645,-0.000030,0.037326,0.000000,0.000732,0.000244,-0.000170,0.234080,-0.000077,0,0,0,0
13.179730,-0.011195,-0.000300,-0.034797,-0.005645,-0.000030,0.037326,0.000000,0.000732,0.000244,-0.000170,0.234080,-0.000077,0,0,0,0
13.189500,-0.011203,-0.000301,-0.034797,-0.005645,-0.000030,0.037326,0.000000,0.000732,0.000244,-0.000170,0.234080,-0.000077,0,0,0,0
13.199270,-0.011212,-0.000301,-0.034797,-0.005645,-0.000030,0.037326,0.000000,0.000732,0.000244,-0.000170,0.234080,-0.000077,0,0,0,0
13.209040,-0.011220,-0.000301,-0.034797,-0.005645,-0.000030,0.037326,0.000000,0.000732,0.000244,-0.000170,0.234080,-0.000077,0,0,0,0
13.218810,-0.011229,-0.000301,-0.034797,-0.005645,-0.000030,0.037326,0.000000,0.000732,0.000244,-0.000170,0.234080,-0.000077,0,0,0,0
13.228580,-0.011237,-0.000301,-0.034797,-0.005645,-0.000030,0.037326,0.000000,0.000732,0.000244,-0.000170,0.234080,-0.000077,0,0,0,0
13.238350,-0.011245,-0.000302,-0.034797,-0.005645,-0.000030,0.037326,0.000000,0.000732,0.000244,-0.000170,0.234080,-0.000077,0,0,0,0
13.248120,-0.011254,-0.000302,-0.034797,-0.005645,-0.000030,0.037326,0.000000,0.000732,0.000244,-0.000170,0.234080,-0.000077,0,0,0,0
13.257890,-0.011262,-0.000302,-0.034797,-0.005645,-0.000030,0.037326,0.000000,0.000732,0.000244,-0.000170,0.234080,-0.000077,0,0,0,0
13.267660,-0.011270,-0.000302,-0.034797,-0.005645,-0.000030,0.037326,0.000000,0.000732,0.000244,-0.000170,0.234080,-0.000077,0,0,0,0
13.277430,-0.011279,-0.000303,-0.034797,-0.005645,-0.000030,0.037326,0.000000,0.000732,0.000244,-0.000170,0.234080,-0.000077,0,0,0,0
13.287200,-0.011287,-0.000303,-0.034797,-0.005645,-0.000030,0.037326,0.000000,0.000732,0.000244,-0.000170,0.234080,-0.000077,0,0,0,0
13.296970,-0.011296,-0.000303,-0.034797,-0.005645,-0.000030,0.037326,0.000000,0.000732,0.000244,-0.000170,0.234080,-0.000077,0,0,0,0
13.306740,-0.011304,-0.000303,-0.034797,-0.005645,-0.000030,0.037326,0.000000,0.000732,0.000244,-0.000170,0.234080,-0.000077,0,0,0,0
13.316510,-0.011312,-0.000303,-0.034797,-0.005645,-0.000030,0.037326,0.000000,0.000732,0.000244,-0.000170,0.234080,-0.000077,0,0,0,0
13.326280,-0.011321,-0.000304,-0.034797,-0.005645,-0.000030,0.037326,0.000000,0.000732,0.000244,-0.000170,0.234080,-0.000077,0,0,0,0
13.336050,-0.011329,-0.000304,-0.034797,-0.005645,-0.000030,0.037326,0.000000,0.000732,0.000244,-0.000170,0.234080,-0.000077,0,0,0,0
13.345820,-0.011337,-0.000304,-0.034797,-0.005645,-0.000030,0.037326,0.000000,0.000732,0.000244,-0.000170,0.234080,-0.000077,0,0,0,0
13.355590,-0.011346,-0.000304,-0.034797,-0.005645,-0.000030,0.037326,0.000000,0.000732,0.000244,-0.000170,0.234080,-0.000077,0,0,0,0
13.365360,-0.011354,-0.000305,-0.034797,-0.005645,-0.000030,0.037326,0.000000,0.000732,0.000244,-0.000170,0.234080,-0.000077,0,0,0,0
13.375130,-0.011362,-0.000305,-0.034797,-0.005645,-0.000030,0.037326,0.000000,0.000732,0.000244,-0.000170,0.234080,-0.000077,0,0,0,0
13.384900,-0.011371,-0.000305,-0.034797,-0.005645,-0.000030,0.037326,0.000000,0.000732,0.000244,-0.000170,0.234080,-0.000077,0,0,0,0
13.394670,-0.011379,-0.000305,-0.034797,-0.005645,-0.000030,0.037326,0.000000,0.000732,0.000244,-0.000170,0.234080,-0.000077,0,0,0,0
13.404440,-0.011388,-0.000306,-0.034797,-0.005645,-0.000030,0.037326,0.000000,0.000732,0.000244,-0.000170,0.234080,-0.000077,0,0,0,0
13.414210,-0.011396,-0.000306,-0.034797,-0.005645,-0.000030,0.037326,0.000000,0.000732,0.000244,-0.000170,0.234080,-0.000077,0,0,0,0
13.423980,-0.011404,-0.000306,-0.034797,-0.005645,-0.000030,0.037326,0.000000,0.000732,0.000244,-0.000170,0.234080,-0.000077,0,0,0,0
13.433750,-0.011413,-0.000306,-0.034797,-0.005645,-0.000030,0.037326,0.000000,0.000732,0.000244,-0.000170,0.234080,-0.000077,0,0,0,0
13.443520,-0.011421,-0.000306,-0.034797,-0.005645,-0.000030,0.037326,0.000000,0.000732,0.000244,-0.000170,0.234080,-0.000077,0,0,0,0
13.453290,-0.011429,-0.000307,-0.034797,-0.005645,-0.000030,0.037326,0.000000,0.000732,0.000244,-0.000170,0.234080,-0.000077,0,0,0,0
13.463060,-0.011438,-0.000307,-0.034797,-0.005645,-0.000030,0.037326,0.000000,0.000732,0.000244,-0.000170,0.234080,-0.000077,0,0,0,0
13.472830,-0.011446,-0.000307,-0.034797,-0.005645,-0.000030,0.037326,0.000000,0.000732,0.000244,-0.000170,0.234080,-0.000077,0,0,0,0
13.482600,-0.011455,-0.000307,-0.034797,-0.005645,-0.000030,0.037326,0.000000,0.000732,0.000244,-0.000170,0.234080,-0.000077,0,0,0,0
13.492370,-0.011463,-0.000308,-0.034797,-0.005645,-0.000030,0.037326,0.000000,0.000732,0.000244,-0.000170,0.234080,-0.000077,0,0,0,0
13.502140,-0.011471,-0.000308,-0.034797,-0.005645,-0.000030,0.037326,0.000000,0.000732,0.000244,-0.000170,0.234080,-0.000077,0,0,0,0
13.511910,-0.011480,-0.000308,-0.034797,-0.005645,-0.000030,0.037326,0.000000,0.000732,0.000244,-0.000170,0.234080,-0.000077,0,0,0,0
13.521680,-0.011488,-0.000308,-0.034797,-0.005645,-0.000030,0.037326,0.000000,0.000732,0.000244,-0.000170,0.234080,-0.000077,0,0,0,0
13.531450,-0.011496,-0.000309,-0.034797,-0.005645,-0.000030,0.037326,0.000000,0.000732,0.000244,-0.000170,0.234080,-0.000077,0,0,0,0
13.541220,-0.011505,-0.000309,-0.034797,-0.005645,-0.000030,0.037326,0.000000,0.000732,0.000244,-0.000170,0.234080,-0.000077,0,0,0,0
13.550990,-0.011513,-0.000309,-0.034797,-0.005645,-0.000030,0.037326,0.000000,0.000732,0.000244,-0.000170,0.234080,-0.000077,0,0,0,0
13.560760,-0.011522,-0.000309,-0.034797,-0.005645,-0.000030,0.037326,0.000000,0.000732,0.000244,-0.000170,0.234080,-0.000077,0,0,0,0
13.570530,-0.011530,-0.000309,-0.034797,-0.005645,-0.000030,0.037326,0.000000,0.000732,0.000244,-0.000170,0.234080,-0.000077,0,0,0,0
13.580300,-0.011538,-0.000310,-0.034797,-0.005645,-0.000030,0.037326,0.000000,0.000732,0.000244,-0.000170,0.234080,-0.000077,0,0,0,0
13.590070,-0.011547,-0.000310,-0.034797,-0.005645,-0.000030,0.037326,0.000000,0.000732,0.000244,-0.000170,0.234080,-0.000077,0,0,0,0
13.599840,-0.011555,-0.000310,-0.034797,-0.005645,-0.000030,0.037326,0.000000,0.000732,0.000244,-0.000170,0.234080,-0.000077,0,0,0,0
13.609610,-0.011563,-0.000310,-0.034797,-0.005645,-0.000030,0.037326,0.000000,0.000732,0.000244,-0.000170,0.234080,-0.000077,0,0,0,0
13.619380,-0.011572,-0.000311,-0.034797,-0.005645,-0.000030,0.037326,0.000000,0.000732,0.000244,-0.000170,0.234080,-0.000077,0,0,0,0
13.629150,-0.011580,-0.000311,-0.034797,-0.005645,-0.000030,0.037326,0.000000,0.000732,0.000244,-0.000170,0.234080,-0.000077,0,0,0,0
13.638920,-0.011589,-0.000311,-0.034797,-0.005645,-0.000030,0.037326,0.000000,0.000732,0.000244,-0.000170,0.234080,-0.000077,0,0,0,0
13.648690,-0.011597,-0.000311,-0.034797,-0.005645,-0.000030,0.037326,0.000000,0.000732,0.000244,-0.000170,0.234080,-0.000077,0,0,0,0
13.658460,-0.011605,-0.000311,-0.034797,-0.005645,-0.000030,0.037326,0.000000,0.000732,0.000244,-0.000170,0.234080,-0.000077,0,0,0,0
13.668230,-0.011614,-0.000312,-0.034797,-0.005645,-0.000030,0.037326,0.000000,0.000732,0.000244,-0.000170,0.234080,-0.000077,0,0,0,0
13.677999,-0.011622,-0.000312,-0.034797,-0.005645,-0.000030,0.037326,0.000000,0.000732,0.000244,-0.000170,0.234080,-0.000077,0,0,0,0
13.687770,-0.011630,-0.000312,-0.034797,-0.005645,-0.000030,0.037326,0.000000,0.000732,0.000244,-0.000170,0.234080,-0.000077,0,0,0,0
13.697540,-0.011639,-0.000312,-0.034797,-0.005645,-0.000030,0.037326,0.000000,0.000732,0.000244,-0.000170,0.234080,-0.000077,0,0,0,0
13.707310,-0.011647,-0.000313,-0.034797,-0.005645,-0.000030,0.037326,0.000000,0.000732,0.000244,-0.000170,0.234080,-0.000077,0,0,0,0
13.717080,-0.011656,-0.000313,-0.034797,-0.005645,-0.000030,0.037326,0.000000,0.000732,0.000244,-0.000170,0.234080,-0.000077,0,0,0,0
13.726850,-0.011664,-0.000313,-0.034797,-0.005645,-0.000030,0.037326,0.000000,0.000732,0.000244,-0.000170,0.234080,-0.000077,0,0,0,0
13.736620,-0.011672,-0.000313,-0.034797,-0.005645,-0.000030,0.037326,0.000000,0.000732,0.000244,-0.000170,0.234080,-0.000077,0,0,0,0
13.746390,-0.011681,-0.000314,-0.034797,-0.005645,-0.000030,0.037326,0.000000,0.000732,0.000244,-0.000170,0.234080,-0.000077,0,0,0,0
13.756160,-0.011689,-0.000314,-0.034797,-0.005645,-0.000030,0.037326,0.000000,0.000732,0.000244,-0.000170,0.234080,-0.000077,0,0,0,0
13.765930,-0.011697,-0.000314,-0.034797,-0.005645,-0.000030,0.037326,0.000000,0.000732,0.000244,-0.000170,0.234080,-0.000077,0,0,0,0
13.775700,-0.011706,-0.000314,-0.034797,-0.005645,-0.000030,0.037326,0.000000,0.000732,0.000244,-0.000170,0.234080,-0.000077,0,0,0,0
13.785470,-0.011714,-0.000314,-0.034797,-0.005645,-0.000030,0.037326,0.000000,0.000732,0.000244,-0.000170,0.234080,-0.000077,0,0,0,0
13.795240,-0.011723,-0.000315,-0.034797,-0.005645,-0.000030,0.037326,0.000000,0.000732,0.000244,-0.000170,0.234080,-0.000077,0,0,0,0
13.805010,-0.011731,-0.000315,-0.034797,-0.005645,-0.000030,0.037326,0.000000,0.000732,0.000244,-0.000170,0.234080,-0.000077,0,0,0,0
13.814780,-0.011739,-0.000315,-0.034797,-0.005645,-0.000030,0.037326,0.000000,0.000732,0.000244,-0.000170,0.234080,-0.000077,0,0,0,0
13.824550,-0.011748,-0.000315,-0.034797,-0.005645,-0.000030,0.037326,0.000000,0.000732,0.000244,-0.000170,0.234080,-0.000077,0,0,0,0
13.834320,-0.011756,-0.000316,-0.034797,-0.005645,-0.000030,0.037326,0.000000,0.000732,0.000244,-0.000170,0.234080,-0.000077,0,0,0,0
13.844090,-0.011764,-0.000316,-0.034797,-0.005645,-0.000030,0.037326,0.000000,0.000732,0.000244,-0.000170,0.234080,-0.000077,0,0,0,0
13.853860,-0.011773,-0.000316,-0.034797,-0.005645,-0.000030,0.037326,0.000000,0.000732,0.000244,-0.000170,0.234080,-0.000077,0,0,0,0
13.863630,-0.011781,-0.000316,-0.034797,-0.005645,-0.000030,0.037326,0.000000,0.000732,0.000244,-0.000170,0.234080,-0.000077,0,0,0,0
13.873400,-0.011790,-0.000316,-0.034797,-0.005645,-0.000030,0.037326,0.000000,0.000732,0.000244,-0.000170,0.234080,-0.000077,0,0,0,0
13.883170,-0.011798,-0.000317,-0.034797,-0.005645,-0.000030,0.037326,0.000000,0.000732,0.000244,-0.000170,0.234080,-0.000077,0,0,0,0
13.892940,-0.011806,-0.000317,-0.034797,-0.005645,-0.000030,0.037326,0.000000,0.000732,0.000244,-0.000170,0.234080,-0.000077,0,0,0,0
13.902710,-0.011815,-0.000317,-0.034797,-0.005645,-0.000030,0.037326,0.000000,0.000732,0.000244,-0.000170,0.234080,-0.000077,0,0,0,0
13.912480,-0.011823,-0.000317,-0.034797,-0.005645,-0.000030,0.037326,0.000000,0.000732,0.000244,-0.000170,0.234080,-0.000077,0,0,0,0
13.922250,-0.011831,-0.000318,-0.034797,-0.005645,-0.000030,0.037326,0.000000,0.000732,0.000244,-0.000170,0.234080,-0.000077,0,0,0,0
13.932020,-0.011840,-0.000318,-0.034797,-0.005645,-0.000030,0.037326,0.000000,0.000732,0.000244,-0.000170,0.234080,-0.000077,0,0,0,0
13.941790,-0.011848,-0.000318,-0.034797,-0.005645,-0.000030,0.037326,0.000000,0.000732,0.000244,-0.000170,0.234080,-0.000077,0,0,0,0
13.951560,-0.011857,-0.000318,-0.034797,-0.005645,-0.000030,0.037326,0.000000,0.000732,0.000244,-0.000170,0.234080,-0.000077,0,0,0,0
13.961330,-0.011865,-0.000319,-0.034797,-0.005645,-0.000030,0.037326,0.000000,0.000732,0.000244,-0.000170,0.234080,-0.000077,0,0,0,0
13.971100,-0.011873,-0.000319,-0.034797,-0.005645,-0.000030,0.037326,0.000000,0.000732,0.000244,-0.000170,0.234080,-0.000077,0,0,0,0
13.980870,-0.011882,-0.000319,-0.034797,-0.005645,-0.000030,0.037326,0.000000,0.000732,0.000244,-0.000170,0.234080,-0.000077,0,0,0,0
13.990640,-0.011890,-0.000319,-0.034797,-0.005645,-0.000030,0.037326,0.000000,0.000732,0.000244,-0.000170,0.234080,-0.000077,0,0,0,0
14.000410,-0.011898,-0.000319,-0.034797,-0.005645,-0.000030,0.037326,0.000000,0.000732,0.000244,-0.000170,0.234080,-0.000077,0,0,0,0
14.010180,-0.011907,-0.000320,-0.034797,-0.005645,-0.000030,0.037326,0.000000,0.000732,0.000244,-0.000170,0.234080,-0.000077,0,0,0,0
14.019950,-0.011915,-0.000320,-0.034797,-0.005645,-0.000030,0.037326,0.000000,0.000732,0.000244,-0.000170,0.234080,-0.000077,0,0,0,0
14.029720,-0.011924,-0.000320,-0.034797,-0.005645,-0.000030,0.037326,0.000000,0.000732,0.000244,-0.000170,0.234080,-0.000077,0,0,0,0
14.039490,-0.011932,-0.000320,-0.034797,-0.005645,-0.000030,0.037326,0.000000,0.000732,0.000244,-0.000170,0.234080,-0.000077,0,0,0,0
14.049260,-0.011940,-0.000321,-0.034797,-0.005645,-0.000030,0.037326,0.000000,0.000732,0.000244,-0.000170,0.234080,-0.000077,0,0,0,0
14.059030,-0.011949,-0.000321,-0.034797,-0.005645,-0.000030,0.037326,0.000000,0.000732,0.000244,-0.000170,0.234080,-0.000077,0,0,0,0
14.068800,-0.011957,-0.000321,-0.034797,-0.005645,-0.000030,0.037326,0.000000,0.000732,0.000244,-0.000170,0.234080,-0.000077,0,0,0,0
14.078570,-0.011965,-0.000321,-0.034797,-0.005645,-0.000030,0.037326,0.000000,0.000732,0.000244,-0.000170,0.234080,-0.000077,0,0,0,0
14.088340,-0.011974,-0.000321,-0.034797,-0.005645,-0.000030,0.037326,0.000000,0.000732,0.000244,-0.000170,0.234080,-0.000077,0,0,0,0
14.098110,-0.011982,-0.000322,-0.034797,-0.005645,-0.000030,0.037326,0.000000,0.000732,0.000244,-0.000170,0.234080,-0.000077,0,0,0,0
14.107880,-0.011991,-0.000322,-0.034797,-0.005645,-0.000030,0.037326,0.000000,0.000732,0.000244,-0.000170,0.234080,-0.000077,0,0,0,0
14.117650,-0.011999,-0.000322,-0.034797,-0.005645,-0.000030,0.037326,0.000000,0.000732,0.000244,-0.000170,0.234080,-0.000077,0,0,0,0
14.127420,-0.012007,-0.000322,-0.034797,-0.005645,-0.000030,0.037326,0.000000,0.000732,0.000244,-0.000170,0.234080,-0.000077,0,0,0,0
14.137190,-0.012016,-0.000323,-0.034797,-0.005645,-0.000030,0.037326,0.000000,0.000732,0.000244,-0.000170,0.234080,-0.000077,0,0,0,0
14.146960,-0.012024,-0.000323,-0.034797,-0.005645,-0.000030,0.037326,0.000000,0.000732,0.000244,-0.000170,0.234080,-0.000077,0,0,0,0
14.156730,-0.012032,-0.000323,-0.034797,-0.005645,-0.000030,0.037326,0.000000,0.000732,0.000244,-0.000170,0.234080,-0.000077,0,0,0,0
14.166500,-0.012041,-0.000323,-0.034797,-0.005645,-0.000030,0.037326,0.000000,0.000732,0.000244,-0.000170,0.234080,-0.000077,0,0,0,0
14.176270,-0.012049,-0.000324,-0.034797,-0.005645,-0.000030,0.037326,0.000000,0.000732,0.000244,-0.000170,0.234080,-0.000077,0,0,0,0
14.186040,-0.012058,-0.000324,-0.034797,-0.005645,-0.000030,0.037326,0.000000,0.000732,0.000244,-0.000170,0.234080,-0.000077,0,0,0,0
14.195810,-0.012066,-0.000324,-0.034797,-0.005645,-0.000030,0.037326,0.000000,0.000732,0.000244,-0.000170,0.234080,-0.000077,0,0,0,0
14.205580,-0.012074,-0.000324,-0.034797,-0.005645,-0.000030,0.037326,0.000000,0.000732,0.000244,-0.000170,0.234080,-0.000077,0,0,0,0
14.215350,-0.012083,-0.000324,-0.034797,-0.005645,-0.000030,0.037326,0.000000,0.000732,0.000244,-0.000170,0.234080,-0.000077,0,0,0,0
14.225120,-0.012091,-0.000325,-0.034797,-0.005645,-0.000030,0.037326,0.000000,0.000732,0.000244,-0.000170,0.234080,-0.000077,0,0,0,0
14.234890,-0.012099,-0.000325,-0.034797,-0.005645,-0.000030,0.037326,0.000000,0.000732,0.000244,-0.000170,0.234080,-0.000077,0,0,0,0
14.244660,-0.012108,-0.000325,-0.034797,-0.005645,-0.000030,0.037326,0.000000,0.000732,0.000244,-0.000170,0.234080,-0.000077,0,0,0,0
14.254430,-0.012116,-0.000325,-0.034797,-0.005645,-0.000030,0.037326,0.000000,0.000732,0.000244,-0.000170,0.234080,-0.000077,0,0,0,0
14.264200,-0.012124,-0.000326,-0.034797,-0.005645,-0.000030,0.037326,0.000000,0.000732,0.000244,-0.000170,0.234080,-0.000077,0,0,0,0
14.273970,-0.012133,-0.000326,-0.034797,-0.005645,-0.000030,0.037326,0.000000,0.000732,0.000244,-0.000170,0.234080,-0.000077,0,0,0,0
14.283740,-0.012141,-0.000326,-0.034797,-0.005645,-0.000030,0.037326,0.000000,0.000732,0.000244,-0.000170,0.234080,-0.000077,0,0,0,0
14.293510,-0.012150,-0.000326,-0.034797,-0.005645,-0.000030,0.037326,0.000000,0.000732,0.000244,-0.000170,0.234080,-0.000077,0,0,0,0
14.303280,-0.012158,-0.000327,-0.034797,-0.005645,-0.000030,0.037326,0.000000,0.000732,0.000244,-0.000170,0.234080,-0.000077,0,0,0,0
14.313050,-0.012166,-0.000327,-0.034797,-0.005645,-0.000030,0.037326,0.000000,0.000732,0.000244,-0.000170,0.234080,-0.000077,0,0,0,0
14.322820,-0.012175,-0.000327,-0.034797,-0.005645,-0.000030,0.037326,0.000000,0.000732,0.000244,-0.000170,0.234080,-0.000077,0,0,0,0
14.332590,-0.012183,-0.000327,-0.034797,-0.005645,-0.000030,0.037326,0.000000,0.000732,0.000244,-0.000170,0.234080,-0.000077,0,0,0,0
14.342360,-0.012191,-0.000327,-0.034797,-0.005645,-0.000030,0.037326,0.000000,0.000732,0.000244,-0.000170,0.234080,-0.000077,0,0,0,0
14.352130,-0.012200,-0.000328,-0.034797,-0.005645,-0.000030,0.037326,0.000000,0.000732,0.000244,-0.000170,0.234080,-0.000077,0,0,0,0
14.361900,-0.012208,-0.000328,-0.034797,-0.005645,-0.000030,0.037326,0.000000,0.000732,0.000244,-0.000170,0.234080,-0.000077,0,0,0,0
14.371670,-0.012217,-0.000328,-0.034797,-0.005645,-0.000030,0.037326,0.000000,0.000732,0.000244,-0.000170,0.234080,-0.000077,0,0,0,0
14.381440,-0.012225,-0.000328,-0.034797,-0.005645,-0.000030,0.037326,0.000000,0.000732,0.000244,-0.000170,0.234080,-0.000077,0,0,0,0
14.391210,-0.012233,-0.000329,-0.034797,-0.005645,-0.000030,0.037326,0.000000,0.000732,0.000244,-0.000170,0.234080,-0.000077,0,0,0,0
14.400980,-0.012242,-0.000329,-0.034797,-0.005645,-0.000030,0.037326,0.000000,0.000732,0.000244,-0.000170,0.234080,-0.000077,0,0,0,0
14.410750,-0.012250,-0.000329,-0.034797,-0.005645,-0.000030,0.037326,0.000000,0.000732,0.000244,-0.000170,0.234080,-0.000077,0,0,0,0
14.420520,-0.012258,-0.000329,-0.034797,-0.005645,-0.000030,0.037326,0.000000,0.000732,0.000244,-0.000170,0.234080,-0.000077,0,0,0,0
14.430290,-0.012267,-0.000329,-0.034797,-0.005645,-0.000030,0.037326,0.000000,0.000732,0.000244,-0.000170,0.234080,-0.000077,0,0,0,0
14.440060,-0.012275,-0.000330,-0.034797,-0.005645,-0.000030,0.037326,0.000000,0.000732,0.000244,-0.000170,0.234080,-0.000077,0,0,0,0
14.449830,-0.012284,-0.000330,-0.034797,-0.005645,-0.000030,0.037326,0.000000,0.000732,0.000244,-0.000170,0.234080,-0.000077,0,0,0,0
14.459600,-0.012292,-0.000330,-0.034797,-0.005645,-0.000030,0.037326,0.000000,0.000732,0.000244,-0.000170,0.234080,-0.000077,0,0,0,0
14.469370,-0.012300,-0.000330,-0.034797,-0.005645,-0.000030,0.037326,0.000000,0.000732,0.000244,-0.000170,0.234080,-0.000077,0,0,0,0
14.479140,-0.012309,-0.000331,-0.034797,-0.005645,-0.000030,0.037326,0.000000,0.000732,0.000244,-0.000170,0.234080,-0.000077,0,0,0,0
14.488910,-0.012317,-0.000331,-0.034797,-0.005645,-0.000030,0.037326,0.000000,0.000732,0.000244,-0.000170,0.234080,-0.000077,0,0,0,0
14.498680,-0.012325,-0.000331,-0.034797,-0.005645,-0.000030,0.037326,0.000000,0.000732,0.000244,-0.000170,0.234080,-0.000077,0,0,0,0
14.508450,-0.012334,-0.000331,-0.034797,-0.005645,-0.000030,0.037326,0.000000,0.000732,0.000244,-0.000170,0.234080,-0.000077,0,0,0,0
14.518220,-0.012342,-0.000332,-0.034797,-0.005645,-0.000030,0.037326,0.000000,0.000732,0.000244,-0.000170,0.234080,-0.000077,0,0,0,0
14.527990,-0.012351,-0.000332,-0.034797,-0.005645,-0.000030,0.037326,0.000000,0.000732,0.000244,-0.000170,0.234080,-0.000077,0,0,0,0
14.537760,-0.012359,-0.000332,-0.034797,-0.005645,-0.000030,0.037326,0.000000,0.000732,0.000244,-0.000170,0.234080,-0.000077,0,0,0,0
14.547530,-0.012367,-0.000332,-0.034797,-0.005645,-0.000030,0.037326,0.000000,0.000732,0.000244,-0.000170,0.234080,-0.000077,0,0,0,0
14.557300,-0.012376,-0.000332,-0.034797,-0.005645,-0.000030,0.037326,0.000000,0.000732,0.000244,-0.000170,0.234080,-0.000077,0,0,0,0
14.567070,-0.012384,-0.000333,-0.034797,-0.005645,-0.000030,0.037326,0.000000,0.000732,0.000244,-0.000170,0.234080,-0.000077,0,0,0,0
14.576840,-0.012392,-0.000333,-0.034797,-0.005645,-0.000030,0.037326,0.000000,0.000732,0.000244,-0.000170,0.234080,-0.000077,0,0,0,0
14.586610,-0.012401,-0.000333,-0.034797,-0.005645,-0.000030,0.037326,0.000000,0.000732,0.000244,-0.000170,0.234080,-0.000077,0,0,0,0
14.596380,-0.012409,-0.000333,-0.034797,-0.005645,-0.000030,0.037326,0.000000,0.000732,0.000244,-0.000170,0.234080,-0.000077,0,0,0,0
14.606150,-0.012418,-0.000334,-0.034797,-0.005645,-0.000030,0.037326,0.000000,0.000732,0.000244,-0.000170,0.234080,-0.000077,0,0,0,0
14.615920,-0.012426,-0.000334,-0.034797,-0.005645,-0.000030,0.037326,0.000000,0.000732,0.000244,-0.000170,0.234080,-0.000077,0,0,0,0
14.625690,-0.012434,-0.000334,-0.034797,-0.005645,-0.000030,0.037326,0.000000,0.000732,0.000244,-0.000170,0.234080,-0.000077,0,0,0,0
14.635460,-0.012443,-0.000334,-0.034797,-0.005645,-0.000030,0.037326,0.000000,0.000732,0.000244,-0.000170,0.234080,-0.000077,0,0,0,0
14.645230,-0.012451,-0.000334,-0.034797,-0.005645,-0.000030,0.037326,0.000000,0.000732,0.000244,-0.000170,0.234080,-0.000077,0,0,0,0
14.655000,-0.012459,-0.000335,-0.034797,-0.005645,-0.000030,0.037326,0.000000,0.000732,0.000244,-0.000170,0.234080,-0.000077,0,0,0,0
14.664770,-0.012468,-0.000335,-0.034797,-0.005645,-0.000030,0.037326,0.000000,0.000732,0.000244,-0.000170,0.234080,-0.000077,0,0,0,0
14.674540,-0.012476,-0.000335,-0.034797,-0.005645,-0.000030,0.037326,0.000000,0.000732,0.000244,-0.000170,0.234080,-0.000077,0,0,0,0
14.684310,-0.012485,-0.000335,-0.034797,-0.005645,-0.000030,0.037326,0.000000,0.000732,0.000244,-0.000170,0.234080,-0.000077,0,0,0,0
14.694080,-0.012493,-0.000336,-0.034797,-0.005645,-0.000030,0.037326,0.000000,0.000732,0.000244,-0.000170,0.234080,-0.000077,0,0,0,0
14.703850,-0.012501,-0.000336,-0.034797,-0.005645,-0.000030,0.037326,0.000000,0.000732,0.000244,-0.000170,0.234080,-0.000077,0,0,0,0
14.713620,-0.012510,-0.000336,-0.034797,-0.005645,-0.000030,0.037326,0.000000,0.000732,0.000244,-0.000170,0.234080,-0.000077,0,0,0,0
14.723390,-0.012518,-0.000336,-0.034797,-0.005645,-0.000030,0.037326,0.000000,0.000732,0.000244,-0.000170,0.234080,-0.000077,0,0,0,0
14.733160,-0.012526,-0.000337,-0.034797,-0.005645,-0.000030,0.037326,0.000000,0.000732,0.000244,-0.000170,0.234080,-0.000077,0,0,0,0
14.742930,-0.012535,-0.000337,-0.034797,-0.005645,-0.000030,0.037326,0.000000,0.000732,0.000244,-0.000170,0.234080,-0.000077,0,0,0,0
14.752700,-0.012543,-0.000337,-0.034797,-0.005645,-0.000030,0.037326,0.000000,0.000732,0.000244,-0.000170,0.234080,-0.000077,0,0,0,0
14.762470,-0.012552,-0.000337,-0.034797,-0.005645,-0.000030,0.037326,0.000000,0.000732,0.000244,-0.000170,0.234080,-0.000077,0,0,0,0
14.772240,-0.012560,-0.000337,-0.034797,-0.005645,-0.000030,0.037326,0.000000,0.000732,0.000244,-0.000170,0.234080,-0.000077,0,0,0,0
14.782010,-0.012568,-0.000338,-0.034797,-0.005645,-0.000030,0.037326,0.000000,0.000732,0.000244,-0.000170,0.234080,-0.000077,0,0,0,0
14.791780,-0.012577,-0.000338,-0.034797,-0.005645,-0.000030,0.037326,0.000000,0.000732,0.000244,-0.000170,0.234080,-0.000077,0,0,0,0
14.801550,-0.012585,-0.000338,-0.034797,-0.005645,-0.000030,0.037326,0.000000,0.000732,0.000244,-0.000170,0.234080,-0.000077,0,0,0,0
14.811320,-0.012593,-0.000338,-0.034797,-0.005645,-0.000030,0.037326,0.000000,0.000732,0.000244,-0.000170,0.234080,-0.000077,0,0,0,0
14.821090,-0.012602,-0.000339,-0.034797,-0.005645,-0.000030,0.037326,0.000000,0.000732,0.000244,-0.000170,0.234080,-0.000077,0,0,0,0
14.830860,-0.012610,-0.000339,-0.034797,-0.005645,-0.000030,0.037326,0.000000,0.000732,0.000244,-0.000170,0.234080,-0.000077,0,0,0,0
14.840630,-0.012619,-0.000339,-0.034797,-0.005645,-0.000030,0.037326,0.000000,0.000732,0.000244,-0.000170,0.234080,-0.000077,0,0,0,0
14.850400,-0.012627,-0.000339,-0.034797,-0.005645,-0.000030,0.037326,0.000000,0.000732,0.000244,-0.000170,0.234080,-0.000077,0,0,0,0
14.860170,-0.012635,-0.000339,-0.034797,-0.005645,-0.000030,0.037326,0.000000,0.000732,0.000244,-0.000170,0.234080,-0.000077,0,0,0,0
14.869940,-0.012644,-0.000340,-0.034797,-0.005645,-0.000030,0.037326,0.000000,0.000732,0.000244,-0.000170,0.234080,-0.000077,0,0,0,0
14.879710,-0.012652,-0.000340,-0.034797,-0.005645,-0.000030,0.037326,0.000000,0.000732,0.000244,-0.000170,0.234080,-0.000077,0,0,0,0
14.889480,-0.012660,-0.000340,-0.034797,-0.005645,-0.000030,0.037326,0.000000,0.000732,0.000244,-0.000170,0.234080,-0.000077,0,0,0,0
14.899250,-0.012669,-0.000340,-0.034797,-0.005645,-0.000030,0.037326,0.000000,0.000732,0.000244,-0.000170,0.234080,-0.000077,0,0,0,0
14.909020,-0.012677,-0.000341,-0.034797,-0.005645,-0.000030,0.037326,0.000000,0.000732,0.000244,-0.000170,0.234080,-0.000077,0,0,0,0
14.918790,-0.012686,-0.000341,-0.034797,-0.005645,-0.000030,0.037326,0.000000,0.000732,0.000244,-0.000170,0.234080,-0.000077,0,0,0,0
14.928560,-0.012694,-0.000341,-0.034797,-0.005645,-0.000030,0.037326,0.000000,0.000732,0.000244,-0.000170,0.234080,-0.000077,0,0,0,0
14.938330,-0.012702,-0.000341,-0.034797,-0.005645,-0.000030,0.037326,0.000000,0.000732,0.000244,-0.000170,0.234080,-0.000077,0,0,0,0
14.948100,-0.012711,-0.000342,-0.034797,-0.005645,-0.000030,0.037326,0.000000,0.000732,0.000244,-0.000170,0.234080,-0.000077,0,0,0,0
14.957870,-0.012719,-0.000342,-0.034797,-0.005645,-0.000030,0.037326,0.000000,0.000732,0.000244,-0.000170,0.234080,-0.000077,0,0,0,0
14.967640,-0.012727,-0.000342,-0.034797,-0.005645,-0.000030,0.037326,0.000000,0.000732,0.000244,-0.000170,0.234080,-0.000077,0,0,0,0
14.977410,-0.012736,-0.000342,-0.034797,-0.005645,-0.000030,0.037326,0.000000,0.000732,0.000244,-0.000170,0.234080,-0.000077,0,0,0,0
14.987180,-0.012744,-0.000342,-0.034797,-0.005645,-0.000030,0.037326,0.000000,0.000732,0.000244,-0.000170,0.234080,-0.000077,0,0,0,0
14.996950,-0.012753,-0.000343,-0.034797,-0.005645,-0.000030,0.037326,0.000000,0.000732,0.000244,-0.000170,0.234080,-0.000077,0,0,0,0
15.006720,-0.012761,-0.000343,-0.034797,-0.005645,-0.000030,0.037326,0.000000,0.000732,0.000244,-0.000170,0.234080,-0.000077,0,0,0,0
15.016490,-0.012769,-0.000343,-0.034797,-0.005645,-0.000030,0.037326,0.000000,0.000732,0.000244,-0.000170,0.234080,-0.000077,0,0,0,0
15.026260,-0.012778,-0.000343,-0.034797,-0.005645,-0.000030,0.037326,0.000000,0.000732,0.000244,-0.000170,0.234080,-0.000077,0,0,0,0
15.036030,-0.012786,-0.000344,-0.034797,-0.005645,-0.000030,0.037326,0.000000,0.000732,0.000244,-0.000170,0.234080,-0.000077,0,0,0,0
15.045800,-0.012794,-0.000344,-0.034797,-0.005645,-0.000030,0.037326,0.000000,0.000732,0.000244,-0.000170,0.234080,-0.000077,0,0,0,0
15.055570,-0.012803,-0.000344,-0.034797,-0.005645,-0.000030,0.037326,0.000000,0.000732,0.000244,-0.000170,0.234080,-0.000077,0,0,0,0
15.065340,-0.012811,-0.000344,-0.034797,-0.005645,-0.000030,0.037326,0.000000,0.000732,0.000244,-0.000170,0.234080,-0.000077,0,0,0,0
15.075110,-0.012819,-0.000345,-0.034797,-0.005645,-0.000030,0.037326,0.000000,0.000732,0.000244,-0.000170,0.234080,-0.000077,0,0,0,0
15.084880,-0.012828,-0.000345,-0.034797,-0.005645,-0.000030,0.037326,0.000000,0.000732,0.000244,-0.000170,0.234080,-0.000077,0,0,0,0
15.094650,-0.012836,-0.000345,-0.034797,-0.005645,-0.000030,0.037326,0.000000,0.000732,0.000244,-0.000170,0.234080,-0.000077,0,0,0,0
15.104420,-0.012845,-0.000345,-0.034797,-0.005645,-0.000030,0.037326,0.000000,0.000732,0.000244,-0.000170,0.234080,-0.000077,0,0,0,0
15.114190,-0.012853,-0.000345,-0.034797,-0.005645,-0.000030,0.037326,0.000000,0.000732,0.000244,-0.000170,0.234080,-0.000077,0,0,0,0
15.123960,-0.012861,-0.000346,-0.034797,-0.005645,-0.000030,0.037326,0.000000,0.000732,0.000244,-0.000170,0.234080,-0.000077,0,0,0,0
15.133730,-0.012870,-0.000346,-0.034797,-0.005645,-0.000030,0.037326,0.000000,0.000732,0.000244,-0.000170,0.234080,-0.000077,0,0,0,0
15.143500,-0.012878,-0.000346,-0.034797,-0.005645,-0.000030,0.037326,0.000000,0.000732,0.000244,-0.000170,0.234080,-0.000077,0,0,0,0
15.153270,-0.012886,-0.000346,-0.034797,-0.005645,-0.000030,0.037326,0.000000,0.000732,0.000244,-0.000170,0.234080,-0.000077,0,0,0,0
15.163040,-0.012895,-0.000347,-0.034797,-0.005645,-0.000030,0.037326,0.000000,0.000732,0.000244,-0.000170,0.234080,-0.000077,0,0,0,0
15.172810,-0.012903,-0.000347,-0.034797,-0.005645,-0.000030,0.037326,0.000000,0.000732,0.000244,-0.000170,0.234080,-0.000077,0,0,0,0
15.182580,-0.012912,-0.000347,-0.034797,-0.005645,-0.000030,0.037326,0.000000,0.000732,0.000244,-0.000170,0.234080,-0.000077,0,0,0,0
15.192350,-0.012920,-0.000347,-0.034797,-0.005645,-0.000030,0.037326,0.000000,0.000732,0.000244,-0.000170,0.234080,-0.000077,0,0,0,0
15.202120,-0.012928,-0.000347,-0.034797,-0.005645,-0.000030,0.037326,0.000000,0.000732,0.000244,-0.000170,0.234080,-0.000077,0,0,0,0
15.211890,-0.012937,-0.000348,-0.034797,-0.005645,-0.000030,0.037326,0.000000,0.000732,0.000244,-0.000170,0.234080,-0.000077,0,0,0,0
15.221660,-0.012945,-0.000348,-0.034797,-0.005645,-0.000030,0.037326,0.000000,0.000732,0.000244,-0.000170,0.234080,-0.000077,0,0,0,0
15.231430,-0.012953,-0.000348,-0.034797,-0.005645,-0.000030,0.037326,0.000000,0.000732,0.000244,-0.000170,0.234080,-0.000077,0,0,0,0
15.241200,-0.012962,-0.000348,-0.034797,-0.005645,-0.000030,0.037326,0.000000,0.000732,0.000244,-0.000170,0.234080,-0.000077,0,0,0,0
15.250970,-0.012970,-0.000349,-0.034797,-0.005645,-0.000030,0.037326,0.000000,0.000732,0.000244,-0.000170,0.234080,-0.000077,0,0,0,0
15.260740,-0.012979,-0.000349,-0.034797,-0.005645,-0.000030,0.037326,0.000000,0.000732,0.000244,-0.000170,0.234080,-0.000077,0,0,0,0
15.270510,-0.012987,-0.000349,-0.034797,-0.005645,-0.000030,0.037326,0.000000,0.000732,0.000244,-0.000170,0.234080,-0.000077,0,0,0,0
15.280280,-0.012995,-0.000349,-0.034797,-0.005645,-0.000030,0.037326,0.000000,0.000732,0.000244,-0.000170,0.234080,-0.000077,0,0,0,0
15.290050,-0.013004,-0.000350,-0.034797,-0.005645,-0.000030,0.037326,0.000000,0.000732,0.000244,-0.000170,0.234080,-0.000077,0,0,0,0
15.299820,-0.013012,-0.000350,-0.034797,-0.005645,-0.000030,0.037326,0.000000,0.000732,0.000244,-0.000170,0.234080,-0.000077,0,0,0,0
