time,pos_x,pos_y,pos_z,vel_x,vel_y,vel_z,att_phi,att_theta,att_psi,rate_p,rate_q,rate_r,cmd_thrust,cmd_roll,cmd_pitch,cmd_yaw
31.892269,1.378906,2.738281,0.003906,0.000000,0.000000,-0.019133,-0.007386,-0.002747,0.996778,0.000244,0.000732,-0.001465,0,0,0,0
31.900076,1.378906,2.738281,0.003906,0.000000,0.000000,-0.013136,-0.007325,-0.002808,0.996778,-0.000244,0.000244,-0.000244,0,0,0,0
31.909845,1.378906,2.738281,0.003906,0.000000,0.000000,-0.013538,-0.007080,-0.002686,0.996582,0.000244,0.000244,-0.000977,0,0,0,0
31.919605,1.378906,2.738281,0.003906,0.000000,0.000000,-0.013697,-0.007325,-0.002808,0.996778,-0.004150,-0.001221,-0.002441,0,0,0,0
31.929371,1.378906,2.738281,0.003906,0.000000,0.000000,-0.014097,-0.007325,-0.002808,0.996778,-0.000244,-0.002197,-0.000244,0,0,0,0
31.939137,1.378906,2.738281,0.003906,0.000000,0.000000,-0.008875,-0.007325,-0.002808,0.996778,-0.001953,0.000244,-0.001465,0,0,0,0
31.948902,1.378906,2.738281,0.003906,0.000000,0.000000,-0.008566,-0.007325,-0.002808,0.996778,-0.002441,0.000732,-0.000977,0,0,0,0
31.958670,1.378906,2.738281,0.003906,0.000000,0.000000,-0.008299,-0.007325,-0.002808,0.996778,0.000732,0.000244,0.000732,0,0,0,0
31.968433,1.386719,2.738281,0.003906,-0.009998,-0.009998,-0.015711,-0.007325,-0.002808,0.996778,-0.005615,0.000732,-0.001953,0,0,0,0
31.978203,1.386719,2.738281,0.003906,-0.009998,-0.009998,-0.016127,-0.007325,-0.002808,0.996778,0.000244,0.001221,-0.000977,0,0,0,0
31.987965,1.386719,2.738281,0.003906,-0.009998,-0.009998,-0.016281,-0.007325,-0.002808,0.996778,-0.004150,0.000732,-0.001953,0,0,0,0
31.997732,1.386719,2.738281,0.003906,-0.009998,-0.009998,-0.015884,-0.007325,-0.002808,0.996778,-0.001465,0.000732,-0.002930,0,0,0,0
32.007496,1.378906,2.738281,0.003906,-0.009998,0.000000,-0.010342,-0.007325,-0.002808,0.996778,-0.001465,0.000244,-0.001953,0,0,0,0
32.017262,1.378906,2.738281,0.003906,-0.009998,0.000000,-0.010315,-0.007325,-0.002808,0.996778,-0.000244,-0.001709,0.000732,0,0,0,0
32.027027,1.378906,2.738281,0.003906,-0.009998,0.000000,-0.009851,-0.007325,-0.002808,0.996778,-0.002441,-0.000732,0.000244,0,0,0,0
32.036793,1.378906,2.738281,0.003906,0.000000,0.000000,-0.005699,-0.007325,-0.002808,0.996778,-0.000244,-0.000732,-0.000977,0,0,0,0
32.046558,1.378906,2.738281,0.003906,0.000000,0.000000,-0.005875,-0.007325,-0.002808,0.996778,0.000732,-0.000732,0.000732,0,0,0,0
32.056324,1.378906,2.738281,0.003906,0.000000,0.000000,-0.006180,-0.007325,-0.002808,0.996778,-0.003418,-0.000732,0.000732,0,0,0,0
32.066090,1.378906,2.738281,0.003906,0.000000,0.000000,-0.003004,-0.007264,-0.002747,0.996778,-0.001465,-0.000244,0.000732,0,0,0,0
32.075855,1.378906,2.738281,0.003906,0.000000,0.000000,-0.002949,-0.007264,-0.002747,0.996778,0.000732,0.000732,-0.001465,0,0,0,0
32.085621,1.378906,2.738281,0.003906,0.000000,0.000000,-0.003160,-0.007264,-0.002747,0.996778,-0.000244,-0.001709,0.000732,0,0,0,0
32.095387,1.378906,2.738281,0.003906,0.000000,0.000000,-0.003454,-0.007264,-0.002747,0.996778,0.002441,-0.001709,-0.000244,0,0,0,0
32.105148,1.378906,2.738281,0.007812,0.000000,0.000000,-0.000643,-0.007264,-0.002747,0.996778,0.001221,-0.000732,-0.001465,0,0,0,0
32.114918,1.378906,2.738281,0.007812,0.000000,0.000000,-0.000269,-0.007264,-0.002747,0.996778,-0.001953,-0.001709,-0.000977,0,0,0,0
32.124683,1.378906,2.738281,0.007812,0.000000,0.000000,-0.000351,-0.007264,-0.002747,0.996778,-0.000244,-0.001221,-0.001465,0,0,0,0
32.134445,1.386719,2.738281,0.003906,-0.009998,-0.009998,-0.009922,-0.007264,-0.002747,0.996778,-0.000732,0.000244,0.000244,0,0,0,0
32.144215,1.386719,2.738281,0.003906,-0.009998,-0.009998,-0.010036,-0.007264,-0.002747,0.996778,-0.000732,0.000732,-0.001465,0,0,0,0
32.153980,1.386719,2.738281,0.003906,-0.009998,-0.009998,-0.010468,-0.007264,-0.002747,0.996778,-0.000732,-0.002197,0.001221,0,0,0,0
32.163746,1.386719,2.738281,0.003906,-0.009998,-0.009998,-0.010386,-0.007264,-0.002747,0.996778,-0.002441,-0.003906,-0.001465,0,0,0,0
32.173512,1.378906,2.738281,0.003906,0.000000,0.000000,-0.005999,-0.007264,-0.002747,0.996778,-0.002441,0.000732,-0.000244,0,0,0,0
32.183281,1.378906,2.738281,0.003906,0.000000,0.000000,-0.006071,-0.007264,-0.002747,0.996778,-0.002930,0.001709,-0.002441,0,0,0,0
32.193043,1.378906,2.738281,0.003906,0.000000,0.000000,-0.006168,-0.007264,-0.002747,0.996778,-0.000732,0.002197,0.000244,0,0,0,0
32.202808,1.378906,2.738281,0.003906,0.000000,0.000000,-0.002842,-0.007264,-0.002747,0.996778,-0.000732,0.000732,0.000244,0,0,0,0
32.212578,1.378906,2.738281,0.003906,0.000000,0.000000,-0.003002,-0.007264,-0.002747,0.996778,0.000244,0.001221,0.000244,0,0,0,0
32.222340,1.378906,2.738281,0.003906,0.000000,0.000000,-0.002991,-0.007264,-0.002686,0.996778,-0.001953,0.000244,-0.000244,0,0,0,0
32.232109,1.378906,2.738281,0.003906,0.000000,0.000000,-0.003130,-0.007264,-0.002686,0.996778,-0.002930,0.001709,-0.000244,0,0,0,0
32.241871,1.378906,2.738281,0.007812,0.000000,0.000000,-0.000820,-0.007264,-0.002686,0.996778,-0.001953,0.001709,0.000732,0,0,0,0
32.251640,1.378906,2.738281,0.007812,0.000000,0.000000,-0.000820,-0.007264,-0.002686,0.996778,0.000244,0.000244,0.000732,0,0,0,0
32.261398,1.378906,2.738281,0.007812,0.000000,0.000000,-0.001289,-0.007264,-0.002686,0.996778,0.000244,-0.002686,-0.001465,0,0,0,0
32.271164,1.386719,2.738281,0.003906,-0.009998,-0.009998,-0.010626,-0.007203,-0.002747,0.996778,-0.000244,0.000244,0.001709,0,0,0,0
32.280933,1.386719,2.738281,0.003906,-0.009998,-0.009998,-0.011097,-0.007203,-0.002747,0.996778,0.000732,-0.001221,0.001709,0,0,0,0
32.290699,1.386719,2.738281,0.003906,-0.009998,-0.009998,-0.011425,-0.007203,-0.002747,0.996778,-0.000244,-0.000244,0.001709,0,0,0,0
32.300465,1.378906,2.738281,0.003906,-0.009998,0.000000,-0.007151,-0.007203,-0.002747,0.996778,-0.001953,-0.001221,-0.000244,0,0,0,0
32.310226,1.378906,2.738281,0.003906,-0.009998,0.000000,-0.007366,-0.007203,-0.002747,0.996778,-0.003418,-0.000244,0.000732,0,0,0,0
32.320000,1.378906,2.738281,0.003906,-0.009998,0.000000,-0.007780,-0.007203,-0.002747,0.996778,-0.001465,-0.001221,-0.001953,0,0,0,0
32.329762,1.378906,2.738281,0.003906,-0.009998,0.000000,-0.007940,-0.007203,-0.002747,0.996778,0.000244,-0.001709,0.001709,0,0,0,0
32.339523,1.386719,2.738281,0.003906,0.000000,0.000000,-0.016062,-0.007203,-0.002747,0.996778,-0.001953,-0.001221,0.002441,0,0,0,0
32.349293,1.386719,2.738281,0.003906,0.000000,0.000000,-0.016150,-0.007203,-0.002747,0.996778,-0.001953,-0.001221,-0.000977,0,0,0,0
32.359058,1.386719,2.738281,0.003906,0.000000,0.000000,-0.016415,-0.007203,-0.002747,0.996778,0.001221,0.000732,0.000732,0,0,0,0
32.368828,1.378906,2.738281,0.003906,0.000000,0.000000,-0.010281,-0.007203,-0.002747,0.996778,-0.001465,-0.001709,0.000732,0,0,0,0
32.378590,1.378906,2.738281,0.003906,0.000000,0.000000,-0.010443,-0.007203,-0.002747,0.996778,-0.000732,0.001709,-0.001465,0,0,0,0
32.388355,1.378906,2.738281,0.003906,0.000000,0.000000,-0.010578,-0.007203,-0.002747,0.996778,-0.000732,-0.001221,0.000244,0,0,0,0
32.398125,1.378906,2.738281,0.003906,0.000000,0.000000,-0.010668,-0.007203,-0.002747,0.996778,-0.000732,0.000244,-0.001465,0,0,0,0
32.407890,1.378906,2.738281,0.003906,0.000000,0.000000,-0.006571,-0.007203,-0.002747,0.996778,0.000732,-0.000732,-0.000244,0,0,0,0
32.417656,1.378906,2.738281,0.003906,0.000000,0.000000,-0.006668,-0.007203,-0.002747,0.996778,0.000244,-0.002686,-0.002441,0,0,0,0
32.427441,1.378906,2.738281,0.003906,0.000000,0.000000,-0.006958,-0.007203,-0.002747,0.996778,-0.004150,0.000244,-0.004150,0,0,0,0
32.437183,1.378906,2.738281,0.003906,0.000000,0.000000,-0.003550,-0.007203,-0.002747,0.996778,-0.000244,-0.000732,0.000732,0,0,0,0
32.446953,1.378906,2.738281,0.003906,0.000000,0.000000,-0.003595,-0.007080,-0.002686,0.996582,-0.000732,0.000732,-0.000244,0,0,0,0
32.456711,1.378906,2.738281,0.003906,0.000000,0.000000,-0.003912,-0.007203,-0.002747,0.996778,-0.000732,-0.000244,-0.000244,0,0,0,0
32.466480,1.378906,2.738281,0.007812,0.000000,0.000000,-0.001446,-0.007203,-0.002747,0.996778,-0.000244,0.000244,0.001221,0,0,0,0
32.476246,1.378906,2.738281,0.007812,0.000000,0.000000,-0.001600,-0.007203,-0.002747,0.996778,-0.004150,0.000732,0.000244,0,0,0,0
32.486008,1.378906,2.738281,0.007812,0.000000,0.000000,-0.001745,-0.007203,-0.002747,0.996778,-0.001953,0.000732,-0.001465,0,0,0,0
32.495773,1.378906,2.738281,0.007812,0.000000,0.000000,-0.003019,-0.007203,-0.002747,0.996778,-0.001465,0.000244,0.000732,0,0,0,0
32.505543,1.378906,2.738281,0.007812,0.000000,0.000000,-0.001194,-0.007203,-0.002747,0.996778,0.000732,0.000244,0.000244,0,0,0,0
32.515308,1.378906,2.738281,0.007812,0.000000,0.000000,-0.001623,-0.007203,-0.002747,0.996778,-0.001953,0.001221,-0.001465,0,0,0,0
32.525074,1.378906,2.738281,0.007812,0.000000,0.000000,-0.001837,-0.007203,-0.002747,0.996778,-0.001953,-0.000732,0.001221,0,0,0,0
32.534836,1.378906,2.738281,0.007812,0.000000,0.000000,-0.000210,-0.007203,-0.002747,0.996778,-0.000244,0.000244,0.001221,0,0,0,0
32.544605,1.378906,2.738281,0.007812,0.000000,0.000000,-0.000742,-0.007203,-0.002747,0.996778,-0.001953,0.001221,0.001221,0,0,0,0
32.554371,1.378906,2.738281,0.007812,0.000000,0.000000,-0.000792,-0.007203,-0.002747,0.996778,0.000732,-0.000244,0.001221,0,0,0,0
32.564137,1.378906,2.738281,0.007812,0.000000,0.000000,-0.001200,-0.007203,-0.002747,0.996778,-0.003418,-0.001221,-0.000977,0,0,0,0
32.573898,1.378906,2.738281,0.007812,0.000000,0.000000,-0.000965,-0.007203,-0.002747,0.996778,0.000244,-0.002197,0.001221,0,0,0,0
32.583668,1.378906,2.738281,0.007812,0.000000,0.000000,-0.001135,-0.007203,-0.002747,0.996778,-0.000244,-0.000732,0.001221,0,0,0,0
32.593430,1.378906,2.738281,0.007812,0.000000,0.000000,-0.001398,-0.007203,-0.002747,0.996778,-0.000244,0.000244,-0.001465,0,0,0,0
32.603199,1.378906,2.738281,0.007812,0.000000,0.000000,-0.000792,-0.007203,-0.002747,0.996778,-0.000244,-0.001221,0.000244,0,0,0,0
32.612961,1.378906,2.738281,0.007812,0.000000,0.000000,-0.001026,-0.007203,-0.002747,0.996778,-0.001953,-0.004395,0.001221,0,0,0,0
32.622726,1.378906,2.738281,0.007812,0.000000,0.000000,-0.000957,-0.007203,-0.002747,0.996778,-0.000244,0.000244,0.000244,0,0,0,0
32.632496,1.386719,2.738281,0.003906,0.000000,0.000000,-0.011230,-0.007203,-0.002747,0.996778,0.000732,-0.002197,0.001221,0,0,0,0
32.642258,1.386719,2.738281,0.003906,0.000000,0.000000,-0.011280,-0.007203,-0.002747,0.996778,-0.000244,-0.001709,-0.000977,0,0,0,0
32.652031,1.386719,2.738281,0.003906,0.000000,0.000000,-0.012295,-0.007203,-0.002747,0.996778,-0.000244,-0.000732,0.000244,0,0,0,0
32.661789,1.386719,2.738281,0.003906,0.000000,0.000000,-0.012156,-0.007203,-0.002747,0.996778,0.001709,-0.001221,-0.000977,0,0,0,0
32.671558,1.378906,2.738281,0.003906,0.000000,0.000000,-0.008348,-0.007203,-0.002747,0.996778,0.000244,-0.000732,0.001221,0,0,0,0
32.681328,1.378906,2.738281,0.003906,0.000000,0.000000,-0.008202,-0.007203,-0.002747,0.996778,0.001221,-0.001221,0.000244,0,0,0,0
32.691086,1.378906,2.738281,0.003906,0.000000,0.000000,-0.008322,-0.007142,-0.002747,0.996778,0.001221,-0.000732,0.000244,0,0,0,0
32.700851,1.378906,2.738281,0.007812,0.000000,0.000000,-0.005247,-0.007142,-0.002747,0.996778,-0.001465,0.000732,0.000244,0,0,0,0
32.710621,1.378906,2.738281,0.007812,0.000000,0.000000,-0.004976,-0.007142,-0.002747,0.996778,0.000244,0.002197,0.000732,0,0,0,0
32.720387,1.378906,2.738281,0.007812,0.000000,0.000000,-0.005281,-0.007142,-0.002747,0.996778,-0.002441,-0.001709,0.001709,0,0,0,0
32.730148,1.378906,2.738281,0.007812,0.000000,0.000000,-0.005144,-0.007142,-0.002747,0.996778,-0.000732,-0.000732,-0.000244,0,0,0,0
32.739918,1.378906,2.738281,0.007812,0.000000,0.000000,-0.003227,-0.007142,-0.002747,0.996778,0.001221,0.000244,0.000244,0,0,0,0
32.749687,1.378906,2.738281,0.007812,0.000000,0.000000,-0.003719,-0.007080,-0.002686,0.996582,-0.001465,-0.002197,-0.000977,0,0,0,0
32.759449,1.378906,2.738281,0.007812,0.000000,0.000000,-0.004160,-0.007142,-0.002747,0.996778,0.000732,0.000732,0.000244,0,0,0,0
32.769215,1.378906,2.738281,0.007812,0.000000,0.000000,-0.002472,-0.007142,-0.002747,0.996778,0.001221,0.002930,0.000732,0,0,0,0
32.778980,1.378906,2.738281,0.007812,0.000000,0.000000,-0.002497,-0.007142,-0.002747,0.996778,0.001709,0.003418,0.000244,0,0,0,0
32.788746,1.378906,2.738281,0.007812,0.000000,0.000000,-0.002914,-0.007081,-0.002686,0.996862,0.000244,-0.001709,0.002441,0,0,0,0
32.798515,1.378906,2.738281,0.007812,0.000000,0.000000,-0.003250,-0.007081,-0.002686,0.996862,0.000732,0.001709,-0.001465,0,0,0,0
32.808281,1.378906,2.738281,0.007812,0.000000,0.000000,-0.002937,-0.007081,-0.002686,0.996862,0.000732,0.000244,0.002441,0,0,0,0
32.818047,1.378906,2.738281,0.007812,0.000000,0.000000,-0.003101,-0.007081,-0.002686,0.996862,0.001709,0.000732,0.000732,0,0,0,0
32.827808,1.378906,2.738281,0.007812,0.000000,0.000000,-0.003136,-0.007081,-0.002686,0.996862,0.000732,0.001709,-0.000244,0,0,0,0
32.837574,1.378906,2.738281,0.007812,0.000000,0.000000,-0.001867,-0.007081,-0.002686,0.996862,-0.003418,-0.002686,-0.001953,0,0,0,0
32.847336,1.378906,2.738281,0.007812,0.000000,0.000000,-0.001984,-0.007081,-0.002686,0.996862,-0.001953,-0.000244,0.000732,0,0,0,0
32.857101,1.378906,2.738281,0.007812,0.000000,0.000000,-0.002039,-0.007081,-0.002686,0.996862,0.001221,-0.001221,-0.000244,0,0,0,0
32.866871,1.378906,2.738281,0.007812,0.000000,0.000000,-0.001385,-0.007081,-0.002686,0.996862,0.001709,0.000732,-0.001465,0,0,0,0
32.876637,1.378906,2.738281,0.007812,0.000000,0.000000,-0.001947,-0.007081,-0.002686,0.996862,0.000732,-0.000732,-0.001465,0,0,0,0
32.886402,1.378906,2.738281,0.007812,0.000000,0.000000,-0.001730,-0.007081,-0.002686,0.996862,-0.000732,-0.000244,0.001709,0,0,0,0
32.896168,1.378906,2.738281,0.007812,0.000000,0.000000,-0.002058,-0.007081,-0.002686,0.996862,-0.001465,-0.000244,0.001221,0,0,0,0
32.905933,1.378906,2.738281,0.007812,0.000000,0.000000,-0.001432,-0.007081,-0.002686,0.996862,-0.000244,0.001221,0.001709,0,0,0,0
32.915703,1.378906,2.738281,0.007812,0.000000,0.000000,-0.001478,-0.007081,-0.002686,0.996862,-0.000732,0.001221,0.000244,0,0,0,0
32.925465,1.378906,2.738281,0.007812,0.000000,0.000000,-0.001740,-0.007081,-0.002686,0.996862,-0.000244,-0.001709,0.000732,0,0,0,0
32.935230,1.378906,2.738281,0.007812,0.000000,0.000000,-0.001263,-0.007081,-0.002686,0.996862,-0.001465,0.001221,0.000244,0,0,0,0
32.944996,1.378906,2.738281,0.007812,0.000000,0.000000,-0.001566,-0.007081,-0.002686,0.996862,0.000732,0.000244,-0.000244,0,0,0,0
32.954762,1.378906,2.738281,0.007812,0.000000,0.000000,-0.001961,-0.007081,-0.002686,0.996862,-0.000732,-0.000244,-0.000244,0,0,0,0
32.964527,1.378906,2.738281,0.007812,0.000000,0.000000,-0.001577,-0.007081,-0.002686,0.996862,0.002441,-0.000244,0.000244,0,0,0,0
32.974293,1.386719,2.738281,0.003906,-0.009998,-0.009998,-0.013086,-0.007081,-0.002686,0.996862,0.001709,0.000732,0.000244,0,0,0,0
32.984058,1.386719,2.738281,0.003906,-0.009998,-0.009998,-0.013464,-0.007081,-0.002686,0.996862,0.000732,-0.000732,0.001221,0,0,0,0
32.993820,1.386719,2.738281,0.003906,-0.009998,-0.009998,-0.013693,-0.007081,-0.002686,0.996862,-0.000244,-0.000732,0.000244,0,0,0,0
33.003586,1.378906,2.738281,0.003906,-0.009998,0.000000,-0.010231,-0.007081,-0.002686,0.996862,-0.001465,-0.000244,-0.002441,0,0,0,0
33.013351,1.378906,2.738281,0.003906,-0.009998,0.000000,-0.010082,-0.007081,-0.002686,0.996862,0.000244,0.000732,0.000244,0,0,0,0
33.023117,1.378906,2.738281,0.003906,-0.009998,0.000000,-0.010532,-0.007081,-0.002686,0.996862,-0.000244,0.000244,-0.000977,0,0,0,0
33.032887,1.378906,2.738281,0.007812,0.000000,0.000000,-0.007744,-0.007081,-0.002686,0.996862,0.000732,-0.001221,0.001221,0,0,0,0
33.042648,1.378906,2.738281,0.007812,0.000000,0.000000,-0.007292,-0.007081,-0.002686,0.996862,0.000244,-0.002197,-0.000244,0,0,0,0
33.052429,1.378906,2.738281,0.007812,0.000000,0.000000,-0.007544,-0.006836,-0.002686,0.996582,0.002441,0.000732,0.001709,0,0,0,0
33.062180,1.378906,2.738281,0.007812,0.000000,0.000000,-0.007753,-0.007020,-0.002747,0.996862,-0.002930,-0.000244,-0.000977,0,0,0,0
33.071945,1.378906,2.738281,0.007812,0.000000,0.000000,-0.006041,-0.007020,-0.002747,0.996862,0.000244,0.001221,-0.000977,0,0,0,0
33.081715,1.378906,2.738281,0.007812,0.000000,0.000000,-0.006353,-0.007020,-0.002747,0.996862,0.001221,0.003418,-0.000977,0,0,0,0
33.091476,1.378906,2.738281,0.007812,0.000000,0.000000,-0.006079,-0.007020,-0.002747,0.996862,-0.001953,-0.002686,-0.000977,0,0,0,0
33.101246,1.378906,2.738281,0.007812,0.000000,0.000000,-0.004675,-0.007020,-0.002747,0.996862,0.001709,0.000244,-0.001953,0,0,0,0
33.111012,1.378906,2.738281,0.007812,0.000000,0.000000,-0.004976,-0.007020,-0.002747,0.996862,0.001221,0.000244,0.001221,0,0,0,0
33.120777,1.378906,2.738281,0.007812,0.000000,0.000000,-0.005672,-0.007020,-0.002747,0.996862,0.000732,-0.002197,-0.000244,0,0,0,0
33.130543,1.378906,2.738281,0.007812,0.000000,0.000000,-0.005693,-0.007020,-0.002747,0.996862,0.000732,-0.001221,0.000244,0,0,0,0
33.140305,1.378906,2.738281,0.007812,0.000000,0.000000,-0.004438,-0.007020,-0.002747,0.996862,-0.002441,-0.000244,0.000244,0,0,0,0
33.150070,1.378906,2.738281,0.007812,0.000000,0.000000,-0.004841,-0.007020,-0.002747,0.996862,0.002930,0.001709,0.000244,0,0,0,0
33.159840,1.378906,2.738281,0.007812,0.000000,0.000000,-0.004900,-0.007020,-0.002686,0.996862,-0.001953,-0.000244,0.001709,0,0,0,0
33.169605,1.386719,2.738281,0.003906,0.000000,0.000000,-0.015247,-0.007020,-0.002686,0.996862,-0.000244,-0.000732,-0.000977,0,0,0,0
33.179371,1.386719,2.738281,0.003906,0.000000,0.000000,-0.015444,-0.007020,-0.002686,0.996862,-0.000244,-0.002686,0.000732,0,0,0,0
33.189137,1.386719,2.738281,0.003906,0.000000,0.000000,-0.015493,-0.007020,-0.002686,0.996862,0.001221,0.001221,-0.000244,0,0,0,0
33.198906,1.378906,2.738281,0.003906,0.000000,0.000000,-0.015886,-0.007020,-0.002686,0.996862,0.000732,-0.000244,-0.000244,0,0,0,0
33.208672,1.378906,2.738281,0.003906,0.000000,0.000000,-0.012426,-0.007020,-0.002686,0.996862,0.001709,-0.000244,-0.002441,0,0,0,0
33.218433,1.378906,2.738281,0.003906,0.000000,0.000000,-0.012589,-0.007020,-0.002686,0.996862,-0.000244,-0.003418,0.002441,0,0,0,0
33.228199,1.378906,2.738281,0.003906,0.000000,0.000000,-0.012535,-0.007020,-0.002686,0.996862,-0.000732,-0.002197,0.000244,0,0,0,0
33.237965,1.378906,2.738281,0.007812,0.000000,0.000000,-0.009171,-0.007020,-0.002686,0.996862,0.001221,0.001221,-0.001953,0,0,0,0
33.247730,1.378906,2.738281,0.003906,0.000000,0.000000,-0.009363,-0.007020,-0.002686,0.996862,-0.000732,-0.000244,-0.000244,0,0,0,0
33.257496,1.378906,2.738281,0.003906,0.000000,0.000000,-0.009319,-0.007020,-0.002686,0.996862,-0.000244,-0.001709,0.000244,0,0,0,0
33.267258,1.378906,2.738281,0.007812,0.000000,0.000000,-0.007236,-0.007020,-0.002686,0.996862,-0.000732,0.000244,-0.000977,0,0,0,0
33.277023,1.378906,2.738281,0.007812,0.000000,0.000000,-0.007837,-0.007020,-0.002686,0.996862,-0.001953,-0.000732,0.001709,0,0,0,0
33.286793,1.378906,2.738281,0.007812,0.000000,0.000000,-0.007931,-0.007020,-0.002686,0.996862,0.002930,0.000732,0.001221,0,0,0,0
33.296555,1.378906,2.738281,0.007812,0.000000,0.000000,-0.008022,-0.006959,-0.002686,0.996862,0.000732,-0.000244,0.001221,0,0,0,0
33.306324,1.378906,2.738281,0.007812,0.000000,0.000000,-0.005774,-0.006959,-0.002686,0.996862,-0.002930,0.000732,0.000732,0,0,0,0
33.316090,1.378906,2.738281,0.007812,0.000000,0.000000,-0.005987,-0.006959,-0.002686,0.996862,-0.001465,-0.000244,0.000732,0,0,0,0
33.325851,1.378906,2.738281,0.007812,0.000000,0.000000,-0.005939,-0.006959,-0.002686,0.996862,0.000732,-0.002686,-0.000977,0,0,0,0
33.335617,1.378906,2.738281,0.007812,0.000000,0.000000,-0.004292,-0.006959,-0.002686,0.996862,0.000244,-0.000732,0.000732,0,0,0,0
33.345383,1.378906,2.738281,0.007812,0.000000,0.000000,-0.004461,-0.006959,-0.002686,0.996862,-0.001953,0.000244,-0.001465,0,0,0,0
33.355148,1.378906,2.738281,0.007812,0.000000,0.000000,-0.005138,-0.006959,-0.002686,0.996862,-0.001953,-0.000244,0.000244,0,0,0,0
33.364922,1.386719,2.738281,0.007812,0.000000,-0.009998,-0.004919,-0.006959,-0.002686,0.996862,0.002441,0.000732,-0.000244,0,0,0,0
33.374683,1.386719,2.738281,0.003906,0.000000,-0.009998,-0.014681,-0.006959,-0.002686,0.996862,-0.000732,0.001221,0.000244,0,0,0,0
33.384449,1.386719,2.738281,0.003906,0.000000,-0.009998,-0.014982,-0.006959,-0.002686,0.996862,-0.000244,-0.000244,-0.001953,0,0,0,0
33.394215,1.386719,2.738281,0.003906,0.000000,-0.009998,-0.015072,-0.006959,-0.002686,0.996862,-0.003418,-0.001221,-0.000244,0,0,0,0
33.403980,1.378906,2.738281,0.003906,-0.009998,0.000000,-0.010536,-0.006959,-0.002686,0.996829,-0.000732,0.002197,0.000244,0,0,0,0
33.413746,1.378906,2.738281,0.003906,-0.009998,0.000000,-0.010796,-0.006959,-0.002686,0.996829,-0.000732,0.000732,0.000244,0,0,0,0
33.423515,1.378906,2.738281,0.003906,-0.009998,0.000000,-0.010822,-0.006836,-0.002686,0.996582,-0.003418,-0.000732,0.000244,0,0,0,0
33.433277,1.378906,2.738281,0.003906,0.000000,0.000000,-0.007881,-0.006959,-0.002686,0.996829,0.000244,-0.002197,-0.000977,0,0,0,0
33.443043,1.378906,2.738281,0.003906,0.000000,0.000000,-0.008196,-0.006959,-0.002686,0.996829,0.000732,-0.000732,0.000732,0,0,0,0
33.452812,1.378906,2.738281,0.003906,0.000000,0.000000,-0.008499,-0.006959,-0.002686,0.996829,-0.001465,-0.000732,-0.001953,0,0,0,0
33.462570,1.378906,2.738281,0.003906,0.000000,0.000000,-0.008718,-0.006959,-0.002686,0.996829,0.000244,0.000244,0.000732,0,0,0,0
33.472336,1.378906,2.738281,0.007812,0.000000,0.000000,-0.006203,-0.006959,-0.002686,0.996829,-0.001953,-0.001709,0.001221,0,0,0,0
33.482105,1.378906,2.738281,0.007812,0.000000,0.000000,-0.006260,-0.006959,-0.002686,0.996829,-0.002930,-0.001221,0.000244,0,0,0,0
33.491871,1.378906,2.738281,0.007812,0.000000,0.000000,-0.006172,-0.006959,-0.002686,0.996829,-0.000732,0.000732,-0.000977,0,0,0,0
33.501637,1.378906,2.738281,0.007812,0.000000,0.000000,-0.004356,-0.006959,-0.002686,0.996829,0.000244,-0.002197,-0.000244,0,0,0,0
33.511398,1.378906,2.738281,0.007812,0.000000,0.000000,-0.004425,-0.006959,-0.002686,0.996829,-0.000244,-0.002197,0.001221,0,0,0,0
33.521164,1.378906,2.738281,0.007812,0.000000,0.000000,-0.004856,-0.006959,-0.002686,0.996829,-0.001953,-0.000732,0.000244,0,0,0,0
33.530930,1.378906,2.738281,0.007812,0.000000,0.000000,-0.004772,-0.006959,-0.002686,0.996829,-0.001465,0.000244,0.001709,0,0,0,0
33.540695,1.378906,2.738281,0.007812,0.000000,0.000000,-0.003452,-0.006959,-0.002686,0.996829,-0.002441,0.001221,-0.000977,0,0,0,0
33.550465,1.378906,2.738281,0.007812,0.000000,0.000000,-0.003309,-0.006959,-0.002686,0.996829,-0.002441,0.000244,-0.000977,0,0,0,0
33.560238,1.378906,2.738281,0.007812,0.000000,0.000000,-0.003786,-0.006959,-0.002686,0.996829,0.001709,-0.002197,0.001709,0,0,0,0
33.569992,1.378906,2.738281,0.007812,0.000000,0.000000,-0.002771,-0.006959,-0.002686,0.996829,-0.002930,-0.000244,-0.000244,0,0,0,0
33.579762,1.378906,2.738281,0.007812,0.000000,0.000000,-0.002869,-0.006959,-0.002686,0.996829,0.001221,-0.002197,0.000244,0,0,0,0
33.589523,1.378906,2.738281,0.007812,0.000000,0.000000,-0.002239,-0.006959,-0.002686,0.996829,0.001221,0.001221,-0.001953,0,0,0,0
33.599293,1.386719,2.738281,0.003906,0.000000,0.000000,-0.012831,-0.006959,-0.002686,0.996829,-0.002441,-0.001221,-0.000244,0,0,0,0
33.609058,1.386719,2.738281,0.003906,0.000000,0.000000,-0.013042,-0.006959,-0.002686,0.996829,-0.000244,-0.000244,0.000732,0,0,0,0
33.618824,1.386719,2.738281,0.003906,0.000000,0.000000,-0.012852,-0.006959,-0.002686,0.996829,0.000732,-0.000732,0.001221,0,0,0,0
33.628590,1.386719,2.738281,0.003906,0.000000,0.000000,-0.013006,-0.006959,-0.002686,0.996829,-0.000244,-0.001221,-0.001465,0,0,0,0
33.638355,1.386719,2.738281,0.003906,0.000000,0.000000,-0.020615,-0.006959,-0.002686,0.996829,-0.000732,0.000244,-0.001465,0,0,0,0
33.648121,1.386719,2.738281,0.003906,0.000000,0.000000,-0.020945,-0.006959,-0.002686,0.996829,-0.000732,-0.001221,-0.000977,0,0,0,0
33.657887,1.386719,2.738281,0.003906,0.000000,0.000000,-0.021011,-0.006959,-0.002686,0.996829,-0.000244,0.000732,0.002441,0,0,0,0
33.667656,1.378906,2.738281,0.003906,0.000000,0.000000,-0.014669,-0.006959,-0.002686,0.996829,-0.000244,-0.001221,-0.000977,0,0,0,0
33.677441,1.378906,2.738281,0.003906,0.000000,0.000000,-0.014875,-0.006959,-0.002686,0.996829,-0.002441,-0.001709,-0.000977,0,0,0,0
33.687202,1.378906,2.738281,0.003906,0.000000,0.000000,-0.015223,-0.006898,-0.002747,0.996829,-0.000244,-0.000244,-0.000977,0,0,0,0
33.696964,1.378906,2.738281,0.003906,0.000000,0.000000,-0.015011,-0.006898,-0.002747,0.996829,-0.001953,0.000732,-0.000977,0,0,0,0
33.706734,1.378906,2.738281,0.003906,0.000000,0.000000,-0.010679,-0.006898,-0.002747,0.996829,0.000244,0.001221,0.001221,0,0,0,0
33.716480,1.378906,2.738281,0.003906,0.000000,0.000000,-0.010889,-0.006898,-0.002747,0.996829,-0.000244,-0.000732,-0.000244,0,0,0,0
33.726246,1.378906,2.738281,0.003906,0.000000,0.000000,-0.011202,-0.006898,-0.002747,0.996829,-0.002930,0.000732,-0.000977,0,0,0,0
33.736012,1.378906,2.738281,0.003906,0.000000,0.000000,-0.007500,-0.006898,-0.002747,0.996829,-0.003418,-0.001221,0.000732,0,0,0,0
33.745773,1.378906,2.738281,0.003906,0.000000,0.000000,-0.007130,-0.006898,-0.002747,0.996829,0.000732,-0.000732,0.003418,0,0,0,0
33.755539,1.378906,2.738281,0.003906,0.000000,0.000000,-0.007236,-0.006898,-0.002747,0.996829,-0.000732,0.001221,-0.001465,0,0,0,0
33.765312,1.378906,2.738281,0.003906,0.000000,0.000000,-0.007860,-0.006898,-0.002747,0.996829,0.000244,-0.000244,-0.000977,0,0,0,0
33.775070,1.378906,2.738281,0.007812,0.000000,0.000000,-0.005089,-0.006837,-0.002686,0.996829,-0.002930,0.000732,-0.000244,0,0,0,0
33.784836,1.378906,2.738281,0.007812,0.000000,0.000000,-0.005232,-0.006837,-0.002686,0.996829,-0.002441,0.000732,0.001709,0,0,0,0
33.794609,1.378906,2.738281,0.007812,0.000000,0.000000,-0.005516,-0.006592,-0.002686,0.996582,0.000732,-0.004395,0.001221,0,0,0,0
33.804367,1.378906,2.738281,0.007812,0.000000,0.000000,-0.003553,-0.006837,-0.002686,0.996829,-0.001953,-0.001221,0.000732,0,0,0,0
33.814133,1.378906,2.738281,0.007812,0.000000,0.000000,-0.003719,-0.006837,-0.002686,0.996829,-0.001465,0.000732,0.002441,0,0,0,0
33.823898,1.378906,2.738281,0.007812,0.000000,0.000000,-0.003517,-0.006837,-0.002686,0.996829,-0.000732,0.000732,0.000732,0,0,0,0
33.833668,1.378906,2.738281,0.007812,0.000000,0.000000,-0.002052,-0.006837,-0.002686,0.996829,-0.001953,-0.001221,-0.000977,0,0,0,0
33.843430,1.378906,2.738281,0.007812,0.000000,0.000000,-0.002234,-0.006837,-0.002686,0.996829,-0.001465,-0.000244,-0.000244,0,0,0,0
33.853203,1.378906,2.738281,0.007812,0.000000,0.000000,-0.002468,-0.006837,-0.002686,0.996829,-0.003418,0.001221,-0.001953,0,0,0,0
33.862965,1.378906,2.738281,0.007812,0.000000,0.000000,-0.002621,-0.006837,-0.002686,0.996829,-0.003418,-0.001221,0.000732,0,0,0,0
33.872730,1.378906,2.738281,0.007812,0.000000,0.000000,-0.001501,-0.006837,-0.002686,0.996829,-0.001953,-0.002197,-0.000977,0,0,0,0
33.882496,1.378906,2.738281,0.007812,0.000000,0.000000,-0.001406,-0.006837,-0.002686,0.996829,-0.002441,0.000244,-0.000244,0,0,0,0
33.892262,1.378906,2.738281,0.007812,0.000000,0.000000,-0.001204,-0.006837,-0.002686,0.996829,-0.001465,-0.000244,0.000732,0,0,0,0
33.902027,1.378906,2.738281,0.007812,0.000000,0.000000,0.001434,-0.006837,-0.002686,0.996829,-0.000244,-0.000244,0.001709,0,0,0,0
33.911793,1.378906,2.738281,0.007812,0.000000,0.000000,0.000977,-0.006837,-0.002686,0.996862,-0.002930,-0.001221,0.000244,0,0,0,0
33.921558,1.378906,2.738281,0.007812,0.000000,0.000000,0.001322,-0.006837,-0.002686,0.996862,-0.004150,0.000732,-0.000244,0,0,0,0
33.931328,1.378906,2.738281,0.007812,0.000000,0.000000,0.001219,-0.006837,-0.002686,0.996862,-0.000732,0.003418,0.000732,0,0,0,0
33.941093,1.378906,2.738281,0.007812,0.000000,0.000000,0.001404,-0.006837,-0.002686,0.996862,-0.002441,-0.001221,0.000732,0,0,0,0
33.950855,1.378906,2.738281,0.007812,0.000000,0.000000,0.001385,-0.006837,-0.002686,0.996862,0.000244,-0.002686,-0.000977,0,0,0,0
33.960617,1.378906,2.738281,0.007812,0.000000,0.000000,0.001343,-0.006837,-0.002686,0.996862,0.000244,-0.001709,-0.000977,0,0,0,0
33.970383,1.378906,2.738281,0.007812,0.000000,0.000000,0.001371,-0.006837,-0.002686,0.996862,-0.000732,-0.001221,-0.002930,0,0,0,0
33.980148,1.378906,2.738281,0.007812,0.000000,0.000000,0.003155,-0.006837,-0.002686,0.996862,-0.003418,-0.000244,0.000244,0,0,0,0
33.989914,1.378906,2.738281,0.007812,0.000000,0.000000,0.003166,-0.006837,-0.002686,0.996862,-0.001953,-0.001709,-0.000244,0,0,0,0
33.999680,1.378906,2.738281,0.007812,0.000000,0.000000,0.002834,-0.006837,-0.002686,0.996862,-0.000244,-0.001221,-0.000244,0,0,0,0
34.009464,1.378906,2.738281,0.007812,0.000000,0.000000,0.002626,-0.006837,-0.002686,0.996862,-0.000244,-0.003418,0.000244,0,0,0,0
34.019215,1.378906,2.738281,0.007812,0.000000,0.000000,0.002535,-0.006837,-0.002686,0.996862,-0.004150,-0.001221,-0.001465,0,0,0,0
34.028988,1.378906,2.738281,0.007812,0.000000,0.000000,0.002146,-0.006592,-0.002686,0.996582,-0.001953,0.000244,0.000244,0,0,0,0
34.038742,1.386719,2.738281,0.003906,-0.009998,-0.009998,-0.009878,-0.006837,-0.002686,0.996862,-0.001465,-0.002197,0.002441,0,0,0,0
34.048515,1.386719,2.738281,0.003906,-0.009998,-0.009998,-0.010204,-0.006837,-0.002686,0.996862,-0.001953,0.000732,-0.000977,0,0,0,0
34.058277,1.386719,2.738281,0.007812,-0.009998,-0.009998,-0.008476,-0.006837,-0.002686,0.996862,-0.001953,0.000244,-0.000977,0,0,0,0
34.068047,1.378906,2.738281,0.007812,-0.009998,0.000000,-0.006718,-0.006837,-0.002686,0.996862,-0.001465,-0.002197,0.000732,0,0,0,0
34.077808,1.378906,2.738281,0.007812,-0.009998,0.000000,-0.006580,-0.006837,-0.002686,0.996862,-0.000732,0.000732,-0.004639,0,0,0,0
34.087574,1.378906,2.738281,0.007812,-0.009998,0.000000,-0.006403,-0.006837,-0.002686,0.996862,-0.004150,0.002930,-0.001465,0,0,0,0
34.097336,1.378906,2.738281,0.007812,-0.009998,0.000000,-0.006493,-0.006837,-0.002686,0.996862,-0.002441,-0.000244,0.000732,0,0,0,0
34.107101,1.386719,2.738281,0.003906,-0.009998,-0.009998,-0.015947,-0.006837,-0.002686,0.996862,0.000244,-0.002686,-0.001465,0,0,0,0
34.116867,1.386719,2.738281,0.003906,-0.009998,-0.009998,-0.015890,-0.006837,-0.002686,0.996862,-0.002930,-0.000732,0.000244,0,0,0,0
34.126633,1.386719,2.738281,0.003906,-0.009998,-0.009998,-0.015923,-0.006837,-0.002686,0.996862,0.000732,-0.001221,-0.001953,0,0,0,0
34.136398,1.378906,2.738281,0.003906,0.000000,0.000000,-0.010069,-0.006837,-0.002686,0.996862,-0.001953,-0.001709,0.002930,0,0,0,0
34.146164,1.378906,2.738281,0.003906,0.000000,0.000000,-0.010225,-0.006776,-0.002686,0.996862,-0.001953,-0.002686,-0.000244,0,0,0,0
34.155933,1.378906,2.738281,0.003906,0.000000,0.000000,-0.010151,-0.006776,-0.002686,0.996862,-0.001953,-0.000244,-0.001465,0,0,0,0
34.165695,1.378906,2.738281,0.007812,0.000000,0.000000,-0.007034,-0.006776,-0.002686,0.996862,-0.006592,-0.001221,-0.001953,0,0,0,0
34.175461,1.378906,2.738281,0.007812,0.000000,0.000000,-0.007130,-0.006776,-0.002686,0.996862,-0.002930,0.000244,-0.000244,0,0,0,0
34.185226,1.378906,2.738281,0.003906,0.000000,0.000000,-0.007565,-0.006776,-0.002686,0.996862,-0.001953,-0.000244,-0.000977,0,0,0,0
34.194992,1.378906,2.738281,0.003906,0.000000,0.000000,-0.007978,-0.006776,-0.002686,0.996862,-0.001465,-0.001221,0.000244,0,0,0,0
34.204758,1.386719,2.738281,0.003906,0.000000,0.000000,-0.016859,-0.006776,-0.002686,0.996862,0.000732,0.001709,0.000244,0,0,0,0
34.214523,1.386719,2.738281,0.003906,0.000000,0.000000,-0.014956,-0.006776,-0.002686,0.996862,-0.001953,-0.001221,0.001221,0,0,0,0
34.224289,1.386719,2.738281,0.003906,0.000000,0.000000,-0.015160,-0.006776,-0.002686,0.996862,0.000244,-0.000732,-0.000244,0,0,0,0
34.234055,1.378906,2.738281,0.003906,0.000000,0.000000,-0.010324,-0.006776,-0.002686,0.996862,-0.000732,-0.000732,-0.000244,0,0,0,0
34.243824,1.378906,2.738281,0.003906,0.000000,0.000000,-0.010633,-0.006776,-0.002686,0.996862,-0.000732,-0.002197,0.001709,0,0,0,0
34.253586,1.378906,2.738281,0.003906,0.000000,0.000000,-0.010698,-0.006776,-0.002686,0.996862,-0.002441,-0.000244,0.000244,0,0,0,0
34.263351,1.378906,2.738281,0.003906,0.000000,0.000000,-0.010925,-0.006776,-0.002686,0.996862,-0.001465,0.001709,0.001709,0,0,0,0
34.273117,1.378906,2.738281,0.003906,0.000000,0.000000,-0.007450,-0.006776,-0.002686,0.996862,-0.001953,0.002197,-0.000244,0,0,0,0
34.282883,1.378906,2.738281,0.003906,0.000000,0.000000,-0.007626,-0.006776,-0.002625,0.996862,-0.000732,-0.001709,0.000244,0,0,0,0
34.292648,1.378906,2.738281,0.007812,0.000000,0.000000,-0.006313,-0.006776,-0.002625,0.996862,-0.001953,0.000732,-0.000244,0,0,0,0
34.302414,1.386719,2.738281,0.003906,0.000000,0.000000,-0.015102,-0.006776,-0.002625,0.996862,0.000244,-0.000244,-0.000244,0,0,0,0
34.312180,1.386719,2.738281,0.003906,0.000000,0.000000,-0.015394,-0.006776,-0.002625,0.996862,-0.001465,-0.001709,0.000244,0,0,0,0
34.321945,1.386719,2.738281,0.003906,0.000000,0.000000,-0.015594,-0.006776,-0.002625,0.996862,-0.000244,0.001221,-0.002441,0,0,0,0
34.331718,1.378906,2.738281,0.003906,-0.009998,0.000000,-0.015823,-0.006776,-0.002625,0.996862,0.001221,-0.000244,0.001221,0,0,0,0
34.341476,1.378906,2.738281,0.003906,-0.009998,0.000000,-0.011158,-0.006776,-0.002625,0.996862,-0.002441,-0.002197,0.000244,0,0,0,0
34.351242,1.378906,2.738281,0.003906,-0.009998,0.000000,-0.011045,-0.006715,-0.002686,0.996862,-0.001465,-0.000244,0.000244,0,0,0,0
34.361008,1.378906,2.738281,0.003906,-0.009998,0.000000,-0.011345,-0.006715,-0.002686,0.996862,0.001221,-0.000244,0.002441,0,0,0,0
34.370773,1.386719,2.738281,0.003906,0.000000,0.000000,-0.017992,-0.006715,-0.002686,0.996862,-0.000732,0.000732,-0.000244,0,0,0,0
34.380543,1.386719,2.738281,0.003906,0.000000,0.000000,-0.018217,-0.006715,-0.002686,0.996862,-0.000244,0.000244,0.000244,0,0,0,0
34.390308,1.386719,2.738281,0.003906,0.000000,0.000000,-0.018347,-0.006715,-0.002686,0.996862,-0.001465,-0.000244,0.002441,0,0,0,0
34.400078,1.378906,2.738281,0.003906,0.000000,0.000000,-0.012604,-0.006592,-0.002686,0.996582,-0.000244,-0.000732,0.002930,0,0,0,0
34.409843,1.378906,2.738281,0.003906,0.000000,0.000000,-0.012508,-0.006592,-0.002686,0.996826,0.000244,0.000244,-0.000244,0,0,0,0
34.419605,1.378906,2.738281,0.003906,0.000000,0.000000,-0.012508,-0.006592,-0.002686,0.996826,0.001221,-0.000732,0.000244,0,0,0,0
34.429371,1.378906,2.738281,0.003906,0.000000,0.000000,-0.012421,-0.006592,-0.002686,0.996826,0.001709,0.000732,0.001221,0,0,0,0
34.439137,1.378906,2.738281,0.003906,0.000000,0.000000,-0.008108,-0.006592,-0.002686,0.996826,0.001221,-0.000244,0.000244,0,0,0,0
34.448906,1.378906,2.738281,0.003906,0.000000,0.000000,-0.006729,-0.006592,-0.002686,0.996826,0.002441,-0.001221,-0.000244,0,0,0,0
34.458668,1.378906,2.738281,0.003906,0.000000,0.000000,-0.006598,-0.006592,-0.002686,0.996826,-0.000732,0.000244,0.000732,0,0,0,0
34.468433,1.386719,2.738281,0.003906,0.000000,0.000000,-0.014782,-0.006592,-0.002686,0.996826,0.000244,0.000244,0.000244,0,0,0,0
34.478199,1.386719,2.738281,0.003906,0.000000,0.000000,-0.015022,-0.006592,-0.002686,0.996826,-0.004150,-0.001221,-0.000977,0,0,0,0
34.487965,1.386719,2.738281,0.003906,0.000000,0.000000,-0.015654,-0.006592,-0.002686,0.996826,0.000732,0.000244,0.002441,0,0,0,0
34.497734,1.378906,2.738281,0.003906,0.000000,0.000000,-0.015587,-0.006592,-0.002686,0.996826,0.001221,0.000244,0.000244,0,0,0,0
34.507496,1.378906,2.738281,0.003906,0.000000,0.000000,-0.009842,-0.006592,-0.002686,0.996826,-0.000244,0.001709,-0.003418,0,0,0,0
34.517258,1.378906,2.738281,0.003906,0.000000,0.000000,-0.010012,-0.006592,-0.002686,0.996826,-0.001953,0.000732,0.001709,0,0,0,0
34.527023,1.378906,2.738281,0.003906,0.000000,0.000000,-0.011976,-0.006592,-0.002686,0.996826,-0.003418,0.001709,-0.000977,0,0,0,0
34.536789,1.378906,2.738281,0.003906,0.000000,0.000000,-0.007280,-0.006592,-0.002686,0.996826,-0.000244,-0.000732,0.000244,0,0,0,0
34.546558,1.378906,2.738281,0.003906,0.000000,0.000000,-0.007427,-0.006592,-0.002686,0.996826,0.001709,0.000732,-0.000244,0,0,0,0
34.556324,1.378906,2.738281,0.003906,0.000000,0.000000,-0.007702,-0.006592,-0.002686,0.996826,-0.002930,-0.004395,-0.001465,0,0,0,0
34.566090,1.378906,2.738281,0.003906,0.000000,0.000000,-0.004105,-0.006592,-0.002686,0.996826,-0.000244,0.000732,0.001221,0,0,0,0
34.575855,1.378906,2.738281,0.003906,0.000000,0.000000,-0.004122,-0.006592,-0.002686,0.996826,0.001221,-0.001221,-0.000244,0,0,0,0
34.585617,1.378906,2.738281,0.003906,0.000000,0.000000,-0.004541,-0.006592,-0.002686,0.996826,0.000732,0.000732,-0.000244,0,0,0,0
34.595383,1.378906,2.738281,0.003906,0.000000,0.000000,-0.004789,-0.006592,-0.002686,0.996826,0.000244,-0.001709,-0.001953,0,0,0,0
34.605148,1.378906,2.738281,0.003906,0.000000,0.000000,-0.003677,-0.006592,-0.002686,0.996826,-0.001953,-0.001709,0.000732,0,0,0,0
34.614914,1.378906,2.738281,0.003906,0.000000,0.000000,-0.003662,-0.006592,-0.002686,0.996826,0.001221,-0.000732,0.000244,0,0,0,0
34.624680,1.378906,2.738281,0.003906,0.000000,0.000000,-0.003956,-0.006592,-0.002686,0.996826,-0.001465,0.000244,0.000732,0,0,0,0
34.634445,1.378906,2.738281,0.007812,0.000000,0.000000,-0.001595,-0.006592,-0.002686,0.996826,0.001709,-0.000732,0.001709,0,0,0,0
34.644215,1.378906,2.738281,0.007812,0.000000,0.000000,-0.002123,-0.006592,-0.002686,0.996826,0.000732,0.001221,-0.000977,0,0,0,0
34.653980,1.378906,2.738281,0.007812,0.000000,0.000000,-0.002254,-0.006592,-0.002686,0.996826,0.002930,0.000732,0.002930,0,0,0,0
34.663742,1.378906,2.738281,0.007812,0.000000,0.000000,-0.002394,-0.006592,-0.002686,0.996826,0.000244,-0.000732,-0.001953,0,0,0,0
34.673508,1.378906,2.738281,0.007812,0.000000,0.000000,-0.000734,-0.006592,-0.002686,0.996826,0.000244,-0.000244,0.000732,0,0,0,0
34.683277,1.378906,2.738281,0.007812,0.000000,0.000000,-0.000910,-0.006592,-0.002686,0.996826,-0.001465,0.000732,-0.001465,0,0,0,0
34.693039,1.378906,2.738281,0.007812,0.000000,0.000000,-0.000877,-0.006592,-0.002686,0.996826,0.001709,-0.001221,0.000732,0,0,0,0
34.702808,1.378906,2.738281,0.007812,0.000000,0.000000,0.000544,-0.006676,-0.002690,0.996903,0.001709,-0.000732,-0.001465,0,0,0,0
34.712570,1.378906,2.738281,0.007812,0.000000,0.000000,0.000402,-0.006592,-0.002686,0.996826,-0.000244,-0.000732,0.000244,0,0,0,0
34.722336,1.378906,2.738281,0.007812,0.000000,0.000000,0.000259,-0.006592,-0.002686,0.996826,-0.000732,0.001221,0.001221,0,0,0,0
34.732109,1.386719,2.738281,0.007812,0.000000,0.000000,0.000477,-0.006592,-0.002686,0.996826,0.004395,0.000732,0.000244,0,0,0,0
34.741882,1.386719,2.738281,0.003906,0.000000,0.000000,-0.010105,-0.006592,-0.002686,0.996826,-0.001953,0.001221,0.000244,0,0,0,0
34.751637,1.386719,2.738281,0.003906,0.000000,0.000000,-0.010080,-0.006592,-0.002686,0.996826,0.000244,-0.000244,-0.001465,0,0,0,0
34.761398,1.386719,2.738281,0.003906,0.000000,0.000000,-0.009487,-0.006592,-0.002686,0.996826,0.001709,0.000732,0.002930,0,0,0,0
34.771168,1.378906,2.738281,0.003906,-0.009998,0.000000,-0.006029,-0.006592,-0.002686,0.996826,-0.000732,-0.001221,0.002930,0,0,0,0
34.780933,1.378906,2.738281,0.003906,-0.009998,0.000000,-0.006178,-0.006592,-0.002686,0.996826,0.000244,-0.001709,-0.001465,0,0,0,0
34.790695,1.378906,2.738281,0.003906,-0.009998,0.000000,-0.006144,-0.006592,-0.002686,0.996826,0.001709,0.001221,-0.002441,0,0,0,0
34.800465,1.378906,2.738281,0.007812,0.000000,0.000000,-0.003487,-0.006592,-0.002686,0.996826,-0.001953,0.000732,0.000732,0,0,0,0
34.810226,1.378906,2.738281,0.007812,0.000000,0.000000,-0.003582,-0.006592,-0.002686,0.996826,0.001221,0.000244,0.000732,0,0,0,0
34.819992,1.378906,2.738281,0.007812,0.000000,0.000000,-0.003843,-0.006592,-0.002686,0.996826,0.000732,-0.000244,0.000244,0,0,0,0
34.829762,1.378906,2.738281,0.007812,0.000000,0.000000,-0.003904,-0.006592,-0.002686,0.996826,-0.001465,-0.003418,-0.000244,0,0,0,0
34.839527,1.378906,2.738281,0.007812,0.000000,0.000000,-0.001129,-0.006592,-0.002686,0.996826,0.003418,0.000732,-0.000244,0,0,0,0
34.849293,1.378906,2.738281,0.007812,0.000000,0.000000,-0.001444,-0.006592,-0.002686,0.996826,0.000732,0.000244,0.000732,0,0,0,0
34.859058,1.378906,2.738281,0.007812,0.000000,0.000000,-0.001509,-0.006592,-0.002686,0.996826,0.001221,-0.002197,0.001221,0,0,0,0
34.868820,1.378906,2.738281,0.007812,0.000000,0.000000,0.000063,-0.006592,-0.002686,0.996826,0.001221,-0.001709,-0.000977,0,0,0,0
34.878590,1.378906,2.738281,0.007812,0.000000,0.000000,-0.000006,-0.006592,-0.002686,0.996826,0.001709,-0.003418,0.001221,0,0,0,0
34.888355,1.378906,2.738281,0.007812,0.000000,0.000000,0.000219,-0.006592,-0.002686,0.996826,0.001221,-0.001709,0.000244,0,0,0,0
34.898129,1.378906,2.738281,0.007812,0.000000,0.000000,-0.000008,-0.006592,-0.002686,0.996826,0.000732,-0.001221,0.000244,0,0,0,0
34.907887,1.378906,2.738281,0.007812,0.000000,0.000000,0.001150,-0.006592,-0.002686,0.996826,-0.000732,0.000244,-0.000244,0,0,0,0
34.917652,1.378906,2.738281,0.007812,0.000000,0.000000,0.001757,-0.006592,-0.002686,0.996826,-0.001465,0.001221,0.000732,0,0,0,0
34.927441,1.378906,2.738281,0.007812,0.000000,0.000000,0.001650,-0.006592,-0.002686,0.996826,0.001709,-0.001221,-0.000244,0,0,0,0
34.937180,1.386719,2.738281,0.003906,-0.009998,-0.009998,-0.009504,-0.006592,-0.002686,0.996826,0.000244,0.000244,0.000244,0,0,0,0
34.946945,1.386719,2.738281,0.003906,-0.009998,-0.009998,-0.009790,-0.006592,-0.002686,0.996826,0.001709,0.000244,-0.001465,0,0,0,0
34.956711,1.386719,2.738281,0.003906,-0.009998,-0.009998,-0.009638,-0.006592,-0.002686,0.996826,0.004395,0.001221,-0.001465,0,0,0,0
34.966476,1.378906,2.738281,0.003906,0.000000,0.000000,-0.006781,-0.006592,-0.002686,0.996826,-0.000732,-0.000244,0.000244,0,0,0,0
34.976242,1.378906,2.738281,0.003906,0.000000,0.000000,-0.006632,-0.006592,-0.002686,0.996826,-0.001465,0.000732,0.000732,0,0,0,0
34.986008,1.378906,2.738281,0.003906,0.000000,0.000000,-0.006937,-0.006592,-0.002686,0.996826,0.001221,0.001709,-0.001953,0,0,0,0
34.995773,1.378906,2.738281,0.003906,0.000000,0.000000,-0.007496,-0.006592,-0.002686,0.996826,0.000732,-0.000244,0.001221,0,0,0,0
35.005543,1.378906,2.738281,0.007812,0.000000,0.000000,-0.004726,-0.006592,-0.002686,0.996826,0.001221,0.001221,-0.000244,0,0,0,0
35.015308,1.378906,2.738281,0.007812,0.000000,0.000000,-0.004965,-0.006592,-0.002686,0.996826,0.002930,-0.000244,0.000244,0,0,0,0
35.025070,1.378906,2.738281,0.007812,0.000000,0.000000,-0.004917,-0.006592,-0.002441,0.996826,-0.000732,0.000244,0.002930,0,0,0,0
35.034836,1.378906,2.738281,0.007812,0.000000,0.000000,-0.002748,-0.006592,-0.002441,0.996826,0.000244,0.001221,0.002441,0,0,0,0
35.044601,1.378906,2.738281,0.007812,0.000000,0.000000,-0.003010,-0.006592,-0.002441,0.996826,0.001221,-0.002197,-0.000244,0,0,0,0
35.054367,1.378906,2.738281,0.007812,0.000000,0.000000,-0.003445,-0.006592,-0.002441,0.996826,0.001221,-0.000244,-0.001953,0,0,0,0
35.064133,1.378906,2.738281,0.007812,0.000000,0.000000,-0.003717,-0.006592,-0.002686,0.996826,0.000244,-0.000732,0.001709,0,0,0,0
35.073906,1.378906,2.738281,0.007812,0.000000,0.000000,-0.001286,-0.006510,-0.002641,0.996824,0.001709,-0.001221,0.001709,0,0,0,0
35.083664,1.378906,2.738281,0.007812,0.000000,0.000000,-0.001335,-0.006592,-0.002686,0.996826,-0.001465,-0.002686,-0.000977,0,0,0,0
35.093430,1.378906,2.738281,0.007812,0.000000,0.000000,-0.001156,-0.006592,-0.002686,0.996826,-0.002930,0.000244,0.001221,0,0,0,0
35.103195,1.378906,2.738281,0.007812,0.000000,0.000000,-0.000237,-0.006592,-0.002686,0.996826,-0.000732,0.001709,0.001221,0,0,0,0
35.112961,1.378906,2.738281,0.007812,0.000000,0.000000,0.000103,-0.006592,-0.002686,0.996826,-0.001465,-0.001709,0.001709,0,0,0,0
35.122726,1.378906,2.738281,0.007812,0.000000,0.000000,0.000340,-0.006592,-0.002686,0.996826,0.002441,0.002197,0.002441,0,0,0,0
35.132496,1.378906,2.738281,0.007812,0.000000,0.000000,0.001022,-0.006592,-0.002686,0.996826,0.001221,-0.001709,-0.000977,0,0,0,0
35.142258,1.378906,2.738281,0.007812,0.000000,0.000000,0.000971,-0.006592,-0.002686,0.996826,0.001709,0.001221,-0.000977,0,0,0,0
35.152023,1.378906,2.738281,0.007812,0.000000,0.000000,0.000605,-0.006592,-0.002686,0.996826,0.000732,-0.002197,-0.000244,0,0,0,0
35.161789,1.378906,2.738281,0.007812,0.000000,0.000000,0.000597,-0.006592,-0.002686,0.996826,0.001221,0.000244,0.000244,0,0,0,0
35.171555,1.378906,2.738281,0.007812,0.000000,0.000000,0.001194,-0.006592,-0.002686,0.996826,-0.000732,0.000244,-0.000977,0,0,0,0
35.181320,1.378906,2.738281,0.007812,0.000000,0.000000,0.001186,-0.006592,-0.002686,0.996826,0.000244,-0.000244,-0.000244,0,0,0,0
35.191086,1.378906,2.738281,0.007812,0.000000,0.000000,0.000828,-0.006592,-0.002686,0.996826,-0.000244,-0.000732,0.002441,0,0,0,0
35.200851,1.378906,2.738281,0.007812,0.000000,0.000000,0.001291,-0.006592,-0.002686,0.996826,0.003906,-0.000732,0.001221,0,0,0,0
35.210617,1.378906,2.738281,0.007812,0.000000,0.000000,0.001211,-0.006592,-0.002686,0.996826,-0.003418,-0.001709,0.003906,0,0,0,0
35.220383,1.378906,2.738281,0.007812,0.000000,0.000000,0.001219,-0.006592,-0.002686,0.996826,0.000732,-0.002197,0.000732,0,0,0,0
35.230148,1.378906,2.738281,0.007812,0.000000,0.000000,0.000944,-0.006592,-0.002686,0.996826,-0.002441,0.000244,-0.000977,0,0,0,0
35.239914,1.378906,2.738281,0.007812,0.000000,0.000000,0.001673,-0.006592,-0.002686,0.996826,-0.001465,-0.001709,0.001709,0,0,0,0
35.249683,1.378906,2.738281,0.007812,0.000000,0.000000,0.001036,-0.006592,-0.002686,0.996826,0.000244,-0.002197,0.000244,0,0,0,0
35.259445,1.378906,2.738281,0.007812,0.000000,0.000000,0.001085,-0.006592,-0.002686,0.996826,0.000732,0.000244,-0.000244,0,0,0,0
35.269211,1.378906,2.738281,0.007812,0.000000,0.000000,0.000946,-0.006592,-0.002686,0.996826,-0.001953,-0.000732,0.001221,0,0,0,0
35.278976,1.378906,2.738281,0.007812,0.000000,0.000000,0.000875,-0.006592,-0.002686,0.996826,0.001221,0.000244,0.000732,0,0,0,0
35.288742,1.378906,2.738281,0.007812,0.000000,0.000000,0.000761,-0.006592,-0.002686,0.996826,-0.001465,0.000244,0.000244,0,0,0,0
35.298512,1.378906,2.738281,0.007812,0.000000,0.000000,0.000292,-0.006592,-0.002686,0.996826,-0.001953,-0.000244,0.000732,0,0,0,0
35.308277,1.378906,2.738281,0.007812,0.000000,0.000000,-0.000359,-0.006592,-0.002686,0.996826,-0.001465,0.001221,-0.000244,0,0,0,0
35.318043,1.378906,2.738281,0.007812,0.000000,0.000000,-0.000488,-0.006592,-0.002686,0.996826,-0.000244,-0.002686,0.000732,0,0,0,0
35.327808,1.378906,2.738281,0.007812,0.000000,0.000000,-0.000668,-0.006348,-0.002686,0.996826,0.000732,0.000244,0.000732,0,0,0,0
35.337589,1.378906,2.738281,0.007812,0.000000,0.000000,-0.000250,-0.006348,-0.002686,0.996826,0.000244,-0.001709,-0.000244,0,0,0,0
35.347336,1.378906,2.738281,0.007812,0.000000,0.000000,-0.000433,-0.006348,-0.002686,0.996826,-0.001953,0.002197,0.001221,0,0,0,0
35.357101,1.378906,2.738281,0.007812,0.000000,0.000000,-0.000692,-0.006348,-0.002686,0.996826,-0.001465,0.000732,0.000244,0,0,0,0
35.366867,1.378906,2.738281,0.007812,0.000000,0.000000,-0.000753,-0.006348,-0.002686,0.996826,0.000244,-0.000244,-0.001465,0,0,0,0
35.376637,1.378906,2.738281,0.007812,0.000000,0.000000,-0.000753,-0.006427,-0.002617,0.996824,-0.001465,0.000244,-0.000244,0,0,0,0
35.386402,1.378906,2.738281,0.007812,0.000000,0.000000,-0.001507,-0.006348,-0.002441,0.996826,-0.000732,0.001709,-0.000244,0,0,0,0
35.396168,1.378906,2.738281,0.007812,0.000000,0.000000,-0.001484,-0.006348,-0.002441,0.996826,-0.001953,-0.000244,0.000244,0,0,0,0
35.405933,1.386719,2.738281,0.003906,0.000000,0.000000,-0.012712,-0.006348,-0.002441,0.996826,0.001221,0.000732,0.000244,0,0,0,0
35.415699,1.386719,2.738281,0.003906,0.000000,0.000000,-0.012756,-0.006348,-0.002441,0.996826,-0.000244,0.001709,-0.001953,0,0,0,0
35.425465,1.386719,2.738281,0.003906,0.000000,0.000000,-0.012945,-0.006348,-0.002441,0.996826,-0.000732,-0.001709,0.000732,0,0,0,0
35.435226,1.378906,2.738281,0.003906,0.000000,0.000000,-0.009989,-0.006348,-0.002441,0.996826,-0.000732,-0.003906,0.000732,0,0,0,0
35.444996,1.378906,2.738281,0.003906,0.000000,0.000000,-0.010500,-0.006348,-0.002441,0.996826,0.000244,0.000732,-0.001953,0,0,0,0
35.454762,1.378906,2.738281,0.003906,0.000000,0.000000,-0.010822,-0.006348,-0.002441,0.996826,0.000244,0.000732,0.002930,0,0,0,0
35.464527,1.378906,2.738281,0.003906,0.000000,0.000000,-0.011547,-0.006348,-0.002441,0.996826,-0.005127,-0.000732,-0.001953,0,0,0,0
35.474293,1.378906,2.738281,0.007812,0.000000,0.000000,-0.008953,-0.006348,-0.002441,0.996826,-0.001953,0.003418,0.000244,0,0,0,0
35.484055,1.378906,2.738281,0.007812,0.000000,0.000000,-0.009121,-0.006348,-0.002441,0.996826,-0.003418,-0.001709,0.000244,0,0,0,0
35.493820,1.378906,2.738281,0.007812,0.000000,0.000000,-0.009375,-0.006348,-0.002441,0.996826,0.000732,-0.000732,0.000244,0,0,0,0
35.503586,1.386719,2.738281,0.003906,0.000000,0.000000,-0.018793,-0.006348,-0.002441,0.996826,-0.000244,-0.000732,-0.000244,0,0,0,0
35.513351,1.386719,2.738281,0.003906,0.000000,0.000000,-0.018713,-0.006348,-0.002441,0.996826,0.000244,-0.001709,-0.001465,0,0,0,0
35.523117,1.386719,2.738281,0.003906,0.000000,0.000000,-0.018702,-0.006348,-0.002441,0.996826,0.001709,-0.001221,0.000244,0,0,0,0
35.532883,1.386719,2.738281,0.003906,0.000000,0.000000,-0.025043,-0.006348,-0.002441,0.996826,-0.001465,-0.001221,0.001221,0,0,0,0
35.542648,1.386719,2.738281,0.000000,0.000000,0.000000,-0.025723,-0.006348,-0.002441,0.996826,-0.002930,0.001709,-0.000244,0,0,0,0
35.552414,1.386719,2.738281,0.000000,0.000000,0.000000,-0.026043,-0.006348,-0.002441,0.996826,-0.002441,-0.000732,-0.000977,0,0,0,0
35.562180,1.386719,2.738281,0.000000,0.000000,0.000000,-0.026215,-0.006348,-0.002441,0.996826,-0.002441,0.000732,0.000244,0,0,0,0
35.571945,1.386719,2.738281,0.000000,0.000000,0.000000,-0.030191,-0.006348,-0.002441,0.996826,-0.000732,-0.001709,-0.001953,0,0,0,0
35.581715,1.386719,2.738281,0.000000,0.000000,0.000000,-0.030642,-0.006348,-0.002441,0.996826,-0.000244,-0.001709,-0.000244,0,0,0,0
35.591476,1.386719,2.738281,0.000000,0.000000,0.000000,-0.030796,-0.006348,-0.002686,0.996826,-0.002441,-0.001221,-0.002930,0,0,0,0
35.601242,1.378906,2.738281,0.003906,0.000000,0.000000,-0.022507,-0.006348,-0.002686,0.996826,-0.000244,0.002930,0.000732,0,0,0,0
35.611015,1.378906,2.738281,0.003906,0.000000,0.000000,-0.022562,-0.006374,-0.002646,0.996824,-0.001465,0.000732,-0.001465,0,0,0,0
35.620770,1.378906,2.738281,0.003906,0.000000,0.000000,-0.022385,-0.006348,-0.002686,0.996826,-0.002441,0.000244,0.000244,0,0,0,0
35.630539,1.378906,2.738281,0.000000,0.000000,0.000000,-0.022263,-0.006348,-0.002686,0.996826,-0.000244,-0.001709,-0.000244,0,0,0,0
35.640305,1.378906,2.738281,0.003906,0.000000,0.000000,-0.015022,-0.006348,-0.002686,0.996826,-0.001953,-0.000244,-0.000244,0,0,0,0
35.650070,1.378906,2.738281,0.003906,0.000000,0.000000,-0.015337,-0.006348,-0.002686,0.996826,-0.001953,0.000244,0.000732,0,0,0,0
35.659836,1.378906,2.738281,0.003906,0.000000,0.000000,-0.015503,-0.006348,-0.002686,0.996826,-0.002441,0.001709,-0.000977,0,0,0,0
35.669601,1.378906,2.738281,0.003906,0.000000,0.000000,-0.010227,-0.006348,-0.002686,0.996826,-0.001953,-0.000244,0.002441,0,0,0,0
35.679367,1.378906,2.738281,0.003906,0.000000,0.000000,-0.010485,-0.006348,-0.002686,0.996826,-0.000732,-0.001221,-0.001465,0,0,0,0
35.689133,1.378906,2.738281,0.003906,0.000000,0.000000,-0.010691,-0.006348,-0.002686,0.996826,-0.000244,0.000732,0.000244,0,0,0,0
35.698906,1.378906,2.738281,0.003906,0.000000,0.000000,-0.010643,-0.006348,-0.002686,0.996826,-0.001953,0.000732,-0.000977,0,0,0,0
35.708668,1.378906,2.738281,0.003906,0.000000,0.000000,-0.006329,-0.006348,-0.002686,0.996826,-0.003418,0.000732,0.000732,0,0,0,0
35.718433,1.378906,2.738281,0.003906,0.000000,0.000000,-0.006102,-0.006348,-0.002686,0.996826,-0.004150,-0.001709,0.000244,0,0,0,0
35.728203,1.378906,2.738281,0.003906,0.000000,0.000000,-0.006138,-0.006348,-0.002686,0.996826,0.001221,0.001221,-0.000244,0,0,0,0
35.737965,1.378906,2.738281,0.007812,0.000000,0.000000,-0.003138,-0.006348,-0.002441,0.996826,-0.000244,0.002930,-0.000977,0,0,0,0
35.747726,1.378906,2.738281,0.003906,0.000000,0.000000,-0.002954,-0.006348,-0.002441,0.996826,-0.001465,-0.001221,-0.000977,0,0,0,0
35.757496,1.378906,2.738281,0.003906,0.000000,0.000000,-0.002903,-0.006348,-0.002441,0.996826,-0.002930,-0.000244,-0.000244,0,0,0,0
35.767258,1.378906,2.738281,0.007812,0.000000,0.000000,-0.000673,-0.006348,-0.002441,0.996826,-0.001465,-0.000244,0.000244,0,0,0,0
35.777023,1.378906,2.738281,0.007812,0.000000,0.000000,-0.000566,-0.006348,-0.002441,0.996826,-0.002441,-0.000732,-0.000244,0,0,0,0
35.786789,1.378906,2.738281,0.007812,0.000000,0.000000,-0.000702,-0.006348,-0.002441,0.996826,-0.000732,0.001221,-0.000244,0,0,0,0
35.796555,1.378906,2.738281,0.007812,0.000000,0.000000,-0.000725,-0.006348,-0.002441,0.996826,-0.001465,0.000244,-0.001465,0,0,0,0
35.806320,1.386719,2.738281,0.003906,0.000000,0.000000,-0.010405,-0.006348,-0.002441,0.996826,-0.002441,-0.000732,-0.000244,0,0,0,0
35.816086,1.386719,2.738281,0.003906,0.000000,0.000000,-0.010250,-0.006348,-0.002441,0.996826,0.001221,-0.002686,-0.000244,0,0,0,0
35.825851,1.386719,2.738281,0.003906,0.000000,0.000000,-0.010206,-0.006348,-0.002441,0.996826,-0.003418,0.000244,0.000732,0,0,0,0
35.835617,1.378906,2.738281,0.003906,0.000000,0.000000,-0.006166,-0.006348,-0.002441,0.996826,-0.003418,0.000244,0.000732,0,0,0,0
35.845383,1.378906,2.738281,0.003906,0.000000,0.000000,-0.006495,-0.006348,-0.002441,0.996826,-0.001465,-0.000732,0.000732,0,0,0,0
35.855148,1.378906,2.738281,0.003906,0.000000,0.000000,-0.006950,-0.006348,-0.002441,0.996826,-0.001953,-0.003418,-0.000977,0,0,0,0
35.864922,1.378906,2.738281,0.003906,0.000000,0.000000,-0.006935,-0.006348,-0.002441,0.996826,-0.004639,-0.003906,0.001221,0,0,0,0
35.874683,1.378906,2.738281,0.003906,0.000000,0.000000,-0.004000,-0.006348,-0.002441,0.996826,-0.001953,-0.000244,-0.000977,0,0,0,0
35.884445,1.378906,2.738281,0.003906,0.000000,0.000000,-0.004311,-0.006348,-0.002441,0.996826,0.000732,-0.000244,0.002441,0,0,0,0
35.894211,1.378906,2.738281,0.003906,0.000000,0.000000,-0.004448,-0.006348,-0.002441,0.996826,-0.002441,-0.001221,-0.000977,0,0,0,0
35.903976,1.378906,2.738281,0.007812,0.000000,0.000000,-0.001818,-0.006348,-0.002441,0.996826,-0.000732,-0.000732,0.000732,0,0,0,0
35.913754,1.378906,2.738281,0.007812,0.000000,0.000000,-0.001856,-0.006345,-0.002592,0.996823,-0.002441,-0.000732,0.000244,0,0,0,0
35.923512,1.378906,2.738281,0.007812,0.000000,0.000000,-0.001856,-0.006348,-0.002441,0.996826,-0.001465,-0.000244,0.002441,0,0,0,0
35.933277,1.386719,2.738281,0.003906,0.000000,0.000000,-0.011343,-0.006348,-0.002441,0.996826,-0.001953,-0.001709,0.001221,0,0,0,0
35.943043,1.386719,2.738281,0.003906,0.000000,0.000000,-0.011744,-0.006348,-0.002441,0.996826,-0.000732,0.000732,0.002930,0,0,0,0
35.952805,1.386719,2.738281,0.003906,0.000000,0.000000,-0.012310,-0.006348,-0.002441,0.996826,-0.004150,0.000732,-0.000244,0,0,0,0
35.962570,1.386719,2.738281,0.003906,0.000000,0.000000,-0.012455,-0.006348,-0.002441,0.996826,0.000244,0.002197,-0.000977,0,0,0,0
35.972336,1.378906,2.738281,0.003906,0.000000,0.000000,-0.007639,-0.006348,-0.002441,0.996826,-0.001953,-0.001709,0.000244,0,0,0,0
35.982105,1.378906,2.738281,0.003906,0.000000,0.000000,-0.007942,-0.006348,-0.002441,0.996826,-0.004150,-0.000244,-0.000244,0,0,0,0
35.991867,1.378906,2.738281,0.003906,0.000000,0.000000,-0.008568,-0.006348,-0.002441,0.996826,-0.002930,-0.001709,-0.000244,0,0,0,0
36.001633,1.378906,2.738281,0.003906,0.000000,0.000000,-0.004976,-0.006348,-0.002441,0.996826,-0.000732,-0.000732,0.001221,0,0,0,0
36.011398,1.378906,2.738281,0.003906,0.000000,0.000000,-0.005335,-0.006348,-0.002441,0.996826,-0.002441,0.000732,-0.000244,0,0,0,0
36.021164,1.378906,2.738281,0.003906,0.000000,0.000000,-0.005547,-0.006348,-0.002441,0.996826,-0.001465,-0.002197,0.002930,0,0,0,0
36.030930,1.378906,2.738281,0.003906,0.000000,0.000000,-0.005423,-0.006348,-0.002441,0.996826,-0.000732,0.002197,-0.002930,0,0,0,0
36.040695,1.378906,2.738281,0.007812,0.000000,0.000000,-0.002600,-0.006348,-0.002441,0.996826,-0.002441,0.001709,-0.001953,0,0,0,0
36.050461,1.378906,2.738281,0.007812,0.000000,0.000000,-0.002420,-0.006348,-0.002441,0.996826,-0.001465,-0.000244,0.000244,0,0,0,0
36.060226,1.378906,2.738281,0.007812,0.000000,0.000000,-0.002277,-0.006348,-0.002441,0.996826,-0.000732,-0.000732,0.000732,0,0,0,0
36.069992,1.378906,2.738281,0.007812,0.000000,0.000000,-0.000481,-0.006348,-0.002441,0.996826,-0.000732,-0.002197,-0.000244,0,0,0,0
36.079769,1.378906,2.738281,0.007812,0.000000,0.000000,-0.000774,-0.006348,-0.002441,0.996826,0.000732,0.001221,-0.003418,0,0,0,0
36.089523,1.378906,2.738281,0.007812,0.000000,0.000000,-0.001478,-0.006348,-0.002441,0.996826,0.001709,0.001221,0.002441,0,0,0,0
36.099285,1.378906,2.738281,0.007812,0.000000,0.000000,0.000320,-0.006348,-0.002441,0.996826,-0.001953,-0.000244,0.000244,0,0,0,0
36.109055,1.378906,2.738281,0.007812,0.000000,0.000000,0.000265,-0.006348,-0.002441,0.996826,0.000244,-0.001221,0.001221,0,0,0,0
36.118820,1.378906,2.738281,0.007812,0.000000,0.000000,0.000027,-0.006348,-0.002441,0.996826,-0.002930,0.000732,-0.001953,0,0,0,0
36.128586,1.378906,2.738281,0.007812,0.000000,0.000000,0.000208,-0.006348,-0.002441,0.996826,0.000732,-0.001709,-0.001465,0,0,0,0
36.138355,1.378906,2.738281,0.007812,0.000000,0.000000,0.001680,-0.006348,-0.002441,0.996826,-0.001465,0.000244,-0.000977,0,0,0,0
36.148121,1.378906,2.738281,0.007812,0.000000,0.000000,0.001436,-0.006348,-0.002441,0.996826,-0.002930,0.000732,0.000244,0,0,0,0
36.157887,1.378906,2.738281,0.007812,0.000000,0.000000,0.001276,-0.006348,-0.002441,0.996826,-0.002930,0.001221,-0.000244,0,0,0,0
36.167656,1.378906,2.738281,0.007812,0.000000,0.000000,0.001408,-0.006348,-0.002441,0.996826,0.001221,-0.001221,-0.001465,0,0,0,0
36.177452,1.378906,2.738281,0.007812,0.000000,0.000000,0.001528,-0.006348,-0.002441,0.996826,-0.002930,0.002930,0.000732,0,0,0,0
36.187180,1.378906,2.738281,0.007812,0.000000,0.000000,0.001343,-0.006348,-0.002441,0.996826,-0.000732,-0.002686,-0.001953,0,0,0,0
36.196945,1.378906,2.738281,0.007812,0.000000,0.000000,0.001904,-0.006348,-0.002441,0.996826,-0.000732,-0.001221,-0.001465,0,0,0,0
36.206711,1.378906,2.738281,0.007812,0.000000,0.000000,0.002842,-0.006348,-0.002441,0.996826,-0.001953,-0.000244,0.000244,0,0,0,0
36.216480,1.378906,2.738281,0.007812,0.000000,0.000000,0.002483,-0.006315,-0.002539,0.996823,0.000244,-0.000244,0.000244,0,0,0,0
36.226242,1.378906,2.738281,0.007812,0.000000,0.000000,0.002600,-0.006348,-0.002441,0.996826,-0.001953,0.001709,0.002441,0,0,0,0
36.236008,1.378906,2.738281,0.007812,0.000000,0.000000,0.003098,-0.006348,-0.002441,0.996826,0.001221,-0.000244,-0.001953,0,0,0,0
36.245773,1.378906,2.738281,0.007812,0.000000,0.000000,0.002865,-0.006348,-0.002441,0.996826,0.001709,-0.001221,0.001709,0,0,0,0
36.255539,1.378906,2.738281,0.007812,0.000000,0.000000,0.002960,-0.006348,-0.002441,0.996826,-0.004150,-0.001709,0.000732,0,0,0,0
36.265312,1.378906,2.738281,0.007812,0.000000,0.000000,0.002819,-0.006348,-0.002441,0.996826,-0.000244,0.001709,0.000244,0,0,0,0
36.275070,1.378906,2.738281,0.007812,0.000000,0.000000,0.003098,-0.006348,-0.002441,0.996826,0.001221,-0.000732,0.001221,0,0,0,0
36.284840,1.378906,2.738281,0.007812,0.000000,0.000000,0.002869,-0.006315,-0.002539,0.996823,-0.000244,-0.001221,-0.001465,0,0,0,0
36.294601,1.378906,2.738281,0.007812,0.000000,0.000000,0.003078,-0.006348,-0.002441,0.996826,0.002441,-0.002197,0.000244,0,0,0,0
36.304367,1.378906,2.738281,0.007812,0.000000,0.000000,0.003096,-0.006348,-0.002441,0.996826,0.002441,0.000244,-0.001465,0,0,0,0
36.314133,1.378906,2.738281,0.007812,0.000000,0.000000,0.003269,-0.006348,-0.002441,0.996826,0.001221,-0.000732,0.000732,0,0,0,0
36.323898,1.378906,2.738281,0.007812,0.000000,0.000000,0.003447,-0.006348,-0.002441,0.996826,0.001221,0.001221,-0.000244,0,0,0,0
36.333664,1.386719,2.738281,0.003906,0.000000,0.000000,-0.007874,-0.006348,-0.002441,0.996826,-0.000732,-0.001709,-0.000244,0,0,0,0
36.343430,1.386719,2.738281,0.003906,0.000000,0.000000,-0.007963,-0.006348,-0.002441,0.996826,0.000732,-0.001709,0.000732,0,0,0,0
36.353195,1.386719,2.738281,0.003906,0.000000,0.000000,-0.007786,-0.006348,-0.002441,0.996826,0.000244,-0.001221,-0.000244,0,0,0,0
