time,pos_x,pos_y,pos_z,vel_x,vel_y,vel_z,att_phi,att_theta,att_psi,rate_p,rate_q,rate_r,cmd_thrust,cmd_roll,cmd_pitch,cmd_yaw
260.873596,1.609375,2.886719,0.007812,0.000000,0.000000,0.000685,0.010072,-0.000305,1.012663,-0.000244,0.002686,0.000732,0,0,0,0
260.882385,1.609375,2.886719,0.007812,0.000000,0.000000,0.000528,0.010072,-0.000305,1.012663,-0.002686,-0.003418,-0.000488,0,0,0,0
260.892151,1.609375,2.886719,0.007812,0.000000,0.000000,0.000660,0.010072,-0.000305,1.012663,-0.000732,-0.002930,-0.000977,0,0,0,0
260.901917,1.609375,2.886719,0.007812,0.000000,0.000000,0.000433,0.010072,-0.000305,1.012663,-0.000244,-0.000488,-0.000488,0,0,0,0
260.911682,1.609375,2.886719,0.007812,0.000000,0.000000,0.000608,0.010072,-0.000305,1.012663,-0.003906,0.001465,0.002930,0,0,0,0
260.921448,1.609375,2.886719,0.007812,0.000000,0.000000,0.000475,0.010072,-0.000305,1.012663,-0.001709,0.000000,0.000732,0,0,0,0
260.931213,1.609375,2.886719,0.007812,0.000000,0.000000,0.001261,0.010072,-0.000305,1.012663,-0.001221,0.000000,0.002930,0,0,0,0
260.940979,1.609375,2.886719,0.007812,0.000000,0.000000,0.000956,0.010072,-0.000305,1.012663,-0.000732,0.001465,0.000244,0,0,0,0
260.950745,1.609375,2.886719,0.007812,0.000000,0.000000,0.001150,0.010072,-0.000305,1.012663,-0.001709,-0.001953,0.000244,0,0,0,0
260.960510,1.609375,2.886719,0.007812,0.000000,0.000000,0.001234,0.010072,-0.000305,1.012663,-0.002686,-0.002930,-0.000977,0,0,0,0
260.970276,1.609375,2.886719,0.007812,0.000000,0.000000,0.001230,0.010072,-0.000305,1.012663,0.001953,-0.000488,-0.000488,0,0,0,0
260.980042,1.609375,2.886719,0.007812,0.000000,0.000000,0.001253,0.010072,-0.000305,1.012663,0.004150,-0.001465,-0.002441,0,0,0,0
260.989807,1.609375,2.886719,0.007812,0.000000,0.000000,0.001236,0.010072,-0.000305,1.012663,0.002441,0.000488,-0.001465,0,0,0,0
260.999573,1.609375,2.886719,0.007812,0.000000,0.000000,0.001305,0.010072,-0.000305,1.012663,-0.001221,-0.000488,0.000244,0,0,0,0
261.009338,1.609375,2.886719,0.007812,0.000000,0.000000,0.001816,0.010072,-0.000305,1.012663,0.001465,0.000977,-0.000488,0,0,0,0
261.019104,1.609375,2.886719,0.007812,0.000000,0.000000,0.002451,0.010072,-0.000305,1.012663,0.001953,-0.000977,0.000244,0,0,0,0
261.028870,1.609375,2.886719,0.007812,0.000000,0.000000,0.002571,0.010072,-0.000305,1.012663,0.001953,0.000488,-0.000488,0,0,0,0
261.038635,1.609375,2.886719,0.007812,-0.009998,-0.009998,0.002279,0.010072,-0.000305,1.012663,0.001953,-0.000488,-0.000488,0,0,0,0
261.048401,1.609375,2.886719,0.007812,-0.009998,-0.009998,0.002386,0.010072,-0.000305,1.012663,0.000488,0.002197,0.002197,0,0,0,0
261.058167,1.609375,2.886719,0.007812,-0.009998,-0.009998,0.002417,0.010072,-0.000305,1.012663,-0.000244,-0.000977,-0.000977,0,0,0,0
261.067932,1.609375,2.886719,0.007812,0.000000,0.000000,0.002691,0.010072,-0.000305,1.012663,-0.000244,-0.002441,0.002197,0,0,0,0
261.077698,1.609375,2.886719,0.007812,0.000000,0.000000,0.002684,0.010072,-0.000305,1.012663,0.003174,-0.001953,0.000732,0,0,0,0
261.087463,1.609375,2.886719,0.007812,0.000000,0.000000,0.003355,0.010072,-0.000305,1.012663,0.001953,0.000000,-0.000488,0,0,0,0
261.097229,1.609375,2.886719,0.007812,0.000000,0.000000,0.003004,0.010010,-0.000244,1.012451,-0.001221,0.000977,-0.001465,0,0,0,0
261.106995,1.609375,2.886719,0.007812,0.000000,0.000000,0.002657,0.010072,-0.000305,1.012663,0.000488,-0.000488,-0.001465,0,0,0,0
261.116760,1.609375,2.886719,0.007812,0.000000,0.000000,0.002897,0.010072,-0.000305,1.012663,-0.000244,0.003662,-0.000977,0,0,0,0
261.126526,1.609375,2.886719,0.007812,0.000000,0.000000,0.003063,0.010072,-0.000305,1.012663,0.000488,-0.000977,-0.000977,0,0,0,0
261.136292,1.609375,2.886719,0.007812,-0.009998,-0.009998,0.003027,0.010072,-0.000305,1.012663,0.002441,-0.000488,-0.000488,0,0,0,0
261.146057,1.609375,2.886719,0.007812,-0.009998,-0.009998,0.003077,0.010072,-0.000305,1.012663,0.003174,-0.000977,0.000244,0,0,0,0
261.155823,1.609375,2.886719,0.007812,-0.009998,-0.009998,0.002998,0.010072,-0.000305,1.012663,-0.002197,-0.001465,0.000244,0,0,0,0
261.165588,1.609375,2.886719,0.007812,-0.009998,-0.009998,0.003824,0.010072,-0.000305,1.012663,-0.001709,0.000000,0.001221,0,0,0,0
261.175354,1.609375,2.886719,0.007812,0.000000,0.000000,0.003532,0.010072,-0.000305,1.012663,-0.000732,-0.000488,0.001709,0,0,0,0
261.185120,1.609375,2.886719,0.007812,0.000000,0.000000,0.003895,0.010072,-0.000305,1.012663,0.000977,0.000488,-0.000488,0,0,0,0
261.194885,1.609375,2.886719,0.007812,0.000000,0.000000,0.004011,0.010072,-0.000305,1.012663,-0.003906,-0.000977,-0.002441,0,0,0,0
261.204651,1.609375,2.886719,0.007812,0.000000,0.000000,0.003815,0.010072,-0.000305,1.012663,0.002441,0.002197,-0.000488,0,0,0,0
261.214417,1.609375,2.886719,0.007812,0.000000,0.000000,0.003811,0.010072,-0.000305,1.012663,0.001465,0.000977,-0.000977,0,0,0,0
261.224182,1.609375,2.886719,0.007812,0.000000,0.000000,0.004000,0.010072,-0.000305,1.012663,-0.002686,-0.000488,-0.000488,0,0,0,0
261.233948,1.609375,2.886719,0.007812,0.000000,0.000000,0.004061,0.010072,-0.000305,1.012663,-0.000732,-0.000977,0.000732,0,0,0,0
261.243713,1.609375,2.886719,0.007812,0.000000,0.000000,0.003567,0.010072,-0.000305,1.012663,-0.001221,0.000977,0.000732,0,0,0,0
261.253479,1.609375,2.886719,0.007812,0.000000,0.000000,0.003397,0.010072,-0.000305,1.012663,-0.000732,-0.001465,-0.000977,0,0,0,0
261.263245,1.609375,2.886719,0.007812,0.000000,0.000000,0.003660,0.010072,-0.000305,1.012663,0.000488,-0.002441,-0.002930,0,0,0,0
261.273010,1.609375,2.886719,0.007812,0.000000,0.000000,0.003551,0.010072,-0.000305,1.012663,0.000488,-0.000977,0.000244,0,0,0,0
261.282776,1.609375,2.886719,0.007812,0.000000,0.000000,0.003489,0.010072,-0.000305,1.012663,-0.001221,-0.000488,0.000244,0,0,0,0
261.292542,1.609375,2.886719,0.007812,0.000000,0.000000,0.003502,0.010072,-0.000305,1.012663,-0.001221,-0.002441,-0.000488,0,0,0,0
261.302307,1.609375,2.886719,0.007812,0.000000,0.000000,0.002909,0.010072,-0.000305,1.012663,-0.000244,0.001465,0.000732,0,0,0,0
261.312073,1.609375,2.886719,0.007812,0.000000,0.000000,0.003128,0.010072,-0.000305,1.012663,-0.000732,-0.002441,-0.000977,0,0,0,0
261.321838,1.609375,2.886719,0.007812,0.000000,0.000000,0.002951,0.010072,-0.000305,1.012663,0.000488,0.000977,0.000732,0,0,0,0
261.331604,1.609375,2.886719,0.007812,0.000000,0.000000,0.003189,0.010072,-0.000305,1.012663,0.001953,0.002686,0.000244,0,0,0,0
261.341370,1.609375,2.886719,0.007812,0.000000,0.000000,0.003046,0.010072,-0.000305,1.012663,-0.000732,0.000000,0.000732,0,0,0,0
261.351135,1.609375,2.886719,0.007812,0.000000,0.000000,0.003134,0.010072,-0.000305,1.012663,0.001465,0.000488,-0.001465,0,0,0,0
261.360901,1.609375,2.886719,0.007812,0.000000,0.000000,0.003117,0.010072,-0.000305,1.012663,-0.000732,0.002197,0.000732,0,0,0,0
261.370667,1.609375,2.886719,0.007812,0.000000,0.000000,0.002869,0.010072,-0.000305,1.012663,0.001953,0.000488,-0.001953,0,0,0,0
261.380432,1.609375,2.886719,0.007812,0.000000,0.000000,0.003021,0.010072,-0.000305,1.012663,0.001465,0.000977,-0.002930,0,0,0,0
261.390198,1.609375,2.886719,0.007812,0.000000,0.000000,0.002834,0.010072,-0.000305,1.012663,-0.001709,-0.001953,0.000244,0,0,0,0
261.399963,1.609375,2.886719,0.007812,0.000000,0.000000,0.001822,0.010072,-0.000305,1.012663,0.000488,-0.001465,-0.001953,0,0,0,0
261.409729,1.609375,2.886719,0.007812,0.000000,0.000000,0.002192,0.010072,-0.000305,1.012663,0.004150,0.000000,-0.000977,0,0,0,0
261.419495,1.609375,2.886719,0.007812,0.000000,0.000000,0.001871,0.010072,-0.000305,1.012663,0.002441,-0.001465,0.001221,0,0,0,0
261.429260,1.609375,2.886719,0.007812,0.000000,0.000000,0.001923,0.010072,-0.000305,1.012663,0.002441,0.000000,-0.002441,0,0,0,0
261.439026,1.609375,2.886719,0.007812,0.000000,0.000000,0.001783,0.010072,-0.000305,1.012663,0.003174,0.000000,0.000732,0,0,0,0
261.448792,1.609375,2.886719,0.007812,0.000000,0.000000,0.001898,0.010072,-0.000305,1.012663,0.000488,-0.000488,0.000244,0,0,0,0
261.458557,1.609375,2.886719,0.007812,0.000000,0.000000,0.001768,0.010072,-0.000305,1.012663,0.001465,0.001465,-0.002930,0,0,0,0
261.468323,1.609375,2.886719,0.007812,0.000000,0.000000,0.001724,0.010010,-0.000244,1.012451,0.002441,0.000977,0.000244,0,0,0,0
261.478088,1.609375,2.886719,0.007812,0.000000,0.000000,0.000105,0.010072,-0.000305,1.012663,0.001465,0.001465,0.002197,0,0,0,0
261.487854,1.609375,2.886719,0.007812,0.000000,0.000000,0.000080,0.010072,-0.000305,1.012663,0.000488,0.000000,0.000244,0,0,0,0
261.497620,1.609375,2.886719,0.007812,0.000000,0.000000,-0.000292,0.010072,-0.000305,1.012663,0.004639,0.002197,0.000732,0,0,0,0
261.507385,1.609375,2.886719,0.007812,0.000000,0.000000,0.000029,0.010072,-0.000305,1.012663,-0.000244,-0.001465,-0.000488,0,0,0,0
261.517151,1.609375,2.886719,0.007812,0.000000,0.000000,0.000135,0.010072,-0.000305,1.012663,-0.002686,0.000977,0.000732,0,0,0,0
261.526917,1.609375,2.886719,0.007812,0.000000,0.000000,0.000343,0.010072,-0.000305,1.012663,0.001953,0.002197,-0.000488,0,0,0,0
261.536682,1.609375,2.886719,0.007812,0.000000,0.000000,0.000849,0.010072,-0.000305,1.012663,-0.000244,-0.000977,-0.000977,0,0,0,0
261.546448,1.609375,2.886719,0.007812,0.000000,0.000000,0.000677,0.010072,-0.000305,1.012663,0.001465,0.000000,-0.001465,0,0,0,0
261.556213,1.609375,2.886719,0.007812,0.000000,0.000000,-0.001127,0.010072,-0.000305,1.012663,-0.000244,0.001465,-0.001465,0,0,0,0
261.565979,1.609375,2.886719,0.007812,0.000000,0.000000,-0.001415,0.010072,-0.000305,1.012663,0.003174,0.002197,0.001221,0,0,0,0
261.575745,1.609375,2.886719,0.007812,0.000000,0.000000,-0.000675,0.010072,-0.000305,1.012663,-0.000732,0.000977,0.001221,0,0,0,0
261.585510,1.609375,2.886719,0.007812,0.000000,0.000000,-0.000582,0.010072,-0.000305,1.012663,-0.001709,0.000000,0.000244,0,0,0,0
261.595276,1.609375,2.886719,0.007812,0.000000,0.000000,-0.000349,0.010072,-0.000305,1.012663,-0.000732,0.000000,-0.000488,0,0,0,0
261.605042,1.609375,2.886719,0.007812,0.000000,0.000000,0.000187,0.010072,-0.000305,1.012663,-0.001709,0.000488,0.001221,0,0,0,0
261.614807,1.609375,2.886719,0.007812,0.000000,0.000000,0.000288,0.010072,-0.000305,1.012663,-0.002686,0.000000,-0.000977,0,0,0,0
261.624573,1.609375,2.886719,0.007812,0.000000,0.000000,0.000366,0.010072,-0.000305,1.012663,-0.000244,0.000488,0.000732,0,0,0,0
261.634338,1.609375,2.886719,0.007812,0.000000,0.000000,0.001036,0.010072,-0.000305,1.012663,0.000488,-0.001465,-0.001465,0,0,0,0
261.644104,1.609375,2.886719,0.007812,0.000000,0.000000,0.001482,0.010072,-0.000305,1.012663,-0.001221,0.000000,0.001221,0,0,0,0
261.653870,1.609375,2.886719,0.007812,0.000000,0.000000,0.001287,0.010072,-0.000305,1.012663,-0.000732,0.002197,-0.000488,0,0,0,0
261.663635,1.609375,2.886719,0.007812,0.000000,0.000000,0.001141,0.010072,-0.000305,1.012663,-0.001221,0.000977,-0.001465,0,0,0,0
261.673401,1.609375,2.886719,0.007812,0.000000,0.000000,0.001553,0.010072,-0.000305,1.012663,0.000977,0.000488,0.002197,0,0,0,0
261.683167,1.609375,2.886719,0.007812,0.000000,0.000000,0.002106,0.010072,-0.000305,1.012663,-0.001221,0.001465,0.000732,0,0,0,0
261.692932,1.609375,2.886719,0.007812,0.000000,0.000000,0.002453,0.010072,-0.000305,1.012663,-0.001709,0.000488,0.000732,0,0,0,0
261.702698,1.609375,2.886719,0.007812,0.000000,0.000000,0.002636,0.010072,-0.000305,1.012663,-0.002197,-0.000977,-0.001953,0,0,0,0
261.712463,1.609375,2.886719,0.007812,0.000000,0.000000,0.002998,0.010072,-0.000305,1.012663,-0.001221,0.000488,0.000244,0,0,0,0
261.722229,1.609375,2.886719,0.007812,0.000000,0.000000,0.002748,0.010072,-0.000305,1.012663,-0.000244,-0.001465,0.000732,0,0,0,0
261.731995,1.609375,2.886719,0.007812,0.000000,0.000000,0.002785,0.010072,-0.000305,1.012663,0.000977,0.001465,0.000732,0,0,0,0
261.741760,1.609375,2.886719,0.007812,0.000000,0.000000,0.002613,0.010072,-0.000305,1.012663,0.001465,-0.001465,0.001709,0,0,0,0
261.751526,1.609375,2.886719,0.007812,0.000000,0.000000,0.002480,0.010072,-0.000305,1.012663,-0.001221,0.002197,-0.000977,0,0,0,0
261.761292,1.609375,2.886719,0.007812,0.000000,0.000000,0.002369,0.010072,-0.000305,1.012663,0.000488,-0.001465,0.000732,0,0,0,0
261.771057,1.609375,2.886719,0.007812,0.000000,0.000000,0.002384,0.010010,-0.000244,1.012451,-0.001221,0.002197,-0.000488,0,0,0,0
261.780823,1.609375,2.886719,0.007812,0.000000,0.000000,0.002407,0.010072,-0.000305,1.012663,0.000488,0.000488,0.002197,0,0,0,0
261.790588,1.609375,2.886719,0.007812,0.000000,0.000000,0.003988,0.010072,-0.000305,1.012663,0.000977,0.003662,0.001221,0,0,0,0
261.800354,1.609375,2.886719,0.007812,0.000000,0.000000,0.003807,0.010072,-0.000305,1.012663,0.000977,0.002197,0.003418,0,0,0,0
261.810120,1.609375,2.886719,0.007812,0.000000,0.000000,0.003115,0.010072,-0.000305,1.012663,0.001953,0.001465,-0.000488,0,0,0,0
261.819885,1.609375,2.886719,0.007812,0.000000,0.000000,0.003130,0.010072,-0.000305,1.012663,0.001953,-0.000977,-0.000977,0,0,0,0
261.829651,1.609375,2.886719,0.007812,0.000000,0.000000,0.003504,0.010072,-0.000305,1.012663,0.001953,-0.000977,-0.000977,0,0,0,0
261.839417,1.609375,2.886719,0.007812,0.000000,0.000000,0.003372,0.010072,-0.000305,1.012663,0.000977,-0.002441,-0.000488,0,0,0,0
261.849182,1.609375,2.886719,0.007812,0.000000,0.000000,0.003727,0.010072,-0.000305,1.012663,-0.001709,-0.001465,-0.000977,0,0,0,0
261.858948,1.609375,2.886719,0.007812,0.000000,0.000000,0.003769,0.010072,-0.000305,1.012663,0.000488,-0.000977,-0.001465,0,0,0,0
261.868713,1.609375,2.886719,0.007812,0.000000,0.000000,0.004213,0.010071,-0.000305,1.012643,0.001953,0.000488,-0.000488,0,0,0,0
261.878479,1.609375,2.886719,0.007812,0.000000,0.000000,0.004061,0.010071,-0.000305,1.012643,0.000488,0.000977,0.002197,0,0,0,0
261.888245,1.609375,2.886719,0.007812,0.000000,0.000000,0.003792,0.010071,-0.000305,1.012643,-0.001221,0.000977,-0.001953,0,0,0,0
261.898010,1.609375,2.886719,0.007812,0.000000,0.000000,0.004013,0.010071,-0.000305,1.012643,0.000488,0.000977,0.002197,0,0,0,0
261.907776,1.609375,2.886719,0.007812,0.000000,0.000000,0.003345,0.010132,-0.000244,1.012643,0.003662,-0.000488,-0.000488,0,0,0,0
261.917542,1.609375,2.886719,0.007812,0.000000,0.000000,0.003181,0.010132,-0.000244,1.012643,-0.001221,0.000488,-0.001465,0,0,0,0
261.927307,1.609375,2.886719,0.007812,0.000000,0.000000,0.003376,0.010132,-0.000244,1.012643,0.000977,-0.000488,0.000244,0,0,0,0
261.937073,1.609375,2.886719,0.007812,0.000000,0.000000,0.002651,0.010132,-0.000244,1.012643,-0.001221,0.003174,0.001709,0,0,0,0
261.946838,1.609375,2.886719,0.007812,0.000000,0.000000,0.004206,0.010132,-0.000244,1.012643,0.000488,0.002686,0.001709,0,0,0,0
261.956604,1.609375,2.886719,0.007812,0.000000,0.000000,0.003988,0.010132,-0.000244,1.012643,-0.000244,0.000000,0.001221,0,0,0,0
261.966370,1.609375,2.886719,0.007812,0.000000,0.000000,0.003773,0.010132,-0.000244,1.012643,-0.001709,0.000977,-0.000488,0,0,0,0
261.976135,1.609375,2.886719,0.007812,0.000000,0.000000,0.003193,0.010132,-0.000244,1.012643,-0.001221,0.003174,-0.000488,0,0,0,0
261.985901,1.609375,2.886719,0.007812,0.000000,0.000000,0.003624,0.010132,-0.000244,1.012643,0.000488,-0.000977,-0.001953,0,0,0,0
261.995667,1.609375,2.886719,0.007812,0.000000,0.000000,0.004198,0.010132,-0.000244,1.012643,-0.002686,-0.000488,0.000244,0,0,0,0
262.005432,1.609375,2.886719,0.007812,-0.009998,-0.009998,0.003462,0.010132,-0.000244,1.012643,-0.002197,0.003174,-0.001465,0,0,0,0
262.015198,1.609375,2.886719,0.007812,-0.009998,-0.009998,0.003056,0.010132,-0.000244,1.012643,0.000977,0.000977,-0.000488,0,0,0,0
262.024963,1.609375,2.886719,0.007812,-0.009998,-0.009998,0.005480,0.010132,-0.000244,1.012643,0.000488,0.001465,-0.000488,0,0,0,0
262.034729,1.609375,2.886719,0.007812,0.000000,0.000000,0.004444,0.010132,-0.000244,1.012643,0.000977,-0.002441,-0.001953,0,0,0,0
262.044495,1.609375,2.886719,0.007812,0.000000,0.000000,0.004482,0.010133,-0.000244,1.012611,0.000488,0.000488,-0.002441,0,0,0,0
262.054260,1.609375,2.886719,0.007812,0.000000,0.000000,0.004641,0.010133,-0.000244,1.012611,0.000977,-0.000977,0.000244,0,0,0,0
262.064026,1.609375,2.886719,0.007812,0.000000,0.000000,0.004473,0.010133,-0.000244,1.012611,0.000977,-0.000488,0.000244,0,0,0,0
262.073792,1.609375,2.886719,0.007812,0.000000,0.000000,0.003235,0.010133,-0.000244,1.012611,-0.000244,-0.001465,-0.000488,0,0,0,0
262.083557,1.609375,2.886719,0.007812,0.000000,0.000000,0.003416,0.010133,-0.000244,1.012611,-0.001221,0.000000,-0.000488,0,0,0,0
262.093323,1.609375,2.886719,0.007812,0.000000,0.000000,0.003437,0.010133,-0.000244,1.012611,-0.001221,0.000488,-0.000488,0,0,0,0
262.103088,1.609375,2.886719,0.007812,-0.009998,-0.019999,0.004456,0.010133,-0.000244,1.012611,0.001953,-0.002441,0.000732,0,0,0,0
262.112854,1.609375,2.886719,0.007812,-0.009998,-0.019999,0.004784,0.010133,-0.000244,1.012611,0.003174,-0.000488,0.000732,0,0,0,0
262.122620,1.609375,2.886719,0.007812,-0.009998,-0.019999,0.004601,0.010133,-0.000244,1.012611,0.000977,-0.000488,0.000732,0,0,0,0
262.132385,1.609375,2.886719,0.007812,-0.009998,-0.019999,0.004702,0.010133,-0.000244,1.012611,-0.001221,0.000977,0.000732,0,0,0,0
262.142151,1.609375,2.886719,0.007812,-0.009998,-0.019999,0.003809,0.010010,-0.000244,1.012451,0.000488,-0.000488,0.000732,0,0,0,0
262.151917,1.609375,2.886719,0.007812,-0.009998,-0.019999,0.003839,0.010133,-0.000244,1.012611,0.003174,-0.000977,-0.001465,0,0,0,0
262.161682,1.609375,2.886719,0.007812,-0.009998,-0.019999,0.003923,0.010133,-0.000244,1.012611,-0.000244,0.002686,-0.000488,0,0,0,0
262.171448,1.609375,2.886719,0.007812,0.000000,0.000000,0.003036,0.010133,-0.000244,1.012611,-0.001221,0.000000,0.001221,0,0,0,0
262.181213,1.609375,2.886719,0.007812,0.000000,0.000000,0.004135,0.010133,-0.000244,1.012611,0.001465,0.000000,-0.001953,0,0,0,0
262.190979,1.609375,2.886719,0.007812,0.000000,0.000000,0.004215,0.010133,-0.000244,1.012611,0.003174,0.000977,-0.001465,0,0,0,0
262.200745,1.609375,2.886719,0.007812,0.000000,0.000000,0.004065,0.010133,-0.000244,1.012611,-0.000732,-0.000977,-0.000488,0,0,0,0
262.210510,1.609375,2.886719,0.007812,0.000000,0.000000,0.003225,0.010133,-0.000244,1.012611,0.002441,0.000977,0.000732,0,0,0,0
262.220276,1.609375,2.886719,0.007812,0.000000,0.000000,0.003080,0.010133,-0.000244,1.012611,0.003174,-0.002441,-0.000977,0,0,0,0
262.230042,1.609375,2.886719,0.007812,0.000000,0.000000,0.003378,0.010133,-0.000244,1.012611,0.000977,0.002197,0.000244,0,0,0,0
262.239807,1.609375,2.886719,0.007812,0.000000,0.000000,0.002975,0.010133,-0.000244,1.012611,0.001465,0.000977,-0.000488,0,0,0,0
262.249573,1.609375,2.886719,0.007812,0.000000,0.000000,0.003078,0.010133,-0.000244,1.012611,0.000488,-0.000488,0.000732,0,0,0,0
262.259338,1.609375,2.886719,0.007812,0.000000,0.000000,0.004229,0.010133,-0.000244,1.012611,0.001465,0.000000,0.002197,0,0,0,0
262.269104,1.609375,2.886719,0.007812,0.000000,0.000000,0.003403,0.010133,-0.000244,1.012611,0.000488,0.002197,-0.001465,0,0,0,0
262.278870,1.609375,2.886719,0.007812,0.000000,0.000000,0.003687,0.010133,-0.000244,1.012611,-0.001709,-0.001953,0.001709,0,0,0,0
262.288635,1.609375,2.886719,0.007812,0.000000,0.000000,0.003799,0.010133,-0.000244,1.012611,-0.000244,-0.002930,-0.000488,0,0,0,0
262.298401,1.609375,2.886719,0.007812,0.000000,0.000000,0.003490,0.010133,-0.000244,1.012611,0.000977,-0.000977,-0.000488,0,0,0,0
262.308167,1.609375,2.886719,0.007812,0.000000,0.000000,0.003035,0.010133,-0.000244,1.012611,0.000488,0.002686,-0.000488,0,0,0,0
262.317932,1.609375,2.886719,0.007812,0.000000,0.000000,0.003191,0.010133,-0.000244,1.012611,0.002441,-0.002441,0.000244,0,0,0,0
262.327698,1.609375,2.886719,0.007812,0.000000,0.000000,0.003284,0.010133,-0.000244,1.012611,-0.001221,0.002686,0.001221,0,0,0,0
262.337463,1.609375,2.886719,0.007812,0.000000,0.000000,0.003906,0.010133,-0.000244,1.012611,0.001953,0.000488,-0.000977,0,0,0,0
262.347229,1.609375,2.886719,0.007812,0.000000,0.000000,0.003868,0.010133,-0.000244,1.012611,0.000488,0.000488,-0.000977,0,0,0,0
262.356995,1.609375,2.886719,0.007812,0.000000,0.000000,0.003706,0.010133,-0.000244,1.012611,-0.001709,0.000488,-0.000488,0,0,0,0
262.366760,1.609375,2.886719,0.007812,0.000000,0.000000,0.003725,0.010133,-0.000244,1.012611,-0.000732,0.000488,-0.000977,0,0,0,0
262.376526,1.609375,2.886719,0.007812,0.000000,0.000000,0.002850,0.010133,-0.000244,1.012611,-0.000732,0.002197,-0.000977,0,0,0,0
262.386292,1.609375,2.886719,0.007812,0.000000,0.000000,0.003126,0.010133,-0.000244,1.012611,-0.001709,-0.000977,-0.000488,0,0,0,0
262.396057,1.609375,2.886719,0.007812,0.000000,0.000000,0.003410,0.010133,-0.000244,1.012611,-0.000732,0.000977,-0.001465,0,0,0,0
262.405823,1.609375,2.886719,0.007812,0.000000,0.000000,0.003099,0.010133,-0.000244,1.012579,0.000977,-0.002441,0.000244,0,0,0,0
262.415588,1.609375,2.886719,0.007812,0.000000,0.000000,0.002102,0.010133,-0.000244,1.012579,-0.000244,-0.001465,0.000732,0,0,0,0
262.425354,1.609375,2.886719,0.007812,0.000000,0.000000,0.002028,0.010133,-0.000183,1.012579,0.000977,-0.000488,0.001221,0,0,0,0
262.435120,1.609375,2.886719,0.007812,0.000000,0.000000,0.001598,0.010133,-0.000183,1.012579,0.000977,0.000977,-0.001953,0,0,0,0
262.444885,1.609375,2.886719,0.007812,0.000000,0.000000,0.001122,0.010010,0.000000,1.012207,-0.002197,0.000000,0.000732,0,0,0,0
262.454651,1.609375,2.886719,0.007812,0.000000,0.000000,0.000874,0.010133,-0.000183,1.012579,-0.002686,0.000977,0.000244,0,0,0,0
262.464417,1.609375,2.886719,0.007812,0.000000,0.000000,0.000982,0.010133,-0.000183,1.012579,0.001465,0.000977,-0.001953,0,0,0,0
262.474182,1.609375,2.886719,0.007812,0.000000,0.000000,0.000719,0.010133,-0.000183,1.012579,0.000488,0.002197,-0.002441,0,0,0,0
262.483948,1.609375,2.886719,0.007812,0.000000,0.000000,0.000980,0.010133,-0.000183,1.012579,0.001465,0.000000,0.002197,0,0,0,0
262.493713,1.609375,2.886719,0.007812,0.000000,0.000000,0.002615,0.010133,-0.000183,1.012579,-0.000732,0.000488,-0.000488,0,0,0,0
262.503479,1.609375,2.886719,0.007812,0.000000,0.000000,0.001667,0.010133,-0.000183,1.012579,0.001953,0.000000,0.000732,0,0,0,0
262.513245,1.609375,2.886719,0.007812,0.000000,0.000000,0.001892,0.010133,-0.000183,1.012579,-0.001221,0.000000,-0.000977,0,0,0,0
262.523010,1.609375,2.886719,0.007812,0.000000,0.000000,0.001339,0.010133,-0.000183,1.012579,0.001953,-0.000488,0.000244,0,0,0,0
262.532776,1.609375,2.886719,0.007812,0.000000,0.000000,0.001337,0.010133,-0.000183,1.012579,0.001465,0.000488,-0.000488,0,0,0,0
262.542542,1.609375,2.886719,0.007812,0.000000,0.000000,0.000765,0.010133,-0.000183,1.012579,-0.001221,-0.000977,0.000732,0,0,0,0
262.552307,1.609375,2.886719,0.007812,0.000000,0.000000,0.000830,0.010133,-0.000183,1.012579,0.000488,-0.000488,0.001221,0,0,0,0
262.562073,1.609375,2.886719,0.007812,0.000000,0.000000,0.000719,0.010132,-0.000183,1.012508,0.001953,0.002197,0.000244,0,0,0,0
262.571838,1.609375,2.886719,0.007812,0.000000,0.000000,0.001577,0.010132,-0.000183,1.012508,0.001465,-0.002930,0.000244,0,0,0,0
262.581604,1.609375,2.886719,0.007812,0.000000,0.000000,0.001747,0.010132,-0.000183,1.012508,0.000488,-0.001465,-0.001953,0,0,0,0
262.591370,1.609375,2.886719,0.007812,0.000000,0.000000,0.001820,0.010132,-0.000183,1.012508,0.003174,0.000488,0.001709,0,0,0,0
262.601135,1.609375,2.886719,0.007812,0.000000,0.000000,0.002077,0.010132,-0.000183,1.012508,0.003662,0.002197,0.001221,0,0,0,0
262.610901,1.609375,2.886719,0.007812,0.000000,0.000000,0.001406,0.010132,-0.000183,1.012508,0.000977,-0.002441,-0.000488,0,0,0,0
262.620667,1.609375,2.886719,0.007812,0.000000,0.000000,0.001146,0.010132,-0.000183,1.012508,0.001953,-0.001465,0.000732,0,0,0,0
262.630432,1.609375,2.886719,0.007812,0.000000,0.000000,0.000883,0.010132,-0.000183,1.012508,0.001953,0.001465,-0.000977,0,0,0,0
262.640198,1.609375,2.886719,0.007812,0.000000,0.000000,0.000200,0.010132,-0.000183,1.012508,0.000977,-0.001953,0.001221,0,0,0,0
262.649963,1.609375,2.886719,0.007812,0.000000,0.000000,0.001207,0.010132,-0.000183,1.012508,0.000488,0.002197,-0.001953,0,0,0,0
262.659729,1.609375,2.886719,0.007812,0.000000,0.000000,0.001007,0.010132,-0.000183,1.012508,0.000977,0.000488,-0.000488,0,0,0,0
262.669495,1.609375,2.886719,0.007812,0.000000,0.000000,0.000593,0.010132,-0.000183,1.012508,-0.002686,0.002197,-0.000488,0,0,0,0
262.679260,1.609375,2.886719,0.007812,0.000000,0.000000,0.000710,0.010132,-0.000183,1.012508,0.001465,-0.000977,-0.000977,0,0,0,0
262.689026,1.609375,2.886719,0.007812,0.000000,0.000000,0.000790,0.010132,-0.000183,1.012508,-0.003418,-0.001953,-0.000977,0,0,0,0
262.698792,1.609375,2.886719,0.007812,0.000000,0.000000,0.001207,0.010132,-0.000183,1.012508,0.000977,-0.001953,0.000732,0,0,0,0
262.708557,1.609375,2.886719,0.007812,0.000000,0.000000,0.000692,0.010132,-0.000183,1.012508,-0.000244,-0.000488,0.000244,0,0,0,0
262.718323,1.609375,2.886719,0.007812,0.000000,0.000000,0.000952,0.010132,-0.000183,1.012508,-0.001709,0.000977,0.000244,0,0,0,0
262.728088,1.609375,2.886719,0.007812,0.000000,0.000000,0.001364,0.010132,-0.000183,1.012508,0.000977,0.000977,-0.001953,0,0,0,0
262.737854,1.609375,2.886719,0.007812,0.000000,0.000000,0.000986,0.010132,-0.000183,1.012508,0.000977,0.000000,0.001709,0,0,0,0
262.747620,1.609375,2.886719,0.007812,0.000000,0.000000,0.000980,0.010132,-0.000183,1.012508,0.003174,-0.001953,-0.002441,0,0,0,0
262.757385,1.609375,2.886719,0.007812,0.000000,0.000000,0.000895,0.010132,-0.000183,1.012508,-0.000244,0.000488,-0.000977,0,0,0,0
262.767151,1.609375,2.886719,0.007812,0.000000,0.000000,0.000748,0.010132,-0.000183,1.012508,-0.000244,0.002197,0.004395,0,0,0,0
262.776917,1.609375,2.886719,0.007812,0.000000,0.000000,0.000486,0.010132,-0.000183,1.012508,-0.001709,0.000000,-0.002441,0,0,0,0
262.786682,1.609375,2.886719,0.007812,0.000000,0.000000,0.000940,0.010132,-0.000183,1.012508,0.001465,0.000000,0.000732,0,0,0,0
262.796448,1.609375,2.886719,0.007812,0.000000,0.000000,0.000803,0.010132,-0.000183,1.012508,0.000977,0.000488,-0.000977,0,0,0,0
262.806213,1.609375,2.886719,0.007812,0.000000,0.000000,0.001434,0.010132,-0.000183,1.012508,-0.001221,0.000000,-0.000488,0,0,0,0
262.815979,1.609375,2.886719,0.007812,0.000000,0.000000,0.001610,0.010010,0.000000,1.012451,-0.001709,-0.000488,-0.000488,0,0,0,0
262.825745,1.609375,2.886719,0.007812,0.000000,0.000000,0.001966,0.010132,-0.000183,1.012508,-0.000732,-0.000977,-0.000488,0,0,0,0
262.835510,1.609375,2.886719,0.007812,0.000000,0.000000,0.001640,0.010132,-0.000183,1.012508,0.000488,0.002686,-0.000977,0,0,0,0
262.845276,1.609375,2.886719,0.007812,0.000000,0.000000,0.001768,0.010132,-0.000183,1.012508,0.000488,0.000488,0.000732,0,0,0,0
262.855042,1.609375,2.886719,0.007812,0.000000,0.000000,0.002031,0.010132,-0.000183,1.012508,-0.000732,0.000977,0.001709,0,0,0,0
262.864807,1.609375,2.886719,0.007812,0.000000,0.000000,0.002222,0.010132,-0.000183,1.012508,-0.001709,0.000488,0.001221,0,0,0,0
262.874573,1.609375,2.886719,0.007812,0.000000,0.000000,0.001823,0.010132,-0.000183,1.012508,-0.000732,0.001465,0.000732,0,0,0,0
262.884338,1.609375,2.886719,0.007812,0.000000,0.000000,0.002909,0.010132,-0.000183,1.012508,-0.000244,0.002686,-0.000488,0,0,0,0
262.894104,1.609375,2.886719,0.007812,0.000000,0.000000,0.002665,0.010132,-0.000183,1.012508,0.000977,0.000000,-0.000488,0,0,0,0
262.903870,1.609375,2.886719,0.007812,0.000000,0.000000,0.002155,0.010132,-0.000183,1.012508,0.001953,0.000977,0.002930,0,0,0,0
262.913635,1.609375,2.886719,0.007812,0.000000,0.000000,0.002132,0.010132,-0.000183,1.012508,0.003174,0.002686,0.001221,0,0,0,0
262.923401,1.609375,2.886719,0.007812,0.000000,0.000000,0.002462,0.010193,-0.000122,1.012508,0.000488,-0.000488,-0.001953,0,0,0,0
262.933167,1.609375,2.886719,0.007812,0.000000,0.000000,0.002323,0.010193,-0.000122,1.012508,0.000488,0.002686,-0.001465,0,0,0,0
262.942932,1.609375,2.886719,0.007812,0.000000,0.000000,0.001867,0.010193,-0.000122,1.012508,0.001465,0.000488,0.000244,0,0,0,0
262.952698,1.609375,2.886719,0.007812,0.000000,0.000000,0.001757,0.010193,-0.000122,1.012508,0.001953,0.000000,0.001709,0,0,0,0
262.962463,1.609375,2.886719,0.007812,0.000000,0.000000,0.002676,0.010193,-0.000122,1.012508,-0.000244,0.000977,0.001709,0,0,0,0
262.972229,1.609375,2.886719,0.007812,0.000000,0.000000,0.001930,0.010193,-0.000122,1.012508,-0.001221,0.000000,0.001221,0,0,0,0
262.981995,1.609375,2.886719,0.007812,0.000000,0.000000,0.002270,0.010193,-0.000122,1.012508,0.001465,0.001465,0.000244,0,0,0,0
262.991760,1.609375,2.886719,0.007812,0.000000,0.000000,0.002367,0.010193,-0.000122,1.012508,0.001953,0.000000,0.001709,0,0,0,0
263.001526,1.609375,2.886719,0.007812,0.000000,0.000000,0.002396,0.010193,-0.000122,1.012508,0.000488,0.000488,-0.000977,0,0,0,0
263.011292,1.609375,2.886719,0.007812,0.000000,0.000000,0.002192,0.010193,-0.000122,1.012508,0.001465,0.000488,0.000244,0,0,0,0
263.021057,1.609375,2.886719,0.007812,0.000000,0.000000,0.002312,0.010193,-0.000122,1.012508,0.000488,0.002197,0.000732,0,0,0,0
263.030823,1.609375,2.886719,0.007812,0.000000,0.000000,0.001720,0.010193,-0.000122,1.012508,0.002441,0.000977,0.000244,0,0,0,0
263.040588,1.609375,2.886719,0.007812,0.000000,0.000000,0.001198,0.010193,-0.000122,1.012508,-0.000244,0.000000,-0.000977,0,0,0,0
263.050354,1.609375,2.886719,0.007812,0.000000,0.000000,0.001144,0.010193,-0.000122,1.012508,-0.002686,0.000488,0.001221,0,0,0,0
263.060120,1.609375,2.886719,0.007812,0.000000,0.000000,0.001354,0.010193,-0.000122,1.012508,-0.000732,-0.001465,0.000244,0,0,0,0
263.069885,1.609375,2.886719,0.007812,0.000000,0.000000,0.001110,0.010193,-0.000122,1.012508,0.000488,0.000488,-0.002930,0,0,0,0
263.079651,1.609375,2.886719,0.007812,0.000000,0.000000,0.000946,0.010193,-0.000122,1.012508,-0.001709,-0.001465,-0.000977,0,0,0,0
263.089417,1.609375,2.886719,0.007812,0.000000,0.000000,0.001032,0.010193,-0.000122,1.012508,-0.002197,0.001465,-0.001465,0,0,0,0
263.099182,1.609375,2.886719,0.007812,0.000000,0.000000,0.000887,0.010193,-0.000122,1.012508,-0.000244,0.000000,0.001221,0,0,0,0
263.108948,1.609375,2.886719,0.007812,0.000000,0.000000,0.000923,0.010193,-0.000122,1.012508,-0.000732,0.000000,0.000244,0,0,0,0
263.118713,1.609375,2.886719,0.007812,0.000000,0.000000,0.000546,0.010132,-0.000122,1.012508,-0.001709,-0.001953,0.000244,0,0,0,0
263.128479,1.609375,2.886719,0.007812,0.000000,0.000000,0.000603,0.010132,-0.000122,1.012508,-0.000732,0.000000,-0.001953,0,0,0,0
263.138245,1.609375,2.886719,0.007812,0.000000,0.000000,0.000568,0.010132,-0.000122,1.012508,-0.002197,0.000000,0.002197,0,0,0,0
263.148010,1.609375,2.886719,0.007812,0.000000,0.000000,0.000755,0.010132,-0.000122,1.012508,-0.002197,0.000488,-0.000488,0,0,0,0
263.157776,1.609375,2.886719,0.007812,0.000000,0.000000,0.001146,0.010132,-0.000122,1.012508,-0.002197,-0.001953,0.001709,0,0,0,0
263.167542,1.609375,2.886719,0.007812,0.000000,0.000000,0.000967,0.010132,-0.000122,1.012508,0.000488,0.000488,-0.000488,0,0,0,0
263.177307,1.609375,2.886719,0.007812,0.000000,0.000000,0.000721,0.010132,-0.000122,1.012508,-0.002197,0.000977,-0.000488,0,0,0,0
263.187073,1.609375,2.886719,0.007812,0.000000,0.000000,0.000887,0.010010,0.000000,1.012451,-0.001221,-0.000977,0.000732,0,0,0,0
263.196838,1.609375,2.886719,0.007812,0.000000,0.000000,-0.000107,0.010132,-0.000122,1.012508,-0.002197,0.000000,0.000732,0,0,0,0
263.206604,1.609375,2.886719,0.007812,0.000000,0.000000,-0.000219,0.010132,-0.000122,1.012508,0.000488,0.000977,-0.002930,0,0,0,0
263.216370,1.609375,2.886719,0.007812,0.000000,0.000000,-0.000242,0.010132,-0.000122,1.012508,-0.001709,0.002197,0.001709,0,0,0,0
263.226135,1.609375,2.886719,0.007812,0.000000,0.000000,0.000006,0.010132,-0.000122,1.012508,-0.002197,-0.000488,0.001221,0,0,0,0
263.235901,1.609375,2.886719,0.007812,0.000000,0.000000,0.000601,0.010132,-0.000122,1.012508,0.001953,-0.000977,-0.000977,0,0,0,0
263.245667,1.609375,2.886719,0.007812,0.000000,0.000000,0.000771,0.010132,-0.000122,1.012508,-0.002686,-0.001465,-0.001465,0,0,0,0
263.255432,1.609375,2.886719,0.007812,0.000000,0.000000,0.000523,0.010132,-0.000122,1.012508,0.001465,-0.001465,-0.000977,0,0,0,0
263.265198,1.609375,2.886719,0.007812,0.000000,0.000000,0.000431,0.010071,-0.000183,1.012508,0.000977,0.000977,0.000244,0,0,0,0
263.274963,1.609375,2.886719,0.007812,0.000000,0.000000,-0.000639,0.010071,-0.000183,1.012508,0.002441,0.001465,-0.000488,0,0,0,0
263.284729,1.609375,2.886719,0.007812,0.000000,0.000000,-0.000916,0.010071,-0.000183,1.012508,-0.000244,0.002197,0.000244,0,0,0,0
263.294495,1.609375,2.886719,0.007812,0.000000,0.000000,-0.001066,0.010071,-0.000183,1.012508,0.001953,0.000000,-0.000977,0,0,0,0
263.304260,1.609375,2.886719,0.007812,0.000000,0.000000,-0.000814,0.010071,-0.000183,1.012508,0.003662,0.000977,0.001709,0,0,0,0
263.314026,1.609375,2.886719,0.007812,0.000000,0.000000,-0.001120,0.010071,-0.000183,1.012508,0.003174,0.000977,0.002197,0,0,0,0
263.323792,1.609375,2.886719,0.007812,0.000000,0.000000,-0.001484,0.010071,-0.000183,1.012508,0.003174,0.000000,0.000732,0,0,0,0
263.333557,1.609375,2.886719,0.007812,0.000000,0.000000,-0.001120,0.010071,-0.000183,1.012508,0.001953,0.000000,-0.001465,0,0,0,0
263.343323,1.609375,2.886719,0.007812,0.000000,0.000000,-0.000834,0.010010,-0.000122,1.012508,-0.001221,0.000977,0.000732,0,0,0,0
263.353088,1.609375,2.886719,0.007812,0.000000,0.000000,-0.001377,0.010010,-0.000122,1.012508,0.000977,-0.001953,0.000244,0,0,0,0
263.362854,1.609375,2.886719,0.007812,0.000000,0.000000,-0.001566,0.010010,-0.000122,1.012508,-0.000244,0.000977,0.001221,0,0,0,0
263.372620,1.609375,2.886719,0.007812,0.000000,0.000000,-0.001087,0.010010,-0.000122,1.012508,-0.000244,0.003662,0.000244,0,0,0,0
263.382385,1.609375,2.886719,0.007812,0.000000,0.000000,-0.000851,0.010010,-0.000122,1.012508,-0.001221,-0.001953,0.001709,0,0,0,0
263.392151,1.609375,2.886719,0.007812,0.000000,0.000000,-0.000378,0.010010,-0.000122,1.012508,-0.000244,-0.000977,0.001221,0,0,0,0
263.401917,1.609375,2.886719,0.007812,0.000000,0.000000,-0.000048,0.010010,-0.000122,1.012508,0.000488,0.000977,0.000732,0,0,0,0
263.411682,1.609375,2.886719,0.007812,0.000000,0.000000,-0.000048,0.010010,-0.000122,1.012508,-0.000244,0.000977,-0.001465,0,0,0,0
263.421448,1.609375,2.886719,0.007812,0.000000,0.000000,0.000086,0.010010,-0.000122,1.012508,0.000488,-0.000488,0.000244,0,0,0,0
263.431213,1.609375,2.886719,0.007812,0.000000,0.000000,-0.000786,0.010010,-0.000122,1.012508,-0.001221,0.002197,-0.001953,0,0,0,0
263.440979,1.609375,2.886719,0.007812,0.000000,0.000000,-0.000261,0.010010,-0.000122,1.012508,-0.000732,-0.000488,0.001221,0,0,0,0
263.450745,1.609375,2.886719,0.007812,0.000000,0.000000,-0.000044,0.010010,-0.000122,1.012508,-0.001221,-0.000488,0.000732,0,0,0,0
263.460510,1.609375,2.886719,0.007812,0.000000,0.000000,0.000048,0.010010,-0.000122,1.012508,-0.000244,-0.001465,-0.001465,0,0,0,0
263.470276,1.609375,2.886719,0.007812,0.000000,0.000000,0.000521,0.010010,-0.000122,1.012508,0.000488,0.001465,0.001221,0,0,0,0
263.480042,1.609375,2.886719,0.007812,0.000000,0.000000,0.000381,0.010010,-0.000122,1.012508,0.000488,0.000488,0.001709,0,0,0,0
263.489807,1.609375,2.886719,0.007812,0.000000,0.000000,0.000244,0.009766,0.000000,1.012451,-0.000244,0.000000,-0.002441,0,0,0,0
263.499573,1.609375,2.886719,0.007812,0.000000,0.000000,0.000088,0.010010,-0.000122,1.012508,-0.000732,0.000000,0.000244,0,0,0,0
263.509338,1.609375,2.886719,0.007812,0.000000,0.000000,-0.000603,0.010010,-0.000122,1.012508,-0.000732,-0.001465,0.001709,0,0,0,0
263.519104,1.609375,2.886719,0.007812,0.000000,0.000000,-0.000290,0.010010,-0.000122,1.012508,-0.002197,0.002197,0.000244,0,0,0,0
263.528870,1.609375,2.886719,0.007812,0.000000,0.000000,-0.000479,0.010071,-0.000061,1.012508,0.002441,-0.002441,0.000732,0,0,0,0
263.538635,1.609375,2.886719,0.007812,0.000000,0.000000,-0.000181,0.010071,-0.000061,1.012508,-0.002197,0.000488,-0.000488,0,0,0,0
263.548401,1.609375,2.886719,0.007812,0.000000,0.000000,-0.000181,0.010071,-0.000061,1.012508,-0.001709,-0.004150,0.001221,0,0,0,0
263.558167,1.609375,2.886719,0.007812,0.000000,0.000000,-0.000122,0.010071,-0.000061,1.012508,-0.000244,0.000977,0.000244,0,0,0,0
263.567932,1.609375,2.886719,0.007812,0.000000,0.000000,-0.000191,0.010071,-0.000061,1.012508,-0.000244,-0.000488,0.000732,0,0,0,0
263.577698,1.609375,2.886719,0.007812,0.000000,0.000000,0.000038,0.010071,-0.000061,1.012508,0.000488,0.001465,-0.000977,0,0,0,0
263.587463,1.609375,2.886719,0.007812,0.000000,0.000000,-0.001873,0.010071,-0.000061,1.012508,0.000488,-0.001465,-0.000488,0,0,0,0
263.597229,1.609375,2.886719,0.007812,0.000000,0.000000,-0.002001,0.010071,-0.000061,1.012508,0.000488,0.000000,0.000244,0,0,0,0
263.606995,1.609375,2.886719,0.007812,0.000000,0.000000,-0.001461,0.010071,-0.000061,1.012508,0.001465,-0.001465,-0.000488,0,0,0,0
263.616760,1.609375,2.886719,0.007812,0.000000,0.000000,-0.001890,0.010071,-0.000061,1.012508,0.002441,-0.000977,-0.001465,0,0,0,0
263.626526,1.609375,2.886719,0.007812,0.000000,0.000000,-0.001507,0.010071,-0.000061,1.012508,0.001465,-0.000488,-0.000488,0,0,0,0
263.636292,1.609375,2.886719,0.007812,-0.009998,-0.009998,-0.000795,0.010071,-0.000061,1.012508,0.000977,0.000977,-0.000488,0,0,0,0
263.646057,1.609375,2.886719,0.007812,-0.009998,-0.009998,-0.000740,0.010071,-0.000061,1.012508,-0.000244,-0.000488,0.001709,0,0,0,0
263.655823,1.609375,2.886719,0.007812,-0.009998,-0.009998,-0.000887,0.010071,-0.000061,1.012508,0.001465,-0.002441,-0.000488,0,0,0,0
263.665588,1.609375,2.886719,0.007812,-0.009998,-0.009998,-0.002384,0.010071,-0.000061,1.012508,0.002441,-0.000488,0.000244,0,0,0,0
263.675354,1.609375,2.886719,0.007812,0.000000,0.009998,-0.001808,0.010071,-0.000061,1.012508,0.000488,-0.000488,0.000244,0,0,0,0
263.685120,1.609375,2.886719,0.007812,0.000000,0.009998,-0.001848,0.010071,-0.000061,1.012508,0.002441,0.000488,-0.000977,0,0,0,0
263.694885,1.609375,2.886719,0.007812,0.000000,0.009998,-0.001711,0.010072,-0.000061,1.012475,-0.001221,0.000977,-0.000977,0,0,0,0
263.704651,1.609375,2.886719,0.007812,0.000000,0.000000,-0.000940,0.010072,-0.000061,1.012475,-0.000244,-0.002441,0.000244,0,0,0,0
263.714417,1.609375,2.886719,0.007812,0.000000,0.000000,-0.000917,0.010072,-0.000061,1.012475,0.000977,0.002197,-0.000977,0,0,0,0
263.724182,1.609375,2.886719,0.007812,0.000000,0.000000,-0.001223,0.010072,-0.000061,1.012475,-0.000244,-0.000488,-0.000977,0,0,0,0
263.733948,1.609375,2.886719,0.007812,0.000000,0.000000,-0.001072,0.010072,-0.000061,1.012475,0.004150,0.000977,-0.000977,0,0,0,0
263.743713,1.609375,2.886719,0.007812,0.000000,0.000000,-0.002094,0.010072,-0.000061,1.012475,-0.002686,-0.001465,-0.001465,0,0,0,0
263.753479,1.609375,2.886719,0.007812,0.000000,0.000000,-0.001728,0.010072,-0.000061,1.012475,-0.002686,-0.000977,0.001221,0,0,0,0
263.763245,1.609375,2.886719,0.007812,0.000000,0.000000,-0.001659,0.010072,-0.000061,1.012475,-0.000244,-0.000488,0.003906,0,0,0,0
263.773010,1.609375,2.886719,0.007812,0.000000,0.000000,-0.000513,0.010072,-0.000061,1.012475,0.000488,0.002686,-0.001465,0,0,0,0
263.782776,1.609375,2.886719,0.007812,0.000000,0.000000,-0.000460,0.010072,-0.000061,1.012475,0.001465,0.000000,-0.001953,0,0,0,0
263.792542,1.609375,2.886719,0.007812,0.000000,0.000000,-0.000595,0.010072,-0.000061,1.012475,0.001953,0.000488,-0.000488,0,0,0,0
263.802307,1.609375,2.886719,0.007812,-0.009998,-0.009998,0.000088,0.010072,-0.000061,1.012475,-0.001221,-0.001465,-0.000977,0,0,0,0
263.812073,1.609375,2.886719,0.007812,-0.009998,-0.009998,0.000402,0.010072,-0.000061,1.012475,-0.001221,-0.000488,-0.001953,0,0,0,0
263.821838,1.609375,2.886719,0.007812,-0.009998,-0.009998,-0.000731,0.010072,-0.000061,1.012475,0.001465,-0.000977,0.000732,0,0,0,0
263.831604,1.609375,2.886719,0.007812,-0.009998,-0.009998,-0.000546,0.010072,-0.000061,1.012475,0.001465,-0.000488,0.001221,0,0,0,0
263.841370,1.609375,2.886719,0.007812,0.000000,0.000000,0.000105,0.010072,-0.000061,1.012475,-0.001221,-0.000977,0.000244,0,0,0,0
263.851135,1.609375,2.886719,0.007812,0.000000,0.000000,0.000359,0.010072,-0.000061,1.012475,0.001465,-0.000977,-0.000488,0,0,0,0
263.860901,1.609375,2.886719,0.007812,0.000000,0.000000,0.000393,0.010010,0.000000,1.012207,0.000977,-0.001465,0.000732,0,0,0,0
263.870667,1.609375,2.886719,0.007812,0.000000,0.000000,0.000883,0.010072,-0.000061,1.012475,-0.001221,0.000977,-0.000977,0,0,0,0
263.880432,1.609375,2.886719,0.007812,0.000000,0.000000,0.000750,0.010072,-0.000061,1.012475,-0.002686,-0.000977,-0.001953,0,0,0,0
263.890198,1.609375,2.886719,0.007812,0.000000,0.000000,0.000734,0.010072,-0.000061,1.012475,-0.000732,-0.000488,-0.001465,0,0,0,0
263.899963,1.609375,2.886719,0.007812,0.000000,0.000000,0.000063,0.010072,-0.000061,1.012475,-0.000244,-0.000488,0.000732,0,0,0,0
263.909729,1.609375,2.886719,0.007812,0.000000,0.000000,0.000681,0.010072,-0.000061,1.012475,-0.001221,-0.000977,-0.001465,0,0,0,0
263.919495,1.609375,2.886719,0.007812,0.000000,0.000000,0.000866,0.010072,-0.000061,1.012475,0.000488,-0.001953,-0.000488,0,0,0,0
263.929260,1.609375,2.886719,0.007812,0.000000,0.000000,0.000851,0.010072,-0.000061,1.012475,-0.002197,0.000488,-0.001465,0,0,0,0
263.939026,1.609375,2.886719,0.007812,0.000000,0.000000,0.001562,0.010072,-0.000061,1.012475,0.000488,0.001465,-0.000977,0,0,0,0
263.948792,1.609375,2.886719,0.007812,0.000000,0.000000,0.001143,0.010072,-0.000061,1.012475,-0.000732,-0.000977,0.001221,0,0,0,0
263.958557,1.609375,2.886719,0.007812,0.000000,0.000000,0.001394,0.010072,-0.000061,1.012475,0.000488,0.000977,0.000732,0,0,0,0
263.968323,1.609375,2.886719,0.007812,0.000000,0.000000,0.001503,0.010072,-0.000061,1.012475,-0.001221,0.002686,-0.001953,0,0,0,0
263.978088,1.609375,2.886719,0.007812,0.000000,0.000000,0.001274,0.010072,-0.000061,1.012475,-0.000244,0.000000,0.000732,0,0,0,0
263.987854,1.609375,2.886719,0.007812,0.000000,0.000000,0.001413,0.010072,-0.000061,1.012475,0.000488,0.000000,0.001709,0,0,0,0
263.997620,1.609375,2.886719,0.007812,0.000000,0.000000,0.001720,0.010072,-0.000061,1.012475,0.000488,0.000977,-0.000977,0,0,0,0
264.007385,1.609375,2.886719,0.007812,0.000000,0.000000,0.001707,0.010072,-0.000061,1.012475,0.001953,-0.000488,0.001221,0,0,0,0
264.017151,1.609375,2.886719,0.007812,0.000000,0.000000,0.001556,0.010072,-0.000061,1.012475,0.000977,0.002197,-0.001953,0,0,0,0
264.026917,1.609375,2.886719,0.007812,0.000000,0.000000,0.001637,0.010072,-0.000061,1.012475,-0.000732,-0.000977,0.000732,0,0,0,0
264.036682,1.609375,2.886719,0.007812,0.000000,0.000000,0.001881,0.010072,-0.000061,1.012475,-0.000244,-0.000488,-0.001465,0,0,0,0
264.046448,1.609375,2.886719,0.007812,0.000000,0.000000,0.001865,0.010072,-0.000061,1.012475,-0.001709,-0.000488,-0.000977,0,0,0,0
264.056213,1.609375,2.886719,0.007812,0.000000,0.000000,0.001953,0.010072,-0.000061,1.012475,-0.001221,0.000488,-0.000488,0,0,0,0
264.065979,1.609375,2.886719,0.007812,0.000000,0.000000,0.002651,0.010072,-0.000061,1.012475,-0.000244,-0.000977,0.000244,0,0,0,0
264.075745,1.609375,2.886719,0.007812,0.000000,0.000000,0.002775,0.010011,-0.000061,1.012475,0.000977,0.000000,0.000732,0,0,0,0
264.085510,1.609375,2.886719,0.007812,0.000000,0.000000,0.002899,0.010011,-0.000061,1.012475,0.001953,-0.000977,-0.002441,0,0,0,0
264.095276,1.609375,2.886719,0.007812,0.000000,0.000000,0.002922,0.010011,-0.000061,1.012475,0.000488,-0.000488,-0.000977,0,0,0,0
264.105042,1.609375,2.886719,0.007812,0.000000,0.000000,0.003078,0.010011,-0.000061,1.012475,-0.000244,0.001465,0.002197,0,0,0,0
264.114807,1.609375,2.886719,0.007812,0.000000,0.000000,0.002890,0.010011,-0.000061,1.012475,-0.001709,-0.000488,-0.000488,0,0,0,0
264.124573,1.609375,2.886719,0.007812,0.000000,0.000000,0.002815,0.010011,-0.000061,1.012475,-0.000732,-0.001465,-0.000488,0,0,0,0
264.134338,1.609375,2.886719,0.007812,0.000000,0.000000,0.003090,0.010011,-0.000061,1.012475,0.001465,-0.001953,-0.001465,0,0,0,0
264.144104,1.609375,2.886719,0.007812,0.000000,0.000000,0.003420,0.010011,-0.000061,1.012475,0.002441,0.001465,0.001221,0,0,0,0
264.153870,1.609375,2.886719,0.007812,0.000000,0.000000,0.003492,0.010011,-0.000061,1.012475,0.000977,-0.000488,-0.002441,0,0,0,0
264.163635,1.609375,2.886719,0.007812,0.000000,0.000000,0.003607,0.009766,0.000000,1.012207,0.001953,0.000977,-0.001953,0,0,0,0
264.173401,1.609375,2.886719,0.007812,0.000000,0.000000,0.003599,0.010011,-0.000061,1.012475,-0.001221,-0.000977,0.000244,0,0,0,0
264.183167,1.609375,2.886719,0.007812,0.000000,0.000000,0.003210,0.010011,-0.000061,1.012475,-0.000732,-0.001465,-0.000488,0,0,0,0
264.192932,1.609375,2.886719,0.007812,0.000000,0.000000,0.003386,0.010011,-0.000061,1.012475,-0.002197,-0.000488,0.000732,0,0,0,0
264.202698,1.609375,2.886719,0.007812,0.000000,0.000000,0.002951,0.010011,-0.000061,1.012475,0.000488,-0.001953,0.000732,0,0,0,0
264.212463,1.609375,2.886719,0.007812,0.000000,0.000000,0.003736,0.010011,-0.000061,1.012475,-0.001221,0.000977,0.000244,0,0,0,0
264.222229,1.609375,2.886719,0.007812,0.000000,0.000000,0.003908,0.010011,-0.000061,1.012475,-0.004395,0.002197,0.000732,0,0,0,0
264.231995,1.609375,2.886719,0.007812,0.000000,0.000000,0.004204,0.010011,-0.000061,1.012475,0.000977,0.000000,-0.001465,0,0,0,0
264.241760,1.609375,2.886719,0.007812,0.000000,0.000000,0.004093,0.010011,-0.000061,1.012475,-0.000732,0.000977,-0.001953,0,0,0,0
264.251526,1.609375,2.886719,0.007812,0.000000,0.000000,0.004301,0.010011,-0.000061,1.012475,0.001465,0.000000,0.000244,0,0,0,0
264.261292,1.609375,2.886719,0.007812,0.000000,0.000000,0.004423,0.010011,-0.000061,1.012475,-0.004395,0.000488,-0.002930,0,0,0,0
264.271057,1.609375,2.886719,0.007812,0.000000,0.000000,0.004316,0.010011,-0.000061,1.012475,-0.001709,-0.003418,-0.000977,0,0,0,0
264.280823,1.609375,2.886719,0.007812,0.000000,0.000000,0.004421,0.010011,-0.000061,1.012475,-0.000732,-0.000977,-0.000977,0,0,0,0
264.290588,1.609375,2.886719,0.007812,0.000000,0.000000,0.004770,0.010011,-0.000061,1.012475,-0.002197,0.000977,-0.000488,0,0,0,0
264.300354,1.609375,2.886719,0.007812,0.000000,0.000000,0.004725,0.010011,-0.000061,1.012475,-0.003906,0.003662,0.001221,0,0,0,0
264.310120,1.609375,2.886719,0.007812,0.000000,0.000000,0.004318,0.010011,-0.000061,1.012475,0.001465,0.002197,-0.000488,0,0,0,0
264.319885,1.609375,2.886719,0.007812,0.000000,0.000000,0.004438,0.010011,-0.000061,1.012475,0.000977,0.002197,0.001709,0,0,0,0
264.329651,1.609375,2.886719,0.007812,0.000000,0.000000,0.004238,0.010011,-0.000061,1.012475,0.003662,0.000000,0.000732,0,0,0,0
264.339417,1.609375,2.886719,0.007812,0.000000,0.000000,0.004044,0.010011,-0.000061,1.012475,0.001953,-0.000977,-0.000977,0,0,0,0
264.349182,1.609375,2.886719,0.007812,0.000000,0.000000,0.004450,0.010011,-0.000061,1.012475,0.000488,0.000488,-0.000488,0,0,0,0
264.358948,1.609375,2.886719,0.007812,0.000000,0.000000,0.004063,0.010011,-0.000061,1.012475,0.001953,-0.001465,-0.000488,0,0,0,0
264.368713,1.609375,2.886719,0.007812,0.000000,0.000000,0.004450,0.010011,-0.000061,1.012475,0.003174,-0.000488,0.001221,0,0,0,0
264.378479,1.609375,2.886719,0.007812,0.000000,0.000000,0.004492,0.010011,-0.000061,1.012475,-0.000244,0.000000,-0.000977,0,0,0,0
264.388245,1.609375,2.886719,0.007812,0.000000,0.000000,0.004524,0.010011,-0.000061,1.012475,0.002441,-0.001465,-0.000977,0,0,0,0
264.398010,1.609375,2.886719,0.007812,0.000000,0.000000,0.004568,0.010011,-0.000061,1.012475,-0.000732,0.000977,-0.000488,0,0,0,0
264.407776,1.609375,2.886719,0.007812,0.000000,0.000000,0.004057,0.010011,-0.000061,1.012475,0.001953,0.000977,-0.000977,0,0,0,0
264.417542,1.609375,2.886719,0.007812,0.000000,0.000000,0.003853,0.010011,-0.000061,1.012475,0.001465,-0.000977,-0.000488,0,0,0,0
264.427307,1.609375,2.886719,0.007812,0.000000,0.000000,0.003904,0.010011,-0.000061,1.012475,-0.000244,-0.000488,-0.000977,0,0,0,0
264.437073,1.609375,2.886719,0.007812,0.000000,0.000000,0.003532,0.010011,-0.000061,1.012475,-0.000244,-0.001465,-0.001953,0,0,0,0
264.446838,1.609375,2.886719,0.007812,0.000000,0.000000,0.003754,0.010011,-0.000061,1.012475,0.001465,-0.001953,0.001709,0,0,0,0
264.456604,1.609375,2.886719,0.007812,0.000000,0.000000,0.003481,0.010011,-0.000061,1.012475,0.000977,0.000488,0.001221,0,0,0,0
264.466370,1.609375,2.886719,0.007812,0.000000,0.000000,0.003868,0.010011,-0.000061,1.012475,-0.002686,-0.000977,0.002197,0,0,0,0
264.476135,1.609375,2.886719,0.007812,-0.009998,-0.009998,0.003187,0.010011,-0.000061,1.012475,0.003662,-0.000977,0.001221,0,0,0,0
264.485901,1.609375,2.886719,0.007812,-0.009998,-0.009998,0.003330,0.010011,-0.000061,1.012475,-0.001709,0.001465,0.002197,0,0,0,0
264.495667,1.609375,2.886719,0.007812,-0.009998,-0.009998,0.003292,0.010011,-0.000061,1.012475,0.001953,-0.002441,0.001221,0,0,0,0
264.505432,1.609375,2.886719,0.007812,0.000000,0.000000,0.003016,0.010011,-0.000061,1.012475,0.001465,0.000488,-0.000977,0,0,0,0
264.515198,1.609375,2.886719,0.007812,0.000000,0.000000,0.002779,0.010011,-0.000061,1.012475,0.000977,-0.002441,-0.001953,0,0,0,0
264.524963,1.609375,2.886719,0.007812,0.000000,0.000000,0.001522,0.010011,-0.000061,1.012475,0.003174,0.000000,-0.000488,0,0,0,0
264.534729,1.609375,2.886719,0.007812,0.000000,0.000000,0.001598,0.009766,0.000000,1.012207,-0.000244,0.001465,-0.001465,0,0,0,0
264.544495,1.609375,2.886719,0.007812,0.000000,0.000000,0.001381,0.010011,-0.000061,1.012475,-0.001709,0.000977,0.000244,0,0,0,0
264.554260,1.609375,2.886719,0.007812,0.000000,0.000000,0.001801,0.010011,-0.000061,1.012475,-0.000732,0.000977,-0.000977,0,0,0,0
264.564026,1.609375,2.886719,0.007812,0.000000,0.000000,0.002129,0.010011,-0.000061,1.012475,-0.001221,-0.000488,-0.000488,0,0,0,0
264.573792,1.609375,2.886719,0.007812,0.000000,0.000000,0.002319,0.010011,-0.000061,1.012475,-0.000732,-0.000488,0.001709,0,0,0,0
264.583557,1.609375,2.886719,0.007812,0.000000,0.000000,0.002317,0.010011,-0.000061,1.012475,-0.001709,-0.002441,-0.000488,0,0,0,0
264.593323,1.609375,2.886719,0.007812,0.000000,0.000000,0.002449,0.010011,-0.000061,1.012475,0.001465,0.000488,0.001709,0,0,0,0
264.603088,1.609375,2.886719,0.007812,0.000000,0.000000,0.001604,0.010011,-0.000061,1.012475,-0.000244,-0.001465,0.002197,0,0,0,0
264.612854,1.609375,2.886719,0.007812,0.000000,0.000000,0.002125,0.010011,-0.000061,1.012475,-0.001221,0.000488,-0.001953,0,0,0,0
264.622620,1.609375,2.886719,0.007812,0.000000,0.000000,0.002035,0.010011,-0.000061,1.012475,-0.001709,0.001465,-0.000488,0,0,0,0
264.632385,1.609375,2.886719,0.007812,0.000000,0.000000,0.001991,0.010011,-0.000061,1.012475,-0.000244,-0.002441,-0.001953,0,0,0,0
264.642151,1.609375,2.886719,0.007812,0.000000,0.000000,0.002411,0.010011,-0.000061,1.012475,0.000977,0.001465,-0.001953,0,0,0,0
264.651917,1.609375,2.886719,0.007812,0.000000,0.000000,0.002018,0.010011,-0.000061,1.012475,0.000488,-0.000488,0.000732,0,0,0,0
264.661682,1.609375,2.886719,0.007812,0.000000,0.000000,0.002327,0.010011,-0.000061,1.012475,-0.000244,0.000977,-0.001953,0,0,0,0
264.671448,1.609375,2.886719,0.007812,0.000000,0.000000,0.002573,0.010011,-0.000061,1.012475,-0.000732,-0.000488,-0.000977,0,0,0,0
264.681213,1.609375,2.886719,0.007812,0.000000,0.000000,0.001701,0.010011,-0.000061,1.012475,0.000977,-0.000488,-0.000488,0,0,0,0
264.690979,1.609375,2.886719,0.007812,0.000000,0.000000,0.001453,0.010011,-0.000061,1.012475,0.000977,-0.001465,0.001221,0,0,0,0
264.700745,1.609375,2.886719,0.007812,0.000000,0.000000,0.001528,0.010011,-0.000061,1.012475,0.001953,0.002197,-0.002441,0,0,0,0
264.710510,1.609375,2.886719,0.007812,0.000000,0.000000,0.002308,0.010011,-0.000061,1.012475,-0.003906,-0.000977,-0.002441,0,0,0,0
264.720276,1.609375,2.886719,0.007812,0.000000,0.000000,0.002510,0.010011,-0.000061,1.012475,-0.001221,-0.000977,-0.000977,0,0,0,0
264.730042,1.609375,2.886719,0.007812,0.000000,0.000000,0.002447,0.010011,-0.000061,1.012475,-0.001709,-0.000488,0.001709,0,0,0,0
264.739807,1.609375,2.886719,0.007812,0.000000,0.000000,0.002651,0.010011,-0.000061,1.012475,0.002441,-0.001953,0.001709,0,0,0,0
264.749573,1.609375,2.886719,0.007812,0.000000,0.000000,0.002653,0.010011,-0.000061,1.012475,-0.001221,-0.001953,0.002197,0,0,0,0
264.759338,1.609375,2.886719,0.007812,0.000000,0.000000,0.002493,0.010011,-0.000061,1.012475,-0.001221,-0.003418,-0.001465,0,0,0,0
264.769104,1.609375,2.886719,0.007812,0.000000,0.000000,0.002539,0.010011,-0.000061,1.012475,0.003174,-0.000488,0.000244,0,0,0,0
264.778870,1.609375,2.886719,0.007812,0.000000,0.000000,0.002638,0.010011,-0.000061,1.012475,0.004150,-0.001465,0.000244,0,0,0,0
264.788635,1.609375,2.886719,0.007812,0.000000,0.000000,0.002684,0.010011,-0.000061,1.012475,0.001953,-0.000488,0.001221,0,0,0,0
264.798401,1.609375,2.886719,0.007812,0.000000,0.000000,0.002327,0.010011,-0.000061,1.012475,-0.000244,0.003174,-0.000977,0,0,0,0
264.808167,1.609375,2.886719,0.007812,0.000000,0.000000,0.002430,0.010011,-0.000061,1.012475,-0.000244,0.000977,-0.000488,0,0,0,0
264.817932,1.609375,2.886719,0.007812,0.000000,0.000000,0.002487,0.010011,-0.000061,1.012475,0.000488,0.000000,-0.001465,0,0,0,0
264.827698,1.609375,2.886719,0.007812,0.000000,0.000000,0.002441,0.010011,-0.000061,1.012475,0.000977,-0.001953,-0.000488,0,0,0,0
264.837463,1.609375,2.886719,0.007812,0.000000,0.000000,0.002563,0.009766,0.000000,1.012207,-0.000244,-0.000977,0.001221,0,0,0,0
264.847229,1.609375,2.886719,0.007812,0.000000,0.000000,0.002491,0.010011,-0.000061,1.012475,0.002441,0.002686,0.001221,0,0,0,0
264.856995,1.609375,2.886719,0.007812,0.000000,0.000000,0.002180,0.010011,-0.000061,1.012475,-0.001221,0.000000,0.002197,0,0,0,0
264.866760,1.609375,2.886719,0.007812,0.000000,0.000000,0.002064,0.010011,-0.000061,1.012475,0.000977,0.001465,-0.000488,0,0,0,0
264.876526,1.609375,2.886719,0.007812,0.000000,0.000000,0.001909,0.010011,-0.000061,1.012475,-0.000732,0.001465,0.001221,0,0,0,0
264.886292,1.609375,2.886719,0.007812,0.000000,0.000000,0.001648,0.010011,-0.000061,1.012475,0.001465,0.002686,0.000732,0,0,0,0
264.896057,1.609375,2.886719,0.007812,0.000000,0.000000,0.001619,0.010011,-0.000061,1.012475,0.000488,0.000488,0.001709,0,0,0,0
264.905823,1.609375,2.886719,0.007812,0.000000,0.000000,0.001518,0.010072,-0.000000,1.012475,-0.002686,0.000488,0.000244,0,0,0,0
264.915588,1.609375,2.886719,0.007812,0.000000,0.000000,0.001158,0.010072,-0.000000,1.012475,-0.001709,0.000000,-0.000977,0,0,0,0
264.925354,1.609375,2.886719,0.007812,0.000000,0.000000,0.001196,0.010072,-0.000000,1.012475,-0.000244,0.001465,-0.000977,0,0,0,0
264.935120,1.609375,2.886719,0.007812,0.000000,0.000000,0.001816,0.010072,-0.000000,1.012475,0.001953,0.000000,-0.000488,0,0,0,0
264.944885,1.609375,2.886719,0.007812,0.000000,0.000000,0.001987,0.010072,-0.000000,1.012475,0.001953,0.001465,-0.000488,0,0,0,0
264.954651,1.609375,2.886719,0.007812,0.000000,0.000000,0.001863,0.010072,-0.000000,1.012475,-0.002197,-0.000488,0.000244,0,0,0,0
264.964417,1.609375,2.886719,0.007812,0.000000,0.000000,0.001841,0.010072,-0.000000,1.012475,0.001465,-0.002930,0.000244,0,0,0,0
264.974182,1.609375,2.886719,0.007812,0.000000,0.000000,0.001865,0.010072,-0.000000,1.012475,-0.002197,0.000000,-0.000977,0,0,0,0
264.983948,1.609375,2.886719,0.007812,0.000000,0.000000,0.001980,0.010072,-0.000000,1.012475,0.001465,0.000000,0.001221,0,0,0,0
264.993713,1.609375,2.886719,0.007812,0.000000,0.000000,0.003189,0.010072,-0.000000,1.012475,-0.001709,0.000977,-0.000488,0,0,0,0
265.003479,1.609375,2.886719,0.007812,0.000000,0.000000,0.002602,0.010072,-0.000000,1.012475,0.001465,0.001465,0.001221,0,0,0,0
265.013245,1.609375,2.886719,0.007812,0.000000,0.000000,0.002747,0.010072,-0.000000,1.012475,-0.001709,-0.001465,0.001709,0,0,0,0
265.023010,1.609375,2.886719,0.007812,0.000000,0.000000,0.002893,0.010072,-0.000000,1.012475,0.000488,-0.000977,0.001709,0,0,0,0
265.032776,1.609375,2.886719,0.007812,0.000000,0.000000,0.003281,0.010072,-0.000000,1.012475,-0.002197,0.003174,-0.000488,0,0,0,0
265.042542,1.609375,2.886719,0.007812,0.000000,0.000000,0.003000,0.010072,-0.000000,1.012475,-0.001709,0.003174,-0.000488,0,0,0,0
265.052307,1.609375,2.886719,0.007812,0.000000,0.000000,0.003027,0.010072,-0.000000,1.012475,-0.002197,0.000488,0.000732,0,0,0,0
265.062073,1.609375,2.886719,0.007812,0.000000,0.000000,0.002779,0.010072,-0.000000,1.012475,-0.001221,0.000488,-0.000488,0,0,0,0
265.071838,1.609375,2.886719,0.007812,0.000000,0.000000,0.003502,0.010072,-0.000000,1.012475,-0.001221,-0.002441,-0.001465,0,0,0,0
265.081604,1.609375,2.886719,0.007812,0.000000,0.000000,0.003117,0.010072,-0.000000,1.012475,0.003662,0.002686,0.000244,0,0,0,0
265.091370,1.609375,2.886719,0.007812,0.000000,0.000000,0.003132,0.010072,-0.000000,1.012475,0.000977,0.001465,-0.001953,0,0,0,0
265.101135,1.609375,2.886719,0.007812,0.000000,0.000000,0.003145,0.010072,-0.000000,1.012475,0.001953,0.000000,-0.001465,0,0,0,0
265.110901,1.609375,2.886719,0.007812,0.000000,0.000000,0.002758,0.010072,-0.000000,1.012475,0.003174,0.000488,-0.001465,0,0,0,0
265.120667,1.609375,2.886719,0.007812,0.000000,0.000000,0.002991,0.010072,-0.000000,1.012475,0.000977,0.000488,0.002197,0,0,0,0
265.130432,1.609375,2.886719,0.007812,0.000000,0.000000,0.003088,0.010072,-0.000000,1.012475,0.000488,-0.001465,-0.000977,0,0,0,0
265.140198,1.609375,2.886719,0.007812,0.000000,0.000000,0.002771,0.010010,0.000000,1.012207,0.002441,-0.001465,-0.000488,0,0,0,0
265.149963,1.609375,2.886719,0.007812,0.000000,0.000000,0.004028,0.010072,-0.000000,1.012475,0.001465,-0.000488,0.001709,0,0,0,0
265.159729,1.609375,2.886719,0.007812,0.000000,0.000000,0.003613,0.010072,-0.000000,1.012475,0.001465,0.002197,0.001221,0,0,0,0
265.169495,1.609375,2.886719,0.007812,0.000000,0.000000,0.003695,0.010072,-0.000000,1.012475,0.000488,0.000000,0.001221,0,0,0,0
265.179260,1.609375,2.886719,0.007812,0.000000,0.000000,0.003372,0.010072,-0.000000,1.012475,0.000488,-0.000977,0.002930,0,0,0,0
265.189026,1.609375,2.886719,0.007812,0.000000,0.000000,0.003199,0.010072,-0.000000,1.012475,0.001465,0.003174,0.000244,0,0,0,0
265.198792,1.609375,2.886719,0.007812,0.000000,0.000000,0.003296,0.010072,-0.000000,1.012475,0.000977,0.000488,-0.000488,0,0,0,0
265.208557,1.609375,2.886719,0.007812,0.000000,0.000000,0.002579,0.010010,0.000000,1.012207,0.003174,0.002197,-0.000488,0,0,0,0
265.218323,1.609375,2.886719,0.007812,0.000000,0.000000,0.002445,0.010072,-0.000000,1.012475,-0.000244,0.000977,0.001221,0,0,0,0
265.228088,1.609375,2.886719,0.007812,0.000000,0.000000,0.003637,0.010072,-0.000000,1.012475,0.002441,0.002197,0.002197,0,0,0,0
265.237854,1.609375,2.886719,0.007812,0.000000,0.000000,0.004112,0.010072,-0.000000,1.012475,-0.000732,-0.000488,0.000732,0,0,0,0
265.247620,1.609375,2.886719,0.007812,0.000000,0.000000,0.003643,0.010072,-0.000000,1.012475,-0.001709,0.000488,0.001709,0,0,0,0
265.257385,1.609375,2.886719,0.007812,0.000000,0.000000,0.003511,0.010072,-0.000000,1.012475,-0.000244,-0.002930,-0.000488,0,0,0,0
265.267151,1.609375,2.886719,0.007812,0.000000,0.000000,0.003544,0.010072,-0.000000,1.012475,-0.001709,0.000488,0.001221,0,0,0,0
265.276917,1.609375,2.886719,0.007812,0.000000,0.000000,0.003269,0.010072,-0.000000,1.012475,-0.000732,0.002686,-0.000977,0,0,0,0
265.286682,1.609375,2.886719,0.007812,0.000000,0.000000,0.003252,0.010072,-0.000000,1.012475,-0.003418,0.000977,0.001221,0,0,0,0
265.296448,1.609375,2.886719,0.007812,0.000000,0.000000,0.003210,0.010072,-0.000000,1.012475,0.000977,-0.000488,-0.001465,0,0,0,0
265.306213,1.609375,2.886719,0.007812,0.000000,0.000000,0.002352,0.010072,-0.000000,1.012475,0.000977,-0.000977,0.001221,0,0,0,0
265.315979,1.609375,2.886719,0.007812,0.000000,0.000000,0.002327,0.010072,-0.000000,1.012475,-0.000244,0.000000,0.000244,0,0,0,0
265.325745,1.609375,2.886719,0.007812,0.000000,0.000000,0.002659,0.010072,-0.000000,1.012475,-0.002686,0.000977,-0.000488,0,0,0,0
265.335510,1.609375,2.886719,0.007812,0.000000,0.000000,0.002869,0.010072,-0.000000,1.012475,-0.000732,0.000000,0.000244,0,0,0,0
265.345276,1.609375,2.886719,0.007812,-0.009998,-0.009998,0.002769,0.010072,-0.000000,1.012475,-0.002197,-0.002441,-0.000488,0,0,0,0
265.355042,1.609375,2.886719,0.007812,-0.009998,-0.009998,0.002682,0.010072,-0.000000,1.012475,-0.001221,0.000488,-0.000488,0,0,0,0
265.364807,1.609375,2.886719,0.007812,-0.009998,-0.009998,0.002491,0.010072,-0.000000,1.012475,-0.001709,-0.001953,0.000244,0,0,0,0
