time,pos_x,pos_y,pos_z,vel_x,vel_y,vel_z,att_phi,att_theta,att_psi,rate_p,rate_q,rate_r,cmd_thrust,cmd_roll,cmd_pitch,cmd_yaw
59.180279,-1.007812,-1.289062,0.000000,0.000000,0.000000,-0.008762,-0.007812,-0.003906,-0.166260,-0.001709,-0.002197,0.001221,0,0,0,0
59.190041,-1.007812,-1.289062,0.000000,0.000000,0.000000,-0.008766,-0.007812,-0.003906,-0.166260,-0.003906,0.001221,0.001221,0,0,0,0
59.199810,-1.007812,-1.289062,0.000000,0.000000,0.000000,-0.009132,-0.007812,-0.003906,-0.166260,-0.000732,0.000732,0.000732,0,0,0,0
59.209576,-1.007812,-1.289062,0.000000,0.000000,0.000000,-0.009096,-0.007812,-0.003906,-0.166260,-0.001709,-0.000244,0.001221,0,0,0,0
59.219341,-1.007812,-1.289062,0.000000,0.000000,0.000000,-0.009415,-0.007812,-0.003906,-0.166260,0.001953,0.001953,0.002930,0,0,0,0
59.229107,-1.007812,-1.289062,0.000000,0.000000,0.000000,-0.009024,-0.007812,-0.003906,-0.166260,0.001465,-0.003174,-0.000244,0,0,0,0
59.238873,-1.007812,-1.289062,0.000000,0.000000,0.000000,-0.008581,-0.007812,-0.003906,-0.166260,0.001465,-0.000732,-0.000244,0,0,0,0
59.248638,-1.007812,-1.289062,0.000000,0.000000,0.000000,-0.008448,-0.007812,-0.003906,-0.166260,-0.002197,0.001221,0.001709,0,0,0,0
59.258400,-1.007812,-1.289062,0.000000,0.000000,0.000000,-0.008715,-0.007812,-0.003906,-0.166260,-0.001709,-0.000732,0.000244,0,0,0,0
59.268166,-1.007812,-1.289062,0.000000,0.000000,0.000000,-0.009052,-0.007812,-0.003906,-0.166260,-0.001221,-0.001709,0.001221,0,0,0,0
59.277931,-1.007812,-1.289062,0.000000,0.000000,0.000000,-0.008368,-0.007812,-0.003906,-0.166260,-0.001221,0.000244,-0.000244,0,0,0,0
59.287697,-1.007812,-1.289062,0.000000,0.000000,0.000000,-0.008352,-0.007812,-0.003906,-0.166260,0.000488,0.000732,-0.000977,0,0,0,0
59.297466,-1.007812,-1.289062,0.000000,0.000000,0.000000,-0.009159,-0.007812,-0.003906,-0.166260,-0.001221,0.000244,-0.001953,0,0,0,0
59.307228,-1.007812,-1.289062,0.000000,0.000000,0.000000,-0.008484,-0.007812,-0.003906,-0.166260,-0.002686,-0.000732,0.000244,0,0,0,0
59.316998,-1.007812,-1.289062,0.000000,0.000000,0.000000,-0.008535,-0.007812,-0.003906,-0.166260,-0.003906,0.001953,0.002197,0,0,0,0
59.326759,-1.007812,-1.289062,0.000000,0.000000,0.000000,-0.008266,-0.007812,-0.003906,-0.166260,-0.002197,0.000244,0.000244,0,0,0,0
59.336533,-1.007812,-1.289062,0.000000,0.000000,0.000000,-0.008265,-0.007812,-0.003906,-0.166260,-0.002197,-0.002686,0.002197,0,0,0,0
59.346291,-1.007812,-1.289062,0.000000,0.000000,0.000000,-0.007635,-0.007812,-0.003906,-0.166260,-0.000244,0.000244,0.000732,0,0,0,0
59.356056,-1.007812,-1.289062,0.000000,0.000000,0.000000,-0.008009,-0.007812,-0.003906,-0.166260,-0.000244,-0.000732,0.000244,0,0,0,0
59.365822,-1.007812,-1.289062,0.000000,0.000000,0.000000,-0.007898,-0.007812,-0.003906,-0.166260,-0.001709,0.000244,0.000244,0,0,0,0
59.375587,-1.007812,-1.289062,0.000000,0.000000,0.000000,-0.008989,-0.007812,-0.003906,-0.166260,-0.000732,-0.000732,0.001221,0,0,0,0
59.385353,-1.007812,-1.289062,0.000000,0.000000,0.000000,-0.009031,-0.007812,-0.003906,-0.166260,-0.002197,0.000732,0.002197,0,0,0,0
59.395119,-1.007812,-1.289062,0.000000,0.000000,0.000000,-0.009554,-0.007812,-0.003906,-0.166260,-0.001221,-0.000244,-0.000244,0,0,0,0
59.404884,-1.007812,-1.289062,0.000000,0.000000,0.000000,-0.008659,-0.007812,-0.003906,-0.166260,-0.001221,-0.001221,0.000244,0,0,0,0
59.414650,-1.007812,-1.289062,0.000000,0.000000,0.000000,-0.008764,-0.007812,-0.003906,-0.166260,0.001953,0.000244,0.001709,0,0,0,0
59.424419,-1.007812,-1.289062,0.000000,0.000000,0.000000,-0.008787,-0.007812,-0.003906,-0.166260,-0.001221,-0.001221,0.001221,0,0,0,0
59.434181,-1.007812,-1.289062,0.000000,0.000000,0.000000,-0.009134,-0.007812,-0.003906,-0.166260,-0.002197,0.001221,0.003418,0,0,0,0
59.443947,-1.007812,-1.289062,0.000000,0.000000,0.000000,-0.008633,-0.007812,-0.003906,-0.166260,-0.000244,-0.003174,0.002930,0,0,0,0
59.453712,-1.007812,-1.289062,0.000000,0.000000,0.000000,-0.009171,-0.007812,-0.003906,-0.166260,-0.001221,0.000244,0.000732,0,0,0,0
59.463478,-1.007812,-1.289062,0.000000,0.000000,0.000000,-0.009399,-0.007812,-0.003906,-0.166260,-0.003906,-0.001709,0.000244,0,0,0,0
59.473244,-1.007812,-1.289062,0.000000,0.000000,0.000000,-0.008406,-0.007812,-0.003906,-0.166260,-0.001221,-0.001221,0.002197,0,0,0,0
59.483013,-1.007812,-1.289062,0.000000,0.000000,0.000000,-0.008053,-0.007812,-0.003906,-0.166260,-0.004883,-0.000732,-0.001465,0,0,0,0
59.492775,-1.007812,-1.289062,0.000000,0.000000,0.000000,-0.008165,-0.007812,-0.003906,-0.166260,-0.001709,-0.000732,-0.000244,0,0,0,0
59.502541,-1.007812,-1.289062,0.000000,0.000000,0.000000,-0.008526,-0.007812,-0.003906,-0.166260,-0.002197,0.000732,-0.000977,0,0,0,0
59.512306,-1.007812,-1.289062,0.000000,0.000000,0.000000,-0.007895,-0.007812,-0.003906,-0.166260,-0.001221,-0.000732,0.002197,0,0,0,0
59.522076,-1.007812,-1.289062,0.000000,0.000000,0.000000,-0.007904,-0.007812,-0.003906,-0.166260,-0.001709,-0.001709,-0.000244,0,0,0,0
59.531837,-1.007812,-1.289062,0.000000,0.000000,0.000000,-0.006464,-0.007812,-0.003906,-0.166260,-0.000244,-0.001221,-0.001465,0,0,0,0
59.541611,-1.007812,-1.289062,0.000000,0.000000,0.000000,-0.006145,-0.007993,-0.004035,-0.166441,-0.003906,-0.001221,0.001221,0,0,0,0
59.551369,-1.007812,-1.289062,0.000000,0.000000,0.000000,-0.006376,-0.007812,-0.003906,-0.166260,-0.000732,0.000732,-0.001465,0,0,0,0
59.561134,-1.007812,-1.289062,0.000000,0.000000,0.000000,-0.006681,-0.007812,-0.003906,-0.166260,0.000977,-0.000732,0.000732,0,0,0,0
59.570915,-1.007812,-1.289062,0.000000,0.000000,0.000000,-0.006264,-0.007812,-0.003906,-0.166260,-0.000732,-0.000732,0.002197,0,0,0,0
59.580666,-1.007812,-1.289062,0.000000,0.000000,0.000000,-0.006287,-0.007812,-0.003906,-0.166260,-0.000244,-0.001221,-0.000977,0,0,0,0
59.590431,-1.007812,-1.289062,0.000000,0.000000,0.000000,-0.006443,-0.007812,-0.003906,-0.166260,-0.001709,-0.000732,0.001221,0,0,0,0
59.600197,-1.007812,-1.289062,0.000000,0.000000,0.000000,-0.006834,-0.007812,-0.003906,-0.166260,0.000488,0.002441,0.000244,0,0,0,0
59.609962,-1.007812,-1.289062,0.000000,0.000000,0.000000,-0.005161,-0.007812,-0.003906,-0.166260,-0.001221,-0.001221,0.001709,0,0,0,0
59.619728,-1.007812,-1.289062,0.000000,0.000000,0.000000,-0.005169,-0.007812,-0.003906,-0.166260,-0.000732,-0.000732,0.001709,0,0,0,0
59.629494,-1.007812,-1.289062,0.000000,0.000000,0.000000,-0.005335,-0.007812,-0.003906,-0.166260,-0.002686,-0.001709,0.002197,0,0,0,0
59.639259,-1.007812,-1.289062,0.000000,0.000000,0.000000,-0.005310,-0.007812,-0.003906,-0.166260,-0.001221,-0.001221,0.001221,0,0,0,0
59.649025,-1.007812,-1.289062,0.000000,0.000000,0.000000,-0.005266,-0.007812,-0.003906,-0.166260,-0.003906,-0.001221,0.000732,0,0,0,0
59.658791,-1.007812,-1.289062,0.000000,0.000000,0.000000,-0.005472,-0.007812,-0.003906,-0.166260,0.000488,-0.001221,0.003418,0,0,0,0
59.668560,-1.007812,-1.289062,0.000000,0.000000,0.000000,-0.005663,-0.007812,-0.003906,-0.166260,0.001465,-0.002686,0.001221,0,0,0,0
59.678326,-1.007812,-1.289062,0.000000,0.000000,0.000000,-0.005251,-0.007812,-0.003906,-0.166260,-0.001709,-0.001221,0.001709,0,0,0,0
59.688087,-1.007812,-1.289062,0.000000,0.000000,0.000000,-0.006605,-0.007812,-0.003906,-0.166260,-0.000244,-0.001221,0.001221,0,0,0,0
59.697857,-1.007812,-1.289062,0.000000,0.000000,0.000000,-0.007088,-0.007812,-0.003906,-0.166260,0.000977,-0.000244,0.000244,0,0,0,0
59.707623,-1.007812,-1.289062,0.000000,0.000000,0.000000,-0.006777,-0.007812,-0.003906,-0.166260,-0.000244,-0.001221,0.001221,0,0,0,0
59.717388,-1.007812,-1.289062,0.000000,0.000000,0.000000,-0.006990,-0.007812,-0.003906,-0.166260,0.001465,-0.000732,0.001709,0,0,0,0
59.727154,-1.007812,-1.289062,0.000000,0.000000,0.000000,-0.007063,-0.007812,-0.003906,-0.166260,-0.000732,-0.002197,0.001709,0,0,0,0
59.736923,-1.007812,-1.289062,0.000000,0.000000,0.000000,-0.007441,-0.007812,-0.003906,-0.166260,0.000977,0.000732,0.000244,0,0,0,0
59.746681,-1.007812,-1.289062,0.000000,0.000000,0.000000,-0.007334,-0.007812,-0.003906,-0.166260,-0.001709,0.001221,0.002930,0,0,0,0
59.756451,-1.007812,-1.289062,0.000000,0.000000,0.000000,-0.007595,-0.007812,-0.003906,-0.166260,0.000488,-0.000244,0.000732,0,0,0,0
59.766216,-1.007812,-1.289062,0.000000,0.000000,0.000000,-0.006561,-0.007812,-0.003906,-0.166260,0.000488,-0.000732,-0.000244,0,0,0,0
59.775978,-1.007812,-1.289062,0.000000,0.000000,0.000000,-0.006577,-0.007812,-0.003906,-0.166260,-0.002686,-0.000244,0.003906,0,0,0,0
59.785751,-1.007812,-1.289062,0.000000,0.000000,0.000000,-0.006603,-0.007812,-0.003906,-0.166260,-0.000732,0.001953,-0.000244,0,0,0,0
59.795509,-1.007812,-1.289062,0.000000,0.000000,0.000000,-0.006910,-0.007812,-0.003906,-0.166260,-0.000244,-0.001221,0.001221,0,0,0,0
59.805283,-1.007812,-1.289062,0.000000,0.000000,0.000000,-0.006897,-0.007812,-0.003906,-0.166260,-0.002686,-0.000244,0.001709,0,0,0,0
59.815041,-1.007812,-1.289062,0.000000,0.000000,0.000000,-0.006973,-0.007812,-0.003906,-0.166260,-0.000732,-0.001221,-0.000244,0,0,0,0
59.824806,-1.007812,-1.289062,0.000000,0.000000,0.000000,-0.007338,-0.007812,-0.003906,-0.166260,-0.002197,0.001221,0.000244,0,0,0,0
59.834572,-1.007812,-1.289062,0.000000,0.000000,0.000000,-0.007248,-0.007812,-0.003906,-0.166260,0.001953,-0.000732,0.002930,0,0,0,0
59.844341,-1.007812,-1.289062,0.000000,0.000000,0.000000,-0.005972,-0.007993,-0.004035,-0.166441,-0.002686,-0.001709,0.002197,0,0,0,0
59.854103,-1.007812,-1.289062,0.000000,0.000000,0.000000,-0.006525,-0.007812,-0.003906,-0.166260,0.000488,-0.001221,-0.000244,0,0,0,0
59.863869,-1.007812,-1.289062,0.000000,0.000000,0.000000,-0.006508,-0.007812,-0.003906,-0.166260,-0.003418,-0.000732,-0.000977,0,0,0,0
59.873634,-1.007812,-1.289062,0.000000,0.000000,0.000000,-0.006716,-0.007812,-0.003906,-0.166260,0.000488,-0.000244,0.000244,0,0,0,0
59.883404,-1.007812,-1.289062,0.000000,0.000000,0.000000,-0.006958,-0.007812,-0.003906,-0.166260,-0.003418,-0.001709,-0.000244,0,0,0,0
59.893166,-1.007812,-1.289062,0.000000,0.000000,0.000000,-0.007071,-0.007812,-0.003906,-0.166260,-0.000732,0.000732,-0.002441,0,0,0,0
59.902931,-1.007812,-1.289062,0.000000,0.000000,0.000000,-0.007414,-0.007812,-0.003906,-0.166260,-0.002197,-0.000244,0.001221,0,0,0,0
59.912697,-1.007812,-1.289062,0.000000,0.000000,0.000000,-0.007318,-0.008057,-0.003906,-0.166260,-0.000732,0.000244,0.001221,0,0,0,0
59.922462,-1.007812,-1.289062,0.000000,0.000000,0.000000,-0.007217,-0.008057,-0.003906,-0.166260,-0.001709,0.000732,0.001709,0,0,0,0
59.932228,-1.007812,-1.289062,0.000000,0.000000,0.000000,-0.007404,-0.008057,-0.003906,-0.166260,-0.000244,0.000732,0.000244,0,0,0,0
59.941994,-1.007812,-1.289062,0.000000,0.000000,0.000000,-0.007139,-0.008057,-0.003906,-0.166260,-0.000732,-0.002686,0.001709,0,0,0,0
59.951759,-1.007812,-1.289062,0.000000,0.000000,0.000000,-0.007458,-0.008057,-0.003906,-0.166260,-0.002197,-0.000732,0.000244,0,0,0,0
59.961525,-1.007812,-1.289062,0.000000,0.000000,0.000000,-0.007826,-0.008057,-0.003906,-0.166260,-0.002197,0.000732,0.001709,0,0,0,0
59.971291,-1.007812,-1.289062,0.000000,0.000000,0.000000,-0.007990,-0.008057,-0.003906,-0.166260,-0.003418,-0.000732,0.001709,0,0,0,0
59.981056,-1.007812,-1.289062,0.000000,0.000000,0.000000,-0.008369,-0.008057,-0.003906,-0.166260,-0.000732,-0.000244,0.000244,0,0,0,0
59.990822,-1.007812,-1.289062,0.000000,0.000000,0.000000,-0.008745,-0.008057,-0.003906,-0.166260,0.000488,-0.000244,0.000732,0,0,0,0
60.000587,-1.007812,-1.289062,0.000000,0.000000,0.000000,-0.008352,-0.008057,-0.003906,-0.166260,-0.001709,-0.000732,-0.000244,0,0,0,0
60.010353,-1.007812,-1.289062,0.000000,0.000000,0.000000,-0.008375,-0.008057,-0.003906,-0.166260,0.000488,-0.002197,-0.001465,0,0,0,0
60.020119,-1.007812,-1.289062,0.000000,0.000000,0.000000,-0.008572,-0.008057,-0.003906,-0.166260,-0.000732,0.002441,0.000244,0,0,0,0
60.029884,-1.007812,-1.289062,0.000000,0.000000,0.000000,-0.008642,-0.008057,-0.003906,-0.166260,-0.001709,-0.001221,-0.000977,0,0,0,0
60.039650,-1.007812,-1.289062,0.000000,0.000000,0.000000,-0.008997,-0.008057,-0.003906,-0.166260,0.000488,0.000732,0.000244,0,0,0,0
60.049416,-1.007812,-1.289062,0.000000,0.000000,0.000000,-0.009027,-0.008057,-0.003906,-0.166260,-0.001709,-0.000732,-0.000244,0,0,0,0
60.059181,-1.007812,-1.289062,0.000000,0.000000,0.000000,-0.009203,-0.008057,-0.003906,-0.166260,0.000977,0.000732,0.002197,0,0,0,0
60.068951,-1.007812,-1.289062,0.000000,0.000000,0.000000,-0.009809,-0.008057,-0.003906,-0.166260,-0.003906,-0.000244,0.001709,0,0,0,0
60.078712,-1.007812,-1.289062,0.000000,0.000000,0.000000,-0.008821,-0.008057,-0.003906,-0.166260,-0.001221,-0.001221,0.000244,0,0,0,0
60.088478,-1.007812,-1.289062,0.000000,0.000000,0.000000,-0.008698,-0.008057,-0.003906,-0.166260,-0.002197,-0.002686,0.001709,0,0,0,0
60.098244,-1.007812,-1.289062,0.000000,0.000000,0.000000,-0.008646,-0.008057,-0.003906,-0.166260,-0.001221,-0.003174,-0.000977,0,0,0,0
60.108009,-1.007812,-1.289062,0.000000,0.000000,0.000000,-0.008787,-0.008057,-0.003906,-0.166260,0.001953,-0.000732,0.000732,0,0,0,0
60.117779,-1.007812,-1.289062,0.000000,0.000000,0.000000,-0.008476,-0.008057,-0.003906,-0.166260,-0.001709,0.001953,0.000244,0,0,0,0
60.127544,-1.007812,-1.289062,0.000000,0.000000,0.000000,-0.008455,-0.008057,-0.003906,-0.166260,-0.001221,-0.000244,0.001709,0,0,0,0
60.137306,-1.007812,-1.289062,0.000000,0.000000,0.000000,-0.008760,-0.008057,-0.003906,-0.166260,0.000488,-0.002197,-0.000977,0,0,0,0
60.147076,-1.007812,-1.289062,0.000000,0.000000,0.000000,-0.008686,-0.008057,-0.003906,-0.166260,-0.001221,-0.002197,0.000244,0,0,0,0
60.156853,-1.007812,-1.289062,0.000000,0.000000,0.000000,-0.007486,-0.008057,-0.003906,-0.166260,0.000977,-0.000244,0.000732,0,0,0,0
60.166603,-1.007812,-1.289062,0.000000,0.000000,0.000000,-0.007713,-0.008057,-0.003906,-0.166260,0.000977,-0.002686,-0.000244,0,0,0,0
60.176369,-1.007812,-1.289062,0.000000,0.000000,0.000000,-0.007780,-0.008057,-0.003906,-0.166260,-0.002686,-0.001221,0.001221,0,0,0,0
60.186134,-1.007812,-1.289062,0.000000,0.000000,0.000000,-0.007700,-0.008057,-0.003906,-0.166260,0.003174,-0.001221,0.002930,0,0,0,0
60.195900,-1.007812,-1.289062,0.000000,0.000000,0.000000,-0.008104,-0.008057,-0.003906,-0.166260,-0.000244,-0.000244,0.001709,0,0,0,0
60.205666,-1.007812,-1.289062,0.000000,0.000000,0.000000,-0.008114,-0.008057,-0.003906,-0.166260,-0.000732,-0.000732,0.000244,0,0,0,0
60.215435,-1.007812,-1.289062,0.000000,0.000000,0.000000,-0.007914,-0.008057,-0.003906,-0.166260,-0.000732,-0.001709,-0.001465,0,0,0,0
60.225197,-1.007812,-1.289062,0.000000,0.000000,0.000000,-0.008129,-0.008057,-0.003906,-0.166260,-0.000244,-0.000244,0.000732,0,0,0,0
60.234962,-1.007812,-1.289062,0.000000,0.000000,0.000000,-0.007418,-0.008057,-0.003906,-0.166260,0.000488,-0.002686,0.000732,0,0,0,0
60.244736,-1.007812,-1.289062,0.000000,0.000000,0.000000,-0.007587,-0.008057,-0.003906,-0.166260,-0.003418,-0.000244,0.002197,0,0,0,0
60.254498,-1.007812,-1.289062,0.000000,0.000000,0.000000,-0.007309,-0.008057,-0.003906,-0.166260,-0.000732,-0.001221,0.001221,0,0,0,0
60.264259,-1.007812,-1.289062,0.000000,0.000000,0.000000,-0.007626,-0.008057,-0.003906,-0.166260,-0.002197,-0.000732,0.000244,0,0,0,0
60.274025,-1.007812,-1.289062,0.000000,0.000000,0.000000,-0.007469,-0.008057,-0.003906,-0.166260,0.001465,0.000244,0.000244,0,0,0,0
60.283791,-1.007812,-1.289062,0.000000,0.000000,0.000000,-0.007252,-0.008057,-0.003906,-0.166260,-0.001221,0.000732,-0.000977,0,0,0,0
60.293556,-1.007812,-1.289062,0.000000,0.000000,0.000000,-0.007786,-0.008057,-0.003906,-0.166260,-0.001221,-0.002197,-0.000977,0,0,0,0
60.303322,-1.007812,-1.289062,0.000000,0.000000,0.000000,-0.007908,-0.008057,-0.003906,-0.166260,-0.002686,-0.003662,0.000732,0,0,0,0
60.313087,-1.007812,-1.289062,0.000000,0.000000,0.000000,-0.007013,-0.008057,-0.003906,-0.166260,-0.001709,-0.000732,0.000732,0,0,0,0
60.322853,-1.007812,-1.289062,0.000000,0.000000,0.000000,-0.007074,-0.008057,-0.003906,-0.166260,-0.001221,0.000244,0.002930,0,0,0,0
60.332619,-1.007812,-1.289062,0.000000,0.000000,0.000000,-0.007265,-0.008057,-0.003906,-0.166260,-0.000244,-0.002197,-0.000244,0,0,0,0
60.342384,-1.007812,-1.289062,0.000000,0.000000,0.000000,-0.007532,-0.008057,-0.003906,-0.166260,-0.001221,0.002441,0.000244,0,0,0,0
60.352146,-1.007812,-1.289062,0.000000,0.000000,0.000000,-0.007240,-0.008057,-0.003906,-0.166260,-0.000244,0.002930,0.001221,0,0,0,0
60.361916,-1.007812,-1.289062,0.000000,0.000000,0.000000,-0.007971,-0.008057,-0.003906,-0.166260,0.000488,-0.003662,-0.000977,0,0,0,0
60.371681,-1.007812,-1.289062,0.000000,0.000000,0.000000,-0.008093,-0.008057,-0.003906,-0.166260,-0.001221,-0.001709,-0.001953,0,0,0,0
60.381447,-1.007812,-1.289062,0.000000,0.000000,0.000000,-0.008110,-0.008057,-0.003906,-0.166260,-0.001221,-0.000244,0.001221,0,0,0,0
60.391212,-1.007812,-1.289062,0.000000,0.000000,0.000000,-0.005205,-0.008057,-0.003906,-0.166260,-0.002197,-0.000732,0.003418,0,0,0,0
60.400978,-1.007812,-1.289062,0.000000,0.000000,0.000000,-0.005192,-0.008057,-0.003906,-0.166260,0.000488,-0.000244,0.001221,0,0,0,0
60.410744,-1.007812,-1.289062,0.000000,0.000000,0.000000,-0.005526,-0.008057,-0.003906,-0.166260,-0.001709,0.000732,-0.002441,0,0,0,0
60.420509,-1.007812,-1.289062,0.000000,0.000000,0.000000,-0.006269,-0.008057,-0.003906,-0.166260,-0.003418,0.000244,0.001221,0,0,0,0
60.430275,-1.007812,-1.289062,0.000000,0.000000,0.000000,-0.006311,-0.008057,-0.003906,-0.166260,0.000488,0.000732,0.001221,0,0,0,0
60.440041,-1.007812,-1.289062,0.000000,0.000000,0.000000,-0.006649,-0.008057,-0.003906,-0.166260,-0.001221,-0.000732,0.000244,0,0,0,0
60.449806,-1.007812,-1.289062,0.000000,0.000000,0.000000,-0.007086,-0.008057,-0.003906,-0.166260,0.001465,-0.000732,-0.000244,0,0,0,0
60.459572,-1.007812,-1.289062,0.000000,0.000000,0.000000,-0.006788,-0.008057,-0.003906,-0.166260,-0.000244,-0.000732,-0.000244,0,0,0,0
60.469341,-1.007812,-1.289062,0.000000,0.000000,0.000000,-0.003885,-0.008057,-0.003906,-0.166260,-0.001221,-0.001221,0.001221,0,0,0,0
60.479103,-1.007812,-1.289062,0.000000,0.000000,0.000000,-0.004932,-0.008057,-0.003906,-0.166260,-0.001221,0.000732,0.001221,0,0,0,0
60.488888,-1.007812,-1.289062,0.000000,0.000000,0.000000,-0.005220,-0.008057,-0.003906,-0.166260,-0.002197,0.000732,0.001221,0,0,0,0
60.498653,-1.007812,-1.289062,0.000000,0.000000,0.000000,-0.005247,-0.008057,-0.003906,-0.166260,-0.001709,0.001221,0.001709,0,0,0,0
60.508400,-1.007812,-1.289062,0.000000,0.000000,0.000000,-0.005230,-0.008057,-0.003906,-0.166260,-0.001709,-0.001221,0.000732,0,0,0,0
60.518169,-1.007812,-1.289062,0.000000,0.000000,0.000000,-0.005793,-0.008115,-0.004046,-0.166441,-0.000244,0.000244,-0.000977,0,0,0,0
60.527931,-1.007812,-1.289062,0.000000,0.000000,0.000000,-0.006077,-0.008057,-0.003906,-0.166260,-0.001709,-0.000732,0.001709,0,0,0,0
60.537697,-1.007812,-1.289062,0.000000,0.000000,0.000000,-0.006298,-0.008057,-0.003906,-0.166260,-0.001709,0.000244,0.001709,0,0,0,0
60.547466,-1.007812,-1.289062,0.000000,0.000000,0.000000,-0.005381,-0.008057,-0.003906,-0.166260,-0.003418,-0.000732,0.000732,0,0,0,0
60.557228,-1.007812,-1.289062,0.000000,0.000000,0.000000,-0.005173,-0.008057,-0.003906,-0.166260,-0.003418,-0.000244,0.000244,0,0,0,0
60.566998,-1.007812,-1.289062,0.000000,0.000000,0.000000,-0.005281,-0.008057,-0.003906,-0.166260,0.000488,0.000732,-0.000244,0,0,0,0
60.576759,-1.007812,-1.289062,0.000000,0.000000,0.000000,-0.005579,-0.008057,-0.003906,-0.166260,-0.000244,-0.002686,-0.000244,0,0,0,0
60.586525,-1.007812,-1.289062,0.000000,0.000000,0.000000,-0.006588,-0.008057,-0.003906,-0.166260,-0.004395,-0.001221,-0.001465,0,0,0,0
60.596291,-1.007812,-1.289062,0.000000,0.000000,0.000000,-0.006763,-0.008057,-0.003906,-0.166260,-0.000244,-0.000732,-0.000244,0,0,0,0
60.606056,-1.007812,-1.289062,0.000000,0.000000,0.000000,-0.007113,-0.008057,-0.003906,-0.166260,-0.000732,-0.000732,-0.000244,0,0,0,0
60.615826,-1.007812,-1.289062,0.000000,0.000000,0.000000,-0.007572,-0.008057,-0.003906,-0.166260,-0.000732,-0.001221,-0.000244,0,0,0,0
60.625587,-1.007812,-1.289062,0.000000,0.000000,0.000000,-0.007351,-0.008057,-0.003906,-0.166260,-0.000732,-0.000732,0.000244,0,0,0,0
60.635349,-1.007812,-1.289062,0.000000,0.000000,0.000000,-0.007597,-0.008057,-0.003906,-0.166260,0.001465,0.000732,0.001221,0,0,0,0
60.645123,-1.007812,-1.289062,0.000000,0.000000,0.000000,-0.007893,-0.008057,-0.003906,-0.166260,-0.000732,-0.002686,0.001221,0,0,0,0
60.654881,-1.007812,-1.289062,0.000000,0.000000,0.000000,-0.008270,-0.008057,-0.003906,-0.166260,-0.001709,0.000732,-0.000244,0,0,0,0
60.664646,-1.007812,-1.289062,0.000000,0.000000,0.000000,-0.008429,-0.008057,-0.003906,-0.166260,-0.003418,-0.001709,0.000244,0,0,0,0
60.674431,-1.007812,-1.289062,0.000000,0.000000,0.000000,-0.008347,-0.008057,-0.003906,-0.166260,-0.001709,-0.000244,-0.001465,0,0,0,0
60.684181,-1.007812,-1.289062,0.000000,0.000000,0.000000,-0.008362,-0.008057,-0.003906,-0.166260,-0.002686,-0.001221,0.000244,0,0,0,0
60.693947,-1.007812,-1.289062,0.000000,0.000000,0.000000,-0.008623,-0.008057,-0.003906,-0.166260,0.000488,0.000732,-0.000244,0,0,0,0
60.703716,-1.007812,-1.289062,0.000000,0.000000,0.000000,-0.008539,-0.008057,-0.003906,-0.166260,-0.004395,-0.001709,0.002197,0,0,0,0
60.713478,-1.007812,-1.289062,0.000000,0.000000,0.000000,-0.008457,-0.008057,-0.003906,-0.166260,-0.002197,0.000732,0.000732,0,0,0,0
60.723248,-1.007812,-1.289062,0.000000,0.000000,0.000000,-0.008501,-0.008057,-0.003906,-0.166260,-0.004395,-0.001709,-0.000244,0,0,0,0
60.733009,-1.007812,-1.289062,0.000000,0.000000,0.000000,-0.008787,-0.008057,-0.003906,-0.166260,-0.002197,-0.002197,-0.000244,0,0,0,0
60.742775,-1.007812,-1.289062,0.000000,0.000000,0.000000,-0.008928,-0.008057,-0.003906,-0.166260,0.000488,-0.000732,0.003418,0,0,0,0
60.752537,-1.007812,-1.289062,0.000000,0.000000,0.000000,-0.008780,-0.008057,-0.003906,-0.166260,-0.003906,0.001221,0.002197,0,0,0,0
60.762306,-1.007812,-1.289062,0.000000,0.000000,0.000000,-0.009064,-0.008057,-0.003906,-0.166260,-0.000732,-0.000732,-0.000244,0,0,0,0
60.772072,-1.007812,-1.289062,0.000000,0.000000,0.000000,-0.009230,-0.008057,-0.003906,-0.166260,-0.000244,-0.001709,-0.000244,0,0,0,0
60.781837,-1.007812,-1.289062,0.000000,0.000000,0.000000,-0.008881,-0.008057,-0.003906,-0.166260,-0.000732,0.001221,0.000732,0,0,0,0
60.791599,-1.007812,-1.289062,0.000000,0.000000,0.000000,-0.008942,-0.008057,-0.003906,-0.166260,-0.000244,0.001953,0.003418,0,0,0,0
60.801365,-1.007812,-1.289062,0.000000,0.000000,0.000000,-0.009134,-0.008057,-0.003906,-0.166260,-0.003906,-0.002197,0.001709,0,0,0,0
60.811142,-1.007812,-1.289062,0.000000,0.000000,0.000000,-0.009409,-0.008057,-0.003906,-0.166260,-0.003418,0.000244,0.002197,0,0,0,0
60.820904,-1.007812,-1.289062,0.000000,0.000000,0.000000,-0.009422,-0.008181,-0.003990,-0.166441,-0.000244,-0.001221,0.000732,0,0,0,0
60.830666,-1.007812,-1.289062,0.000000,0.000000,0.000000,-0.009708,-0.008057,-0.003906,-0.166260,-0.000732,-0.001221,0.001221,0,0,0,0
60.840427,-1.007812,-1.289062,0.000000,0.000000,0.000000,-0.010231,-0.008057,-0.003906,-0.166260,-0.003906,0.000244,0.002197,0,0,0,0
60.850197,-1.007812,-1.289062,0.000000,0.000000,0.000000,-0.010048,-0.008057,-0.003906,-0.166260,0.000488,-0.003174,-0.001953,0,0,0,0
60.859962,-1.007812,-1.289062,0.000000,0.000000,0.000000,-0.009579,-0.008057,-0.003906,-0.166260,-0.000732,0.000244,0.002197,0,0,0,0
60.869728,-1.007812,-1.289062,0.000000,0.000000,0.000000,-0.009756,-0.008057,-0.003906,-0.166260,-0.001709,-0.000244,0.001221,0,0,0,0
60.879494,-1.007812,-1.289062,0.000000,0.000000,0.000000,-0.009153,-0.008057,-0.003906,-0.166260,-0.000732,-0.000244,0.000244,0,0,0,0
60.889259,-1.007812,-1.289062,0.000000,0.000000,0.000000,-0.009422,-0.008057,-0.003906,-0.166260,-0.000244,-0.002197,0.000732,0,0,0,0
60.899021,-1.007812,-1.289062,0.000000,0.000000,0.000000,-0.009212,-0.008057,-0.003906,-0.166260,0.000488,0.000732,0.001221,0,0,0,0
60.908787,-1.007812,-1.289062,0.000000,0.000000,0.000000,-0.009056,-0.008057,-0.003906,-0.166260,-0.001709,0.000244,-0.000977,0,0,0,0
60.918564,-1.007812,-1.289062,0.000000,0.000000,0.000000,-0.009163,-0.008057,-0.003906,-0.166260,-0.000244,-0.000244,-0.000244,0,0,0,0
60.928322,-1.007812,-1.289062,0.000000,0.000000,0.000000,-0.009424,-0.008057,-0.003906,-0.166260,-0.000732,-0.001221,0.001709,0,0,0,0
60.938087,-1.007812,-1.289062,0.000000,0.000000,0.000000,-0.009321,-0.008057,-0.003906,-0.166260,-0.002197,-0.000244,0.000244,0,0,0,0
60.947853,-1.007812,-1.289062,0.000000,0.000000,0.000000,-0.009361,-0.008057,-0.003906,-0.166260,-0.003906,0.000732,0.000732,0,0,0,0
60.957623,-1.007812,-1.289062,0.000000,0.000000,0.000000,-0.009634,-0.008057,-0.003906,-0.166260,-0.004883,-0.001709,-0.000244,0,0,0,0
60.967388,-1.007812,-1.289062,0.000000,0.000000,0.000000,-0.010117,-0.008057,-0.003906,-0.166260,-0.002197,-0.000732,0.001221,0,0,0,0
60.977150,-1.007812,-1.289062,0.000000,0.000000,0.000000,-0.010424,-0.008057,-0.003906,-0.166260,-0.000244,-0.002197,0.001221,0,0,0,0
60.986916,-1.007812,-1.289062,0.000000,0.000000,0.000000,-0.009932,-0.008057,-0.003906,-0.166260,-0.001709,-0.003662,0.000244,0,0,0,0
60.996677,-1.007812,-1.289062,0.000000,0.000000,0.000000,-0.010065,-0.008057,-0.003906,-0.166260,-0.000244,-0.001221,0.001221,0,0,0,0
61.006447,-1.007812,-1.289062,0.000000,0.000000,0.000000,-0.010342,-0.008057,-0.003906,-0.166260,-0.001221,-0.002197,0.001221,0,0,0,0
61.016209,-1.007812,-1.289062,0.000000,0.000000,0.000000,-0.009569,-0.008057,-0.003906,-0.166260,-0.001221,-0.000732,-0.000244,0,0,0,0
61.025974,-1.007812,-1.289062,0.000000,0.000000,0.000000,-0.009487,-0.008057,-0.003906,-0.166260,-0.005371,-0.002197,0.000244,0,0,0,0
61.035740,-1.007812,-1.289062,0.000000,0.000000,0.000000,-0.009401,-0.008057,-0.003906,-0.166260,0.000488,-0.001221,0.000732,0,0,0,0
61.045525,-1.007812,-1.289062,0.000000,0.000000,0.000000,-0.009800,-0.008057,-0.003906,-0.166260,-0.003418,0.000244,0.001709,0,0,0,0
61.055275,-1.007812,-1.289062,0.000000,0.000000,0.000000,-0.009256,-0.008057,-0.003906,-0.166260,0.001465,0.000732,-0.000977,0,0,0,0
61.065041,-1.007812,-1.289062,0.000000,0.000000,0.000000,-0.009624,-0.008057,-0.003906,-0.166260,-0.003906,-0.001221,0.003906,0,0,0,0
61.074806,-1.007812,-1.289062,0.000000,0.000000,0.000000,-0.009954,-0.008057,-0.003906,-0.166260,-0.003418,-0.000244,-0.001465,0,0,0,0
61.084572,-1.007812,-1.289062,0.000000,0.000000,0.000000,-0.009924,-0.008057,-0.003906,-0.166260,-0.000732,0.000244,0.000244,0,0,0,0
61.094337,-1.007812,-1.289062,0.000000,0.000000,0.000000,-0.010101,-0.008057,-0.003906,-0.166260,-0.004883,-0.000244,0.000244,0,0,0,0
61.104099,-1.007812,-1.289062,0.000000,0.000000,0.000000,-0.009903,-0.008057,-0.003906,-0.166260,-0.003906,-0.000244,0.000732,0,0,0,0
61.113865,-1.007812,-1.289062,0.000000,0.000000,0.000000,-0.009756,-0.008057,-0.003906,-0.166260,-0.001221,-0.000732,-0.000977,0,0,0,0
61.123631,-1.007812,-1.289062,0.000000,0.000000,0.000000,-0.009775,-0.008057,-0.003906,-0.166260,-0.000244,-0.002197,0.001221,0,0,0,0
61.133396,-1.007812,-1.289062,0.000000,0.000000,0.000000,-0.009775,-0.008057,-0.003906,-0.166260,-0.002197,-0.002197,-0.001465,0,0,0,0
61.143162,-1.007812,-1.289062,0.000000,0.000000,0.000000,-0.010244,-0.008057,-0.003906,-0.166260,-0.000732,-0.000732,0.002930,0,0,0,0
61.152927,-1.007812,-1.289062,0.000000,0.000000,0.000000,-0.009714,-0.008057,-0.003906,-0.166260,-0.001709,0.000732,-0.000977,0,0,0,0
61.162697,-1.007812,-1.289062,0.000000,0.000000,0.000000,-0.009535,-0.008057,-0.003906,-0.166260,-0.001221,-0.002686,0.000732,0,0,0,0
61.172459,-1.007812,-1.289062,0.000000,0.000000,0.000000,-0.009430,-0.008057,-0.003906,-0.166260,-0.002686,0.000732,0.000244,0,0,0,0
61.182228,-1.007812,-1.289062,0.000000,0.000000,0.000000,-0.009596,-0.008057,-0.003906,-0.166260,-0.003906,0.001221,0.000732,0,0,0,0
61.192001,-1.007812,-1.289062,0.000000,0.000000,0.000000,-0.009853,-0.008242,-0.003995,-0.166441,-0.002686,-0.003174,0.000244,0,0,0,0
61.201759,-1.007812,-1.289062,0.000000,0.000000,0.000000,-0.009607,-0.008057,-0.003906,-0.166260,-0.000732,0.002441,-0.001465,0,0,0,0
61.211529,-1.007812,-1.289062,0.000000,0.000000,0.000000,-0.009790,-0.008057,-0.003906,-0.166260,-0.002197,-0.000732,0.001221,0,0,0,0
61.221291,-1.007812,-1.289062,0.000000,0.000000,0.000000,-0.009243,-0.008057,-0.003906,-0.166260,-0.002686,-0.001221,0.001221,0,0,0,0
61.231056,-1.007812,-1.289062,0.000000,0.000000,0.000000,-0.008959,-0.008057,-0.003906,-0.166260,-0.002197,0.001221,-0.002930,0,0,0,0
61.240822,-1.007812,-1.289062,0.000000,0.000000,0.000000,-0.009407,-0.008057,-0.003906,-0.166260,-0.001709,-0.003174,-0.001953,0,0,0,0
61.250584,-1.007812,-1.289062,0.000000,0.000000,0.000000,-0.008909,-0.008057,-0.003906,-0.166260,-0.001709,-0.002686,-0.000244,0,0,0,0
61.260353,-1.007812,-1.289062,0.000000,0.000000,0.000000,-0.009077,-0.008057,-0.003906,-0.166260,-0.001709,-0.003174,-0.000244,0,0,0,0
61.270119,-1.007812,-1.289062,0.000000,0.000000,0.000000,-0.009264,-0.008057,-0.003906,-0.166260,-0.003906,-0.000244,0.000244,0,0,0,0
61.279884,-1.007812,-1.289062,0.000000,0.000000,0.000000,-0.009193,-0.008057,-0.003906,-0.166504,-0.000732,-0.000732,0.000244,0,0,0,0
61.289650,-1.007812,-1.289062,0.000000,0.000000,0.000000,-0.009315,-0.008057,-0.003906,-0.166504,-0.003418,0.003906,-0.001953,0,0,0,0
61.299412,-1.007812,-1.289062,0.000000,0.000000,0.000000,-0.009571,-0.008057,-0.003906,-0.166504,-0.000732,0.000732,0.001709,0,0,0,0
61.309181,-1.007812,-1.289062,0.000000,0.000000,0.000000,-0.009628,-0.008057,-0.003906,-0.166504,-0.002686,0.000732,0.000732,0,0,0,0
61.318951,-1.007812,-1.289062,0.000000,0.000000,0.000000,-0.009296,-0.008057,-0.003906,-0.166504,-0.004395,-0.001709,-0.000244,0,0,0,0
61.328712,-1.007812,-1.289062,0.000000,0.000000,0.000000,-0.009172,-0.008057,-0.003906,-0.166504,-0.001709,-0.001221,0.001221,0,0,0,0
61.338478,-1.007812,-1.289062,0.000000,0.000000,0.000000,-0.009418,-0.008057,-0.003906,-0.166504,-0.001709,0.000244,0.000732,0,0,0,0
61.348244,-1.007812,-1.289062,0.000000,0.000000,0.000000,-0.008965,-0.008057,-0.003906,-0.166504,-0.002197,0.002441,0.000732,0,0,0,0
61.358009,-1.007812,-1.289062,0.000000,0.000000,0.000000,-0.008905,-0.008057,-0.003906,-0.166504,-0.002197,-0.000244,0.000732,0,0,0,0
61.367775,-1.007812,-1.289062,0.000000,0.000000,0.000000,-0.008867,-0.008057,-0.003906,-0.166504,-0.002197,-0.000244,0.000244,0,0,0,0
61.377541,-1.007812,-1.289062,0.000000,0.000000,0.000000,-0.009153,-0.008057,-0.003906,-0.166504,-0.004395,-0.000244,0.000244,0,0,0,0
61.387306,-1.007812,-1.289062,0.000000,0.000000,0.000000,-0.008991,-0.008057,-0.003906,-0.166504,-0.003418,-0.001709,0.000244,0,0,0,0
61.397072,-1.007812,-1.289062,0.000000,0.000000,0.000000,-0.009289,-0.008057,-0.003906,-0.166504,-0.003906,-0.001709,-0.001465,0,0,0,0
61.406860,-1.007812,-1.289062,0.000000,0.000000,0.000000,-0.009302,-0.008057,-0.003906,-0.166504,-0.005371,-0.000732,-0.000244,0,0,0,0
61.416622,-1.007812,-1.289062,0.000000,0.000000,0.000000,-0.008642,-0.008057,-0.003906,-0.166504,-0.003906,-0.001709,0.000244,0,0,0,0
61.426365,-1.007812,-1.289062,0.000000,0.000000,0.000000,-0.008575,-0.008057,-0.003906,-0.166504,-0.002686,-0.001709,0.001221,0,0,0,0
61.436131,-1.007812,-1.289062,0.000000,0.000000,0.000000,-0.008532,-0.008057,-0.003906,-0.166504,-0.004395,0.000732,0.001221,0,0,0,0
61.445896,-1.007812,-1.289062,0.000000,0.000000,0.000000,-0.008514,-0.008057,-0.003906,-0.166504,-0.001709,0.001953,0.001709,0,0,0,0
61.455662,-1.007812,-1.289062,0.000000,0.000000,0.000000,-0.008591,-0.008301,-0.003906,-0.166504,-0.007080,-0.001709,0.000244,0,0,0,0
61.465427,-1.007812,-1.289062,0.000000,0.000000,0.000000,-0.008873,-0.008301,-0.003906,-0.166504,-0.002686,-0.001709,0.000244,0,0,0,0
61.475197,-1.007812,-1.289062,0.000000,0.000000,0.000000,-0.008564,-0.008301,-0.003906,-0.166504,-0.002686,-0.001221,0.000732,0,0,0,0
61.484962,-1.007812,-1.289062,0.000000,0.000000,0.000000,-0.007360,-0.008301,-0.003906,-0.166504,-0.004395,-0.002197,0.000732,0,0,0,0
61.494736,-1.007812,-1.289062,0.000000,0.000000,0.000000,-0.007668,-0.008302,-0.004000,-0.166503,-0.002686,0.000732,-0.000244,0,0,0,0
61.504494,-1.007812,-1.289062,0.000000,0.000000,0.000000,-0.007969,-0.008301,-0.003906,-0.166504,-0.004883,-0.004395,0.001709,0,0,0,0
61.514259,-1.007812,-1.289062,0.000000,0.000000,0.000000,-0.007782,-0.008301,-0.003906,-0.166504,-0.003906,-0.001221,0.000732,0,0,0,0
61.524025,-1.007812,-1.289062,0.000000,0.000000,0.000000,-0.008085,-0.008301,-0.003906,-0.166504,-0.003418,0.000732,0.001709,0,0,0,0
61.533794,-1.007812,-1.289062,0.000000,0.000000,0.000000,-0.008307,-0.008301,-0.003906,-0.166504,-0.004883,-0.000732,-0.001465,0,0,0,0
61.543556,-1.007812,-1.289062,0.000000,0.000000,0.000000,-0.008692,-0.008301,-0.003906,-0.166504,-0.002686,-0.000244,0.000244,0,0,0,0
61.553322,-1.007812,-1.289062,0.000000,0.000000,0.000000,-0.008635,-0.008301,-0.003906,-0.166504,-0.002686,-0.001221,0.001221,0,0,0,0
61.563091,-1.007812,-1.289062,0.000000,0.000000,0.000000,-0.008211,-0.008302,-0.004000,-0.166503,-0.003906,-0.000732,0.001709,0,0,0,0
61.572849,-1.007812,-1.289062,0.000000,0.000000,0.000000,-0.008453,-0.008301,-0.003906,-0.166504,-0.002686,-0.000732,0.000244,0,0,0,0
61.582615,-1.007812,-1.289062,0.000000,0.000000,0.000000,-0.007872,-0.008301,-0.003906,-0.166504,-0.001709,-0.001709,0.000244,0,0,0,0
61.592384,-1.007812,-1.289062,0.000000,0.000000,0.000000,-0.008177,-0.008301,-0.003906,-0.166504,-0.000732,0.000732,-0.001953,0,0,0,0
61.602146,-1.007812,-1.289062,0.000000,0.000000,0.000000,-0.008566,-0.008301,-0.003906,-0.166504,-0.004395,0.001953,-0.000977,0,0,0,0
61.611919,-1.007812,-1.289062,0.000000,0.000000,0.000000,-0.008970,-0.008301,-0.003906,-0.166504,-0.003906,-0.000732,-0.001953,0,0,0,0
61.621681,-1.007812,-1.289062,0.000000,0.000000,0.000000,-0.008604,-0.008301,-0.003906,-0.166504,-0.001709,-0.002197,0.000732,0,0,0,0
61.631443,-1.007812,-1.289062,0.000000,0.000000,0.000000,-0.008768,-0.008301,-0.003906,-0.166504,-0.000732,-0.001709,0.000732,0,0,0,0
61.641212,-1.007812,-1.289062,0.000000,0.000000,0.000000,-0.008389,-0.008301,-0.003906,-0.166504,-0.006104,-0.002686,0.000244,0,0,0,0
61.650978,-1.007812,-1.289062,0.000000,0.000000,0.000000,-0.008226,-0.008301,-0.003906,-0.166504,-0.006104,-0.001221,0.001709,0,0,0,0
61.660740,-1.007812,-1.289062,0.000000,0.000000,0.000000,-0.008417,-0.008301,-0.003906,-0.166504,-0.003418,-0.001221,-0.000977,0,0,0,0
61.670506,-1.007812,-1.289062,0.000000,0.000000,0.000000,-0.008564,-0.008301,-0.003906,-0.166504,-0.002197,-0.002197,-0.000977,0,0,0,0
61.680275,-1.007812,-1.289062,0.000000,0.000000,0.000000,-0.008217,-0.008301,-0.003906,-0.166504,-0.003906,-0.000732,0.001709,0,0,0,0
61.690037,-1.007812,-1.289062,0.000000,0.000000,0.000000,-0.008484,-0.008301,-0.003906,-0.166504,-0.003906,-0.000732,0.001709,0,0,0,0
61.699802,-1.007812,-1.289062,0.000000,0.000000,0.000000,-0.009054,-0.008301,-0.003906,-0.166504,-0.002197,-0.003662,0.001709,0,0,0,0
61.709572,-1.007812,-1.289062,0.000000,0.000000,0.000000,-0.009064,-0.008301,-0.003906,-0.166504,-0.004395,-0.001221,-0.002441,0,0,0,0
61.719337,-1.007812,-1.289062,0.000000,0.000000,0.000000,-0.008867,-0.008301,-0.003906,-0.166504,-0.002197,0.000244,0.001709,0,0,0,0
61.729103,-1.007812,-1.289062,0.000000,0.000000,0.000000,-0.009125,-0.008301,-0.003906,-0.166504,-0.002686,-0.001221,0.000732,0,0,0,0
61.738869,-1.007812,-1.289062,0.000000,0.000000,0.000000,-0.008986,-0.008301,-0.003906,-0.166504,-0.006104,-0.001221,0.000732,0,0,0,0
61.748634,-1.007812,-1.289062,0.000000,0.000000,0.000000,-0.008499,-0.008301,-0.003906,-0.166504,-0.001221,-0.002197,-0.000244,0,0,0,0
61.758400,-1.007812,-1.289062,0.000000,0.000000,0.000000,-0.008774,-0.008301,-0.003906,-0.166504,-0.000244,-0.002197,-0.000244,0,0,0,0
61.768166,-1.007812,-1.289062,0.000000,0.000000,0.000000,-0.008844,-0.008301,-0.003906,-0.166504,-0.004395,-0.002686,-0.001465,0,0,0,0
61.777946,-1.007812,-1.289062,0.000000,0.000000,0.000000,-0.009275,-0.008301,-0.003906,-0.166504,-0.003174,0.000732,-0.001465,0,0,0,0
61.787697,-1.007812,-1.289062,0.000000,0.000000,0.000000,-0.008757,-0.008301,-0.003906,-0.166504,-0.002441,-0.000732,0.001709,0,0,0,0
61.797466,-1.007812,-1.289062,0.000000,0.000000,0.000000,-0.009035,-0.008424,-0.004010,-0.166502,-0.001465,-0.000732,-0.001465,0,0,0,0
61.807228,-1.007812,-1.289062,0.000000,0.000000,0.000000,-0.008974,-0.008301,-0.003906,-0.166504,-0.003662,-0.001221,0.000732,0,0,0,0
61.816998,-1.007812,-1.289062,0.000000,0.000000,0.000000,-0.008646,-0.008301,-0.003906,-0.166504,-0.002441,-0.001709,0.002197,0,0,0,0
61.826759,-1.007812,-1.289062,0.000000,0.000000,0.000000,-0.008924,-0.008301,-0.003906,-0.166504,-0.004150,-0.002686,0.003418,0,0,0,0
61.836521,-1.007812,-1.289062,0.000000,0.000000,0.000000,-0.008898,-0.008301,-0.003906,-0.166504,0.000000,-0.001221,0.000732,0,0,0,0
61.846291,-1.007812,-1.289062,0.000000,0.000000,0.000000,-0.007988,-0.008301,-0.003906,-0.166504,-0.004150,-0.002197,-0.001465,0,0,0,0
61.856052,-1.007812,-1.289062,0.000000,0.000000,0.000000,-0.008514,-0.008301,-0.003906,-0.166504,-0.001465,0.000732,0.001221,0,0,0,0
61.865826,-1.007812,-1.289062,0.000000,0.000000,0.000000,-0.008593,-0.008424,-0.004010,-0.166502,-0.002441,-0.001221,0.000732,0,0,0,0
61.875587,-1.007812,-1.289062,0.000000,0.000000,0.000000,-0.010103,-0.008301,-0.003906,-0.166504,-0.000977,-0.000732,0.001709,0,0,0,0
61.885353,-1.007812,-1.289062,0.000000,0.000000,0.000000,-0.009127,-0.008301,-0.003906,-0.166504,-0.001953,-0.002686,0.000244,0,0,0,0
61.895115,-1.007812,-1.289062,0.000000,0.000000,0.000000,-0.009550,-0.008301,-0.003906,-0.166504,-0.003174,-0.002197,0.000244,0,0,0,0
61.904881,-1.007812,-1.289062,0.000000,0.000000,0.000000,-0.009848,-0.008301,-0.003906,-0.166504,-0.003174,-0.002197,-0.001953,0,0,0,0
61.914646,-1.007812,-1.289062,0.000000,0.000000,0.000000,-0.009119,-0.008301,-0.003906,-0.166504,-0.004150,-0.001221,0.000732,0,0,0,0
61.924412,-1.007812,-1.289062,0.000000,0.000000,0.000000,-0.009628,-0.008301,-0.003906,-0.166504,-0.004150,-0.000244,0.002930,0,0,0,0
61.934177,-1.007812,-1.289062,0.000000,0.000000,0.000000,-0.009604,-0.008301,-0.003906,-0.166504,-0.003662,-0.002197,0.000244,0,0,0,0
61.943947,-1.007812,-1.289062,0.000000,0.000000,0.000000,-0.009806,-0.008301,-0.003906,-0.166504,-0.002441,-0.001709,-0.002441,0,0,0,0
61.953709,-1.007812,-1.289062,0.000000,0.000000,0.000000,-0.010000,-0.008301,-0.003906,-0.166504,-0.003662,0.000244,0.000732,0,0,0,0
61.963482,-1.007812,-1.289062,0.000000,0.000000,0.000000,-0.009968,-0.008301,-0.003906,-0.166504,-0.000977,-0.001709,0.001709,0,0,0,0
61.973244,-1.007812,-1.289062,0.000000,0.000000,0.000000,-0.009970,-0.008301,-0.003906,-0.166504,-0.003662,-0.000732,-0.000977,0,0,0,0
61.983006,-1.007812,-1.289062,0.000000,0.000000,0.000000,-0.009047,-0.008301,-0.003906,-0.166504,-0.004639,-0.001221,0.001709,0,0,0,0
61.992771,-1.007812,-1.289062,0.000000,0.000000,0.000000,-0.009186,-0.008301,-0.003906,-0.166504,-0.001953,-0.000732,-0.000244,0,0,0,0
62.002537,-1.007812,-1.289062,0.000000,0.000000,0.000000,-0.009394,-0.008301,-0.003906,-0.166504,-0.001465,0.000244,-0.002930,0,0,0,0
62.012302,-1.007812,-1.289062,0.000000,0.000000,0.000000,-0.008455,-0.008301,-0.003906,-0.166504,-0.003662,-0.000732,-0.000244,0,0,0,0
62.022076,-1.007812,-1.289062,0.000000,0.000000,0.000000,-0.008577,-0.008301,-0.003906,-0.166504,-0.003174,0.000244,0.000732,0,0,0,0
62.031834,-1.007812,-1.289062,0.000000,0.000000,0.000000,-0.009811,-0.008301,-0.003906,-0.166504,-0.001465,-0.002686,0.000244,0,0,0,0
62.041603,-1.007812,-1.289062,0.000000,0.000000,0.000000,-0.010080,-0.008301,-0.003906,-0.166504,-0.002441,0.000244,0.000732,0,0,0,0
62.051369,-1.007812,-1.289062,0.000000,0.000000,0.000000,-0.008713,-0.008301,-0.003906,-0.166504,-0.002441,-0.000732,0.001709,0,0,0,0
62.061134,-1.007812,-1.289062,0.000000,0.000000,0.000000,-0.008663,-0.008301,-0.003906,-0.166504,-0.001465,-0.002197,-0.000977,0,0,0,0
62.070900,-1.007812,-1.289062,0.000000,0.000000,0.000000,-0.008526,-0.008301,-0.003906,-0.166504,-0.000977,0.000244,0.000732,0,0,0,0
62.080666,-1.007812,-1.289062,0.000000,0.000000,0.000000,-0.007378,-0.008301,-0.003906,-0.166504,0.000000,-0.001221,0.001221,0,0,0,0
62.090431,-1.007812,-1.289062,0.000000,0.000000,0.000000,-0.007654,-0.008301,-0.003906,-0.166504,0.000732,-0.001221,0.002197,0,0,0,0
62.100197,-1.007812,-1.289062,0.000000,0.000000,0.000000,-0.008024,-0.008301,-0.003906,-0.166504,-0.000488,-0.000732,0.002930,0,0,0,0
62.109962,-1.007812,-1.289062,0.000000,0.000000,0.000000,-0.009212,-0.008301,-0.003906,-0.166504,-0.002441,-0.000244,-0.000244,0,0,0,0
62.119724,-1.007812,-1.289062,0.000000,0.000000,0.000000,-0.008022,-0.008301,-0.003906,-0.166504,-0.001465,-0.000732,0.000732,0,0,0,0
62.129490,-1.007812,-1.289062,0.000000,0.000000,0.000000,-0.007843,-0.008301,-0.003906,-0.166504,-0.001465,-0.000244,0.000244,0,0,0,0
62.139259,-1.007812,-1.289062,0.000000,0.000000,0.000000,-0.007748,-0.008301,-0.003906,-0.166504,-0.001465,-0.001709,0.000732,0,0,0,0
62.149025,-1.007812,-1.289062,0.000000,0.000000,0.000000,-0.007011,-0.008301,-0.003906,-0.166504,-0.001465,0.001221,-0.000244,0,0,0,0
62.158813,-1.007812,-1.289062,0.000000,0.000000,0.000000,-0.007063,-0.008301,-0.003906,-0.166504,-0.002441,-0.002197,0.001709,0,0,0,0
62.168564,-1.007812,-1.289062,0.000000,0.000000,0.000000,-0.007446,-0.008302,-0.004000,-0.166564,-0.004150,-0.004883,-0.001465,0,0,0,0
62.178326,-1.007812,-1.289062,0.000000,0.000000,0.000000,-0.007240,-0.008301,-0.003906,-0.166504,-0.001465,0.002441,-0.000244,0,0,0,0
62.188087,-1.007812,-1.289062,0.000000,0.000000,0.000000,-0.007338,-0.008301,-0.003906,-0.166504,-0.003174,-0.001709,-0.001465,0,0,0,0
62.197853,-1.007812,-1.289062,0.000000,0.000000,0.000000,-0.007511,-0.008301,-0.003906,-0.166504,0.000732,-0.001709,0.000244,0,0,0,0
62.207623,-1.007812,-1.289062,0.000000,0.000000,0.000000,-0.007435,-0.008301,-0.003906,-0.166504,-0.000977,0.000732,0.001221,0,0,0,0
62.217388,-1.007812,-1.289062,0.000000,0.000000,0.000000,-0.006529,-0.008301,-0.003906,-0.166504,-0.005127,-0.000244,-0.000977,0,0,0,0
62.227154,-1.007812,-1.289062,0.000000,0.000000,0.000000,-0.007149,-0.008057,-0.003906,-0.166504,-0.000488,-0.003662,-0.000977,0,0,0,0
62.236916,-1.007812,-1.289062,0.000000,0.000000,0.000000,-0.007217,-0.008057,-0.003906,-0.166504,-0.000977,0.000732,0.000732,0,0,0,0
62.246677,-1.007812,-1.289062,0.000000,0.000000,0.000000,-0.006521,-0.008057,-0.003906,-0.166504,-0.000488,-0.000732,0.001709,0,0,0,0
62.256447,-1.007812,-1.289062,0.000000,0.000000,0.000000,-0.006556,-0.008057,-0.003906,-0.166504,-0.003662,-0.002686,-0.000244,0,0,0,0
62.266209,-1.007812,-1.289062,0.000000,0.000000,0.000000,-0.007620,-0.008057,-0.003906,-0.166504,-0.002441,0.002441,-0.000244,0,0,0,0
62.275978,-1.007812,-1.289062,0.000000,0.000000,0.000000,-0.007717,-0.008057,-0.003906,-0.166504,-0.000977,-0.000732,0.002197,0,0,0,0
62.285744,-1.007812,-1.289062,0.000000,0.000000,0.000000,-0.006878,-0.008057,-0.003906,-0.166504,-0.001953,-0.001221,0.000732,0,0,0,0
62.295509,-1.007812,-1.289062,0.000000,0.000000,0.000000,-0.007374,-0.008057,-0.003906,-0.166504,-0.001465,-0.000732,0.000732,0,0,0,0
62.305275,-1.007812,-1.289062,0.000000,0.000000,0.000000,-0.007504,-0.008057,-0.003906,-0.166504,-0.001465,0.000732,0.000244,0,0,0,0
62.315041,-1.007812,-1.289062,0.000000,0.000000,0.000000,-0.006786,-0.008057,-0.003906,-0.166504,0.002197,-0.000244,0.000732,0,0,0,0
62.324806,-1.007812,-1.289062,0.000000,0.000000,0.000000,-0.007078,-0.008057,-0.003906,-0.166504,0.000732,-0.000244,-0.000244,0,0,0,0
62.334572,-1.007812,-1.289062,0.000000,0.000000,0.000000,-0.007261,-0.008057,-0.003906,-0.166504,-0.001465,-0.001221,0.000244,0,0,0,0
62.344337,-1.007812,-1.289062,0.000000,0.000000,0.000000,-0.007837,-0.008057,-0.003906,-0.166504,-0.001953,-0.000244,0.001709,0,0,0,0
62.354103,-1.007812,-1.289062,0.000000,0.000000,0.000000,-0.007013,-0.008057,-0.003906,-0.166504,-0.004639,-0.002197,0.001221,0,0,0,0
62.363869,-1.007812,-1.289062,0.000000,0.000000,0.000000,-0.007246,-0.008057,-0.003906,-0.166504,-0.001465,-0.000244,-0.000977,0,0,0,0
62.373631,-1.007812,-1.289062,0.000000,0.000000,0.000000,-0.007788,-0.008057,-0.003906,-0.166504,-0.004150,-0.002197,-0.000977,0,0,0,0
62.383400,-1.007812,-1.289062,0.000000,0.000000,0.000000,-0.007219,-0.008057,-0.003906,-0.166504,0.000000,0.000244,0.003418,0,0,0,0
62.393166,-1.007812,-1.289062,0.000000,0.000000,0.000000,-0.007492,-0.008057,-0.003906,-0.166504,-0.003662,-0.000732,-0.001953,0,0,0,0
62.402927,-1.007812,-1.289062,0.000000,0.000000,0.000000,-0.007874,-0.008057,-0.003906,-0.166504,0.002686,-0.000244,0.000244,0,0,0,0
62.412693,-1.007812,-1.289062,0.000000,0.000000,0.000000,-0.007120,-0.008057,-0.003906,-0.166504,-0.002441,-0.001221,-0.000977,0,0,0,0
62.422459,-1.007812,-1.289062,0.000000,0.000000,0.000000,-0.006397,-0.008057,-0.003906,-0.166504,-0.004639,-0.000244,0.001221,0,0,0,0
62.432228,-1.007812,-1.289062,0.000000,0.000000,0.000000,-0.006437,-0.008057,-0.003906,-0.166504,-0.000977,-0.001221,0.002197,0,0,0,0
62.441990,-1.007812,-1.289062,0.000000,0.000000,0.000000,-0.006781,-0.008057,-0.003906,-0.166504,-0.004150,-0.002686,-0.000244,0,0,0,0
62.451756,-1.007812,-1.289062,0.000000,0.000000,0.000000,-0.006266,-0.008057,-0.003906,-0.166504,-0.001465,-0.000732,0.000732,0,0,0,0
62.461521,-1.007812,-1.289062,0.000000,0.000000,0.000000,-0.006184,-0.008057,-0.003906,-0.166504,-0.000977,-0.001709,-0.001465,0,0,0,0
62.471294,-1.007812,-1.289062,0.000000,0.000000,0.000000,-0.006416,-0.008176,-0.004051,-0.166564,0.002197,-0.001709,0.004883,0,0,0,0
62.481056,-1.007812,-1.289062,0.000000,0.000000,0.000000,-0.006130,-0.008057,-0.003906,-0.166504,-0.001953,-0.001709,-0.001465,0,0,0,0
62.490818,-1.007812,-1.289062,0.000000,0.000000,0.000000,-0.006319,-0.008057,-0.003906,-0.166504,-0.000977,-0.001709,-0.000244,0,0,0,0
62.500584,-1.007812,-1.289062,0.000000,0.000000,0.000000,-0.007029,-0.008057,-0.003906,-0.166504,-0.002441,0.000732,-0.001465,0,0,0,0
62.510349,-1.007812,-1.289062,0.000000,0.000000,0.000000,-0.007185,-0.008057,-0.003906,-0.166504,0.000000,-0.000732,0.000732,0,0,0,0
62.520119,-1.007812,-1.289062,0.000000,0.000000,0.000000,-0.006756,-0.008057,-0.003906,-0.166504,-0.003174,-0.001221,0.002197,0,0,0,0
62.529884,-1.007812,-1.289062,0.000000,0.000000,0.000000,-0.006981,-0.008057,-0.003906,-0.166504,0.000000,-0.002686,0.000244,0,0,0,0
62.539658,-1.007812,-1.289062,0.000000,0.000000,0.000000,-0.006851,-0.008115,-0.004046,-0.166564,-0.001953,-0.000244,-0.001465,0,0,0,0
62.549416,-1.007812,-1.289062,0.000000,0.000000,0.000000,-0.006258,-0.008057,-0.003906,-0.166504,0.000000,0.001221,0.000732,0,0,0,0
62.559189,-1.007812,-1.289062,0.000000,0.000000,0.000000,-0.006529,-0.008057,-0.003906,-0.166504,-0.000977,-0.000244,0.001221,0,0,0,0
62.568951,-1.007812,-1.289062,0.000000,0.000000,0.000000,-0.006662,-0.008057,-0.003906,-0.166504,-0.000488,-0.002686,-0.000244,0,0,0,0
62.578716,-1.007812,-1.289062,0.000000,0.000000,0.000000,-0.007298,-0.008057,-0.003906,-0.166504,-0.000977,0.001953,0.000732,0,0,0,0
62.588474,-1.007812,-1.289062,0.000000,0.000000,0.000000,-0.007030,-0.008057,-0.003906,-0.166504,-0.004150,0.000244,-0.001953,0,0,0,0
62.598240,-1.007812,-1.289062,0.000000,0.000000,0.000000,-0.007044,-0.008057,-0.003906,-0.166504,-0.000977,-0.001709,-0.000977,0,0,0,0
62.608006,-1.007812,-1.289062,0.000000,0.000000,0.000000,-0.007072,-0.008057,-0.003906,-0.166504,-0.001953,0.000244,-0.000977,0,0,0,0
62.617775,-1.007812,-1.289062,0.000000,0.000000,0.000000,-0.006481,-0.008057,-0.003906,-0.166504,-0.001953,-0.001221,0.000244,0,0,0,0
62.627544,-1.007812,-1.289062,0.000000,0.000000,0.000000,-0.006630,-0.008057,-0.003906,-0.166504,0.002197,-0.003174,0.000732,0,0,0,0
62.637306,-1.007812,-1.289062,0.000000,0.000000,0.000000,-0.006283,-0.008057,-0.003906,-0.166504,0.000732,-0.001221,-0.000244,0,0,0,0
62.647072,-1.007812,-1.289062,0.000000,0.000000,0.000000,-0.005629,-0.008057,-0.003906,-0.166504,-0.003174,-0.000244,-0.000977,0,0,0,0
62.656857,-1.007812,-1.289062,0.000000,0.000000,0.000000,-0.005907,-0.008057,-0.003906,-0.166504,0.000000,-0.002197,-0.000244,0,0,0,0
62.666599,-1.007812,-1.289062,0.000000,0.000000,0.000000,-0.006062,-0.008057,-0.003906,-0.166504,-0.002441,-0.000732,0.002930,0,0,0,0
62.676369,-1.007812,-1.289062,0.000000,0.000000,0.000000,-0.006342,-0.008057,-0.003906,-0.166504,-0.001953,-0.001709,0.002197,0,0,0,0
62.686131,-1.007812,-1.289062,0.000000,0.000000,0.000000,-0.006008,-0.008057,-0.003906,-0.166504,-0.001953,-0.001221,0.000244,0,0,0,0
62.695908,-1.007812,-1.289062,0.000000,0.000000,0.000000,-0.005852,-0.008057,-0.003906,-0.166504,-0.000488,0.000732,0.000244,0,0,0,0
62.705662,-1.007812,-1.289062,0.000000,0.000000,0.000000,-0.006168,-0.008057,-0.003906,-0.166504,-0.004639,-0.004883,0.002197,0,0,0,0
62.715427,-1.007812,-1.289062,0.000000,0.000000,0.000000,-0.005733,-0.008057,-0.003906,-0.166504,0.001709,-0.002197,0.001953,0,0,0,0
62.725193,-1.007812,-1.289062,0.000000,0.000000,0.000000,-0.005924,-0.008057,-0.003906,-0.166504,-0.002441,-0.002686,0.000000,0,0,0,0
62.734962,-1.007812,-1.289062,0.000000,0.000000,0.000000,-0.006641,-0.008057,-0.003906,-0.166504,-0.000488,-0.001709,0.000000,0,0,0,0
62.744728,-1.007812,-1.289062,0.000000,0.000000,0.000000,-0.006630,-0.008057,-0.003906,-0.166504,-0.000488,-0.001221,0.000488,0,0,0,0
62.754494,-1.007812,-1.289062,0.000000,0.000000,0.000000,-0.006132,-0.008057,-0.003906,-0.166504,-0.001953,-0.000732,-0.000488,0,0,0,0
62.764278,-1.007812,-1.289062,0.000000,0.000000,0.000000,-0.006245,-0.008057,-0.003906,-0.166504,-0.001465,-0.002197,0.000000,0,0,0,0
62.774025,-1.007812,-1.289062,0.000000,0.000000,0.000000,-0.006426,-0.008057,-0.003906,-0.166504,-0.003662,-0.000244,0.000488,0,0,0,0
62.783791,-1.007812,-1.289062,0.000000,0.000000,0.000000,-0.005840,-0.008057,-0.003906,-0.166504,0.002197,-0.000732,0.000977,0,0,0,0
62.793556,-1.007812,-1.289062,0.000000,0.000000,0.000000,-0.006504,-0.008057,-0.003906,-0.166504,-0.001465,0.000244,0.000488,0,0,0,0
62.803322,-1.007812,-1.289062,0.000000,0.000000,0.000000,-0.006760,-0.008057,-0.003906,-0.166504,-0.000977,-0.002197,0.000488,0,0,0,0
62.813087,-1.007812,-1.289062,0.000000,0.000000,0.000000,-0.006538,-0.008057,-0.003906,-0.166504,-0.000977,-0.000244,0.000488,0,0,0,0
62.822853,-1.007812,-1.289062,0.000000,0.000000,0.000000,-0.006664,-0.008057,-0.003906,-0.166504,-0.003174,-0.001221,-0.001221,0,0,0,0
62.832615,-1.007812,-1.289062,0.000000,0.000000,0.000000,-0.006601,-0.008057,-0.003906,-0.166504,-0.000488,-0.003662,0.000488,0,0,0,0
62.842388,-1.007812,-1.289062,0.000000,0.000000,0.000000,-0.006752,-0.008059,-0.003980,-0.166565,-0.002441,0.000244,-0.002197,0,0,0,0
62.852146,-1.007812,-1.289062,0.000000,0.000000,0.000000,-0.006084,-0.008057,-0.003906,-0.166504,0.000000,-0.000732,-0.001709,0,0,0,0
62.861912,-1.007812,-1.289062,0.000000,0.000000,0.000000,-0.006430,-0.008057,-0.003906,-0.166504,0.000000,-0.000732,0.000488,0,0,0,0
62.871677,-1.007812,-1.289062,0.000000,0.000000,0.000000,-0.006424,-0.008057,-0.003906,-0.166504,-0.000488,-0.001221,-0.001709,0,0,0,0
62.881447,-1.007812,-1.289062,0.000000,0.000000,0.000000,-0.005812,-0.008057,-0.003906,-0.166504,-0.000977,-0.001709,0.000488,0,0,0,0
62.891209,-1.007812,-1.289062,0.000000,0.000000,0.000000,-0.005985,-0.008057,-0.003906,-0.166504,-0.000488,-0.002686,0.000977,0,0,0,0
62.900978,-1.007812,-1.289062,0.000000,0.000000,0.000000,-0.006245,-0.008057,-0.003906,-0.166504,-0.002441,-0.004883,0.000488,0,0,0,0
62.910744,-1.007812,-1.289062,0.000000,0.000000,0.000000,-0.006458,-0.008057,-0.003906,-0.166504,0.001709,-0.000244,-0.000488,0,0,0,0
62.920509,-1.007812,-1.289062,0.000000,0.000000,0.000000,-0.006290,-0.008057,-0.003906,-0.166504,0.000000,-0.001709,-0.001221,0,0,0,0
62.930271,-1.007812,-1.289062,0.000000,0.000000,0.000000,-0.006184,-0.008057,-0.003906,-0.166504,0.001221,0.001953,0.000000,0,0,0,0
62.940037,-1.007812,-1.289062,0.000000,0.000000,0.000000,-0.006498,-0.008057,-0.003906,-0.166504,-0.001465,0.000732,0.000488,0,0,0,0
62.949802,-1.007812,-1.289062,0.000000,0.000000,0.000000,-0.006538,-0.008057,-0.003906,-0.166504,0.000732,0.001221,0.000000,0,0,0,0
62.959568,-1.007812,-1.289062,0.000000,0.000000,0.000000,-0.006361,-0.007812,-0.003906,-0.166504,-0.001953,-0.002686,0.000977,0,0,0,0
62.969337,-1.007812,-1.289062,0.000000,0.000000,0.000000,-0.006714,-0.007812,-0.003906,-0.166504,-0.002441,-0.001221,0.000488,0,0,0,0
62.979099,-1.007812,-1.289062,0.000000,0.000000,0.000000,-0.006321,-0.007812,-0.003906,-0.166504,0.001221,-0.001709,0.001953,0,0,0,0
62.988865,-1.007812,-1.289062,0.000000,0.000000,0.000000,-0.006195,-0.007812,-0.003906,-0.166504,-0.001953,0.000244,0.000488,0,0,0,0
62.998661,-1.007812,-1.289062,0.000000,0.000000,0.000000,-0.006540,-0.007812,-0.003906,-0.166504,0.002197,-0.002197,-0.000488,0,0,0,0
63.008396,-1.007812,-1.289062,0.000000,0.000000,0.000000,-0.006578,-0.007812,-0.003906,-0.166504,-0.000488,0.000244,0.000488,0,0,0,0
63.018166,-1.007812,-1.289062,0.000000,0.000000,0.000000,-0.006428,-0.007812,-0.003906,-0.166504,-0.001953,-0.001709,0.000000,0,0,0,0
63.027927,-1.007812,-1.289062,0.000000,0.000000,0.000000,-0.006660,-0.007812,-0.003906,-0.166504,0.001221,-0.000732,0.000977,0,0,0,0
63.037697,-1.007812,-1.289062,0.000000,0.000000,0.000000,-0.007143,-0.007812,-0.003906,-0.166504,-0.000488,-0.000732,0.000488,0,0,0,0
63.047462,-1.007812,-1.289062,0.000000,0.000000,0.000000,-0.005463,-0.007812,-0.003906,-0.166504,-0.001953,-0.001221,0.000977,0,0,0,0
63.057228,-1.007812,-1.289062,0.000000,0.000000,0.000000,-0.005688,-0.007812,-0.003906,-0.166504,-0.001953,-0.001221,0.000000,0,0,0,0
63.066994,-1.007812,-1.289062,0.000000,0.000000,0.000000,-0.005623,-0.007812,-0.003906,-0.166504,-0.001953,-0.000732,-0.002686,0,0,0,0
63.076756,-1.007812,-1.289062,0.000000,0.000000,0.000000,-0.005705,-0.007812,-0.003906,-0.166504,-0.001953,-0.001221,0.000977,0,0,0,0
63.086521,-1.007812,-1.289062,0.000000,0.000000,0.000000,-0.006121,-0.007812,-0.003906,-0.166504,0.001221,-0.000732,0.001953,0,0,0,0
63.096287,-1.007812,-1.289062,0.000000,0.000000,0.000000,-0.006159,-0.007812,-0.003906,-0.166504,0.000000,0.000244,0.004150,0,0,0,0
63.106056,-1.007812,-1.289062,0.000000,0.000000,0.000000,-0.006327,-0.007812,-0.003906,-0.166504,0.000732,0.002441,0.003662,0,0,0,0
63.115818,-1.007812,-1.289062,0.000000,0.000000,0.000000,-0.006262,-0.007812,-0.003906,-0.166504,-0.004639,0.000732,0.000488,0,0,0,0
63.125584,-1.007812,-1.289062,0.000000,0.000000,0.000000,-0.005056,-0.007812,-0.003906,-0.166504,-0.000488,-0.001709,0.000488,0,0,0,0
63.135349,-1.007812,-1.289062,0.000000,0.000000,0.000000,-0.005259,-0.007812,-0.003906,-0.166504,0.001709,0.000732,0.002686,0,0,0,0
63.145123,-1.007812,-1.289062,0.000000,0.000000,0.000000,-0.005119,-0.007812,-0.003906,-0.166504,0.002197,-0.004395,-0.001709,0,0,0,0
63.154881,-1.007812,-1.289062,0.000000,0.000000,0.000000,-0.005283,-0.007812,-0.003906,-0.166504,-0.000977,-0.002686,-0.000488,0,0,0,0
63.164646,-1.007812,-1.289062,0.000000,0.000000,0.000000,-0.005390,-0.007812,-0.003906,-0.166504,-0.000977,-0.000732,0.000488,0,0,0,0
63.174412,-1.007812,-1.289062,0.000000,0.000000,0.000000,-0.005333,-0.007812,-0.003906,-0.166504,0.000000,-0.002197,0.001465,0,0,0,0
63.184177,-1.007812,-1.289062,0.000000,0.000000,0.000000,-0.005562,-0.007812,-0.003906,-0.166504,-0.000488,0.000244,0.002686,0,0,0,0
63.193943,-1.007812,-1.289062,0.000000,0.000000,0.000000,-0.005745,-0.007812,-0.003906,-0.166504,-0.001465,-0.002197,0.001953,0,0,0,0
63.203732,-1.007812,-1.289062,0.000000,0.000000,0.000000,-0.003370,-0.007812,-0.003906,-0.166504,-0.001465,0.000244,-0.002197,0,0,0,0
63.213482,-1.007812,-1.289062,0.000000,0.000000,0.000000,-0.004154,-0.007812,-0.003906,-0.166504,-0.000977,-0.002197,0.001953,0,0,0,0
63.223240,-1.007812,-1.289062,0.000000,0.000000,0.000000,-0.004141,-0.007812,-0.003906,-0.166504,-0.001465,0.001221,-0.002197,0,0,0,0
63.233006,-1.007812,-1.289062,0.000000,0.000000,0.000000,-0.004358,-0.007812,-0.003906,-0.166504,-0.001465,-0.002686,0.000977,0,0,0,0
63.242775,-1.007812,-1.289062,0.000000,0.000000,0.000000,-0.004333,-0.007812,-0.003906,-0.166504,-0.001953,-0.001221,0.000488,0,0,0,0
63.252541,-1.007812,-1.289062,0.000000,0.000000,0.000000,-0.004747,-0.007812,-0.003906,-0.166504,-0.001953,-0.002197,-0.000488,0,0,0,0
63.262306,-1.007812,-1.289062,0.000000,0.000000,0.000000,-0.004934,-0.007812,-0.003906,-0.166504,0.000732,0.000244,0.000000,0,0,0,0
63.272072,-1.007812,-1.289062,0.000000,0.000000,0.000000,-0.005011,-0.007812,-0.003906,-0.166504,-0.001953,-0.003174,0.000000,0,0,0,0
63.281837,-1.007812,-1.289062,0.000000,0.000000,0.000000,-0.003321,-0.007812,-0.003906,-0.166504,-0.000488,-0.003174,0.000488,0,0,0,0
63.291603,-1.007812,-1.289062,0.000000,0.000000,0.000000,-0.002974,-0.007812,-0.003906,-0.166504,0.001709,-0.000732,0.001953,0,0,0,0
63.301369,-1.007812,-1.289062,0.000000,0.000000,0.000000,-0.003496,-0.007812,-0.003906,-0.166504,-0.001953,-0.001709,-0.000488,0,0,0,0
63.311131,-1.007812,-1.289062,0.000000,0.000000,0.000000,-0.003326,-0.007812,-0.003906,-0.166504,-0.000488,-0.001709,0.001465,0,0,0,0
63.320900,-1.007812,-1.289062,0.000000,0.000000,0.000000,-0.004330,-0.007812,-0.003906,-0.166504,-0.003662,0.000732,0.000488,0,0,0,0
63.330666,-1.007812,-1.289062,0.000000,0.000000,0.000000,-0.004314,-0.007812,-0.003906,-0.166504,-0.003174,-0.001709,-0.001221,0,0,0,0
63.340431,-1.007812,-1.289062,0.000000,0.000000,0.000000,-0.004162,-0.007812,-0.003906,-0.166504,-0.000488,-0.000244,0.000488,0,0,0,0
63.350197,-1.007812,-1.289062,0.000000,0.000000,0.000000,-0.004393,-0.007812,-0.003906,-0.166504,-0.000977,-0.000732,0.001953,0,0,0,0
63.359959,-1.007812,-1.289062,0.000000,0.000000,0.000000,-0.001883,-0.007812,-0.003906,-0.166504,-0.000977,0.000244,-0.001221,0,0,0,0
63.369724,-1.007812,-1.289062,0.000000,0.000000,0.000000,-0.001469,-0.007812,-0.003906,-0.166504,0.000732,0.000244,-0.002197,0,0,0,0
63.379494,-1.007812,-1.289062,0.000000,0.000000,0.000000,-0.002443,-0.007812,-0.003906,-0.166504,-0.001953,0.000244,-0.001709,0,0,0,0
63.389256,-1.007812,-1.289062,0.000000,0.000000,0.000000,-0.002714,-0.007812,-0.003906,-0.166504,-0.000488,0.000244,0.000000,0,0,0,0
63.399021,-1.007812,-1.289062,0.000000,0.000000,0.000000,-0.002535,-0.007812,-0.003906,-0.166504,-0.000488,-0.000732,0.001465,0,0,0,0
63.408787,-1.007812,-1.289062,0.000000,0.000000,0.000000,-0.002754,-0.007812,-0.003906,-0.166504,-0.001953,-0.001221,0.000488,0,0,0,0
63.418556,-1.007812,-1.289062,0.000000,0.000000,0.000000,-0.003265,-0.007812,-0.003906,-0.166504,-0.001953,0.001953,-0.001709,0,0,0,0
63.428318,-1.007812,-1.289062,0.000000,0.000000,0.000000,-0.002947,-0.007812,-0.003906,-0.166504,0.001221,-0.001221,-0.002197,0,0,0,0
63.438084,-1.007812,-1.289062,0.000000,0.000000,0.000000,-0.000982,-0.007812,-0.003906,-0.166504,0.000000,-0.002686,-0.000488,0,0,0,0
63.447853,-1.007812,-1.289062,0.000000,0.000000,0.000000,-0.002501,-0.007812,-0.003906,-0.166504,-0.001953,-0.002686,0.000977,0,0,0,0
63.457619,-1.007812,-1.289062,0.000000,0.000000,0.000000,-0.002529,-0.007812,-0.003906,-0.166504,-0.000977,-0.000244,0.000000,0,0,0,0
63.467388,-1.007812,-1.289062,0.000000,0.000000,0.000000,-0.002621,-0.007812,-0.003906,-0.166504,-0.000977,-0.000732,0.000977,0,0,0,0
63.477154,-1.007812,-1.289062,0.000000,0.000000,0.000000,-0.002504,-0.007812,-0.003906,-0.166504,0.003418,-0.001221,0.000488,0,0,0,0
63.486916,-1.007812,-1.289062,0.000000,0.000000,0.000000,-0.003431,-0.007812,-0.003906,-0.166504,-0.001953,-0.002686,0.000977,0,0,0,0
63.496677,-1.007812,-1.289062,0.000000,0.000000,0.000000,-0.003687,-0.007812,-0.003906,-0.166504,-0.000488,-0.000244,0.001465,0,0,0,0
63.506447,-1.007812,-1.289062,0.000000,0.000000,0.000000,-0.003956,-0.007812,-0.003906,-0.166504,0.002197,-0.001709,0.001465,0,0,0,0
63.516216,-1.007812,-1.289062,0.000000,0.000000,0.000000,-0.004480,-0.007881,-0.003905,-0.166683,-0.000977,-0.000732,0.000000,0,0,0,0
63.525974,-1.007812,-1.289062,0.000000,0.000000,0.000000,-0.004379,-0.007812,-0.003906,-0.166504,-0.003174,-0.001221,-0.000488,0,0,0,0
63.535744,-1.007812,-1.289062,0.000000,0.000000,0.000000,-0.004293,-0.007812,-0.003906,-0.166504,0.000000,-0.000732,0.000977,0,0,0,0
