time,pos_x,pos_y,pos_z,vel_x,vel_y,vel_z,att_phi,att_theta,att_psi,rate_p,rate_q,rate_r, L_divergence, R_divergence,cmd_thrust,cmd_roll,cmd_pitch,cmd_yaw
149.158752,-0.949219,-2.519531,-0.019531,0.000000,0.000000,-0.022377,0.015869,0.026611,0.552246,0.001709,0.001709,-0.001221,0.000000.5,0.001645.50,-4500,-4500,0
149.168518,-0.949219,-2.519531,-0.019531,0.000000,0.000000,-0.023123,0.015869,0.026611,0.552246,-0.003662,0.001221,-0.003174,0.000000.5,0.001645.50,-4500,-4500,0
149.178284,-0.949219,-2.519531,-0.019531,0.000000,0.000000,-0.023478,0.015869,0.026611,0.552246,-0.002197,0.000732,-0.000488,0.000000.5,0.001645.50,-4500,-4500,0
149.188049,-0.949219,-2.519531,-0.019531,0.000000,0.000000,-0.021770,0.015869,0.026611,0.552246,-0.004883,0.001709,0.001953,0.000000.5,0.001645.50,-4500,-4500,0
149.197815,-0.949219,-2.519531,-0.019531,0.000000,0.000000,-0.020845,0.015869,0.026611,0.552246,-0.004883,0.000244,0.000000,0.000000.5,0.001645.50,-4500,-4500,0
149.215393,-0.949219,-2.519531,-0.019531,0.000000,0.000000,-0.022095,0.016249,0.026673,0.552184,-0.002197,0.002930,-0.001709,0.000000.5,0.001645.50,-4500,-4500,0
149.225159,-0.949219,-2.519531,-0.019531,0.000000,0.000000,-0.021946,0.016249,0.026673,0.552184,-0.004883,0.000732,0.000000,0.000000.5,0.001645.50,-4500,-4500,0
149.234924,-0.949219,-2.519531,-0.019531,0.000000,0.000000,-0.021915,0.016113,0.026611,0.552002,-0.000977,-0.000732,0.001465,0.000000.5,0.001645.50,-4500,-4500,0
149.244690,-0.949219,-2.519531,-0.019531,0.000000,0.000000,-0.022745,0.016113,0.026611,0.552002,-0.005371,-0.000244,-0.002686,0.000000.5,0.001645.50,-4500,-4500,0
149.254456,-0.949219,-2.519531,-0.019531,0.000000,0.000000,-0.022465,0.016113,0.026611,0.552002,-0.003174,-0.000732,-0.001221,0.000000.5,0.001645.50,-4500,-4500,0
149.264221,-0.949219,-2.519531,-0.019531,0.000000,0.000000,-0.022161,0.016113,0.026611,0.552002,-0.004150,-0.000732,-0.001221,0.000000.5,0.001645.50,-4500,-4500,0
149.273987,-0.949219,-2.519531,-0.019531,0.000000,0.000000,-0.024912,0.016113,0.026611,0.552002,-0.004883,-0.000732,0.003174,0.000000.5,0.001645.50,-4500,-4500,0
149.283752,-0.949219,-2.519531,-0.019531,0.000000,0.000000,-0.025082,0.016113,0.026611,0.552002,-0.000977,-0.001465,-0.001709,0.000000.5,0.000424.50,-4500,-4500,0
149.293518,-0.949219,-2.519531,-0.019531,0.000000,0.000000,-0.023523,0.016113,0.026611,0.552002,-0.002686,-0.001465,-0.001221,0.000000.5,0.000424.50,-4500,-4500,0
149.303284,-0.949219,-2.519531,-0.019531,0.000000,0.000000,-0.024052,0.016113,0.026611,0.552002,-0.003662,0.001221,0.000488,0.000000.5,0.000424.50,-4500,-4500,0
149.313049,-0.949219,-2.519531,-0.019531,0.000000,0.000000,-0.024923,0.016113,0.026611,0.552002,0.000488,0.000732,-0.000488,0.000000.5,0.000424.50,-4500,-4500,0
149.322815,-0.949219,-2.519531,-0.019531,0.000000,0.000000,-0.023945,0.016249,0.026673,0.552184,0.000488,0.000244,0.000488,0.000000.5,0.000424.50,-4500,-4500,0
149.332581,-0.949219,-2.519531,-0.019531,0.000000,0.000000,-0.022932,0.016113,0.026611,0.552002,0.000977,-0.001465,-0.001221,0.000000.5,0.000424.50,-4500,-4500,0
149.342346,-0.949219,-2.519531,-0.019531,0.000000,0.000000,-0.023581,0.016113,0.026611,0.552002,0.005371,0.006836,0.001465,0.000000.5,0.000424.50,-4500,-4500,0
149.352112,-0.949219,-2.519531,-0.019531,0.000000,0.000000,-0.023098,0.016113,0.026611,0.552002,0.002197,-0.006592,0.000488,0.000000.5,0.000424.50,-4500,-4500,0
149.361877,-0.949219,-2.519531,-0.019531,0.000000,0.000000,-0.021812,0.016113,0.026611,0.552002,0.008057,0.005371,0.001953,0.000000.5,0.000424.50,-4500,-4500,0
149.371658,-0.949219,-2.519531,-0.019531,0.000000,0.000000,-0.022480,0.016113,0.026611,0.552002,0.005859,0.001221,0.003174,0.000000.5,0.000424.50,-4500,-4500,0
149.381409,-0.949219,-2.519531,-0.019531,0.000000,0.000000,-0.022722,0.016113,0.026611,0.552002,-0.003662,0.004395,-0.003906,0.000000.5,0.000424.50,-4500,-4500,0
149.391174,-0.949219,-2.519531,-0.019531,0.000000,0.000000,-0.020817,0.016113,0.026611,0.552002,0.004150,-0.002930,0.003174,0.000011.5,-0.001275.50,-4500,-4500,0
149.401932,-0.949219,-2.519531,-0.019531,0.000000,0.000000,-0.021238,0.016113,0.026611,0.552002,0.002686,0.004883,0.000488,0.000011.5,-0.001275.50,-4500,-4500,0
149.410706,-0.949219,-2.519531,-0.019531,0.000000,0.000000,-0.021688,0.016113,0.026611,0.552002,0.000977,-0.004639,0.001953,0.000011.5,-0.001275.50,-4500,-4500,0
149.420471,-0.949219,-2.519531,-0.019531,0.000000,0.000000,-0.022469,0.016113,0.026611,0.552002,0.000000,0.000244,-0.001221,0.000011.5,-0.001275.50,-4500,-4500,0
149.430237,-0.949219,-2.519531,-0.019531,0.000000,0.000000,-0.022879,0.016113,0.026611,0.552002,-0.007568,0.003906,-0.001709,0.000011.5,-0.001275.50,-4500,-4500,0
149.440002,-0.949219,-2.519531,-0.019531,0.000000,0.000000,-0.021919,0.016113,0.026611,0.552002,-0.003662,-0.000244,0.000488,0.000011.5,-0.001275.50,-4500,-4500,0
149.449768,-0.949219,-2.519531,-0.019531,0.000000,0.000000,-0.022291,0.016113,0.026611,0.552002,-0.003174,-0.000244,0.001953,0.000011.5,-0.001275.50,-4500,-4500,0
149.462463,-0.949219,-2.519531,-0.019531,0.000000,0.000000,-0.020847,0.016113,0.026611,0.552246,0.001709,0.000732,0.000977,0.000011.5,-0.001275.50,-4500,-4500,0
149.473206,-0.949219,-2.519531,-0.019531,0.000000,0.000000,-0.021317,0.016113,0.026611,0.552246,-0.001709,-0.002441,-0.000488,0.000011.5,-0.001275.50,-4500,-4500,0
149.482971,-0.949219,-2.519531,-0.019531,0.000000,0.000000,-0.021574,0.016113,0.026611,0.552246,-0.006348,0.000732,0.000000,0.000011.5,-0.001275.50,-4500,-4500,0
149.492737,-0.949219,-2.519531,-0.019531,0.000000,0.000000,-0.022070,0.016113,0.026611,0.552246,0.008057,0.003418,0.003174,0.000011.5,-0.001275.50,-4500,-4500,0
149.502518,-0.949219,-2.519531,-0.019531,0.000000,0.000000,-0.019182,0.016113,0.026611,0.552246,-0.003174,-0.003418,-0.001709,0.000011.5,-0.001275.50,-4500,-4500,0
149.512268,-0.949219,-2.519531,-0.019531,0.000000,0.000000,-0.019701,0.016113,0.026611,0.552246,-0.004150,0.000732,-0.002197,0.000011.5,-0.001275.50,-4500,-4500,0
149.522049,-0.949219,-2.519531,-0.019531,0.000000,0.000000,-0.019985,0.016310,0.026656,0.552319,-0.001709,-0.002930,-0.001221,0.000000.5,-0.001003.50,-4500,-4500,0
149.531799,-0.949219,-2.519531,-0.019531,0.000000,0.000000,-0.019028,0.016113,0.026611,0.552246,-0.000977,-0.001953,0.000000,0.000000.5,-0.001003.50,-4500,-4500,0
149.541565,-0.949219,-2.519531,-0.019531,0.000000,0.000000,-0.019751,0.016113,0.026611,0.552246,0.000488,0.000732,0.001465,0.000000.5,-0.001003.50,-4500,-4500,0
149.551331,-0.949219,-2.519531,-0.019531,0.000000,0.000000,-0.020725,0.016113,0.026611,0.552246,0.000000,-0.000732,0.000977,0.000000.5,-0.001003.50,-4500,-4500,0
149.561096,-0.949219,-2.519531,-0.019531,0.000000,0.000000,-0.019810,0.016113,0.026611,0.552246,0.004150,0.000244,0.001465,0.000000.5,-0.001003.50,-4500,-4500,0
149.570862,-0.949219,-2.519531,-0.019531,0.000000,0.000000,-0.020700,0.016113,0.026611,0.552246,0.000488,0.002441,0.000977,0.000000.5,-0.001003.50,-4500,-4500,0
149.580627,-0.949219,-2.519531,-0.019531,0.000000,0.000000,-0.022667,0.016113,0.026611,0.552246,0.005859,-0.001465,0.000488,0.000000.5,-0.001003.50,-4500,-4500,0
149.590393,-0.949219,-2.519531,-0.019531,0.000000,0.000000,-0.023352,0.016113,0.026611,0.552246,0.005859,0.001709,0.000488,0.000000.5,-0.001003.50,-4500,-4500,0
149.600159,-0.949219,-2.519531,-0.019531,0.000000,0.000000,-0.021875,0.016113,0.026611,0.552246,0.004150,0.001221,0.000000,0.000000.5,-0.001003.50,-4500,-4500,0
149.609940,-0.949219,-2.519531,-0.019531,0.000000,0.000000,-0.022247,0.016113,0.026611,0.552246,0.005371,0.000732,-0.000488,0.000000.5,-0.001003.50,-4500,-4500,0
149.619690,-0.949219,-2.519531,-0.019531,0.000000,0.000000,-0.022985,0.016113,0.026611,0.552246,0.002686,-0.002441,0.000000,0.000000.5,-0.001003.50,-4500,-4500,0
149.629471,-0.949219,-2.519531,-0.019531,0.000000,0.000000,-0.021801,0.016113,0.026611,0.552246,0.003174,-0.000732,0.000977,0.000000.5,-0.001003.50,-4500,-4500,0
149.639221,-0.949219,-2.519531,-0.019531,0.000000,0.000000,-0.022591,0.016113,0.026611,0.552246,-0.001709,0.000732,-0.002197,0.000000.5,0.000334.50,-4500,-4500,0
149.648987,-0.949219,-2.519531,-0.019531,0.000000,0.000000,-0.023094,0.016113,0.026611,0.552246,0.000000,-0.001465,-0.001221,0.000000.5,0.000334.50,-4500,-4500,0
149.658752,-0.949219,-2.519531,-0.019531,0.000000,0.000000,-0.021427,0.016352,0.026580,0.552319,-0.003174,0.003418,-0.002686,0.000000.5,0.000334.50,-4500,-4500,0
149.668518,-0.949219,-2.519531,-0.019531,0.000000,0.000000,-0.021311,0.016113,0.026611,0.552246,-0.003662,-0.001953,0.000977,0.000000.5,0.000334.50,-4500,-4500,0
149.678284,-0.949219,-2.519531,-0.019531,0.000000,0.000000,-0.021973,0.016113,0.026611,0.552246,-0.006836,0.002441,-0.002686,0.000000.5,0.000334.50,-4500,-4500,0
149.688049,-0.949219,-2.519531,-0.019531,0.000000,0.000000,-0.022533,0.016113,0.026611,0.552246,-0.004883,0.001221,-0.003174,0.000000.5,0.000334.50,-4500,-4500,0
149.697815,-0.949219,-2.519531,-0.019531,0.000000,0.000000,-0.021399,0.016113,0.026611,0.552246,-0.002197,-0.002930,-0.003906,0.000000.5,0.000334.50,-4500,-4500,0
149.715393,-0.949219,-2.519531,-0.019531,0.000000,0.000000,-0.022024,0.016113,0.026611,0.552246,0.002197,0.000244,-0.000488,0.000000.5,0.000334.50,-4500,-4500,0
149.725159,-0.949219,-2.519531,-0.019531,0.000000,0.000000,-0.022371,0.016113,0.026611,0.552246,-0.001709,0.000732,-0.000488,0.000000.5,0.000334.50,-4500,-4500,0
149.734924,-0.949219,-2.519531,-0.019531,0.000000,0.000000,-0.021038,0.016293,0.026597,0.552318,-0.003662,0.001221,-0.002686,0.000000.5,0.000334.50,-4500,-4500,0
149.744705,-0.949219,-2.519531,-0.019531,0.000000,0.000000,-0.021942,0.016113,0.026611,0.552246,-0.003174,-0.000732,0.000000,0.000000.5,0.000334.50,-4500,-4500,0
149.754471,-0.949219,-2.519531,-0.019531,0.000000,0.000000,-0.022568,0.016113,0.026611,0.552246,-0.005371,0.001221,0.000000,0.000000.5,0.000334.50,-4500,-4500,0
149.764236,-0.949219,-2.519531,-0.019531,0.000000,0.000000,-0.021118,0.016113,0.026611,0.552246,-0.002686,0.001709,-0.001221,0.000000.5,0.000334.50,-4500,-4500,0
149.773987,-0.949219,-2.519531,-0.019531,0.000000,0.000000,-0.021507,0.016113,0.026611,0.552246,-0.004150,0.002441,-0.003174,0.000000.5,-0.000375.50,-4500,-4500,0
149.783752,-0.949219,-2.519531,-0.019531,0.000000,0.000000,-0.022238,0.016113,0.026611,0.552246,-0.003662,-0.001465,0.000000,0.000000.5,-0.000375.50,-4500,-4500,0
149.793518,-0.949219,-2.519531,-0.019531,0.000000,0.000000,-0.021809,0.016293,0.026597,0.552318,-0.000488,0.000732,0.002686,0.000000.5,-0.000375.50,-4500,-4500,0
149.803284,-0.949219,-2.519531,-0.019531,0.000000,0.000000,-0.022194,0.016113,0.026611,0.552246,-0.000488,0.000244,-0.000488,0.000000.5,-0.000375.50,-4500,-4500,0
149.813049,-0.949219,-2.519531,-0.019531,0.000000,0.000000,-0.023016,0.016113,0.026611,0.552246,0.001709,-0.001465,0.000977,0.000000.5,-0.000375.50,-4500,-4500,0
149.822815,-0.949219,-2.519531,-0.019531,0.000000,0.000000,-0.025887,0.016113,0.026611,0.552246,0.001709,-0.001465,0.001953,0.000000.5,-0.000375.50,-4500,-4500,0
149.832581,-0.949219,-2.519531,-0.019531,0.000000,0.000000,-0.023794,0.016113,0.026611,0.552246,0.002197,0.001709,-0.001221,0.000000.5,-0.000375.50,-4500,-4500,0
149.842346,-0.949219,-2.519531,-0.019531,0.000000,0.000000,-0.024302,0.016113,0.026611,0.552246,0.003662,-0.001465,0.000488,0.000000.5,-0.000375.50,-4500,-4500,0
149.852112,-0.949219,-2.519531,-0.019531,0.000000,0.000000,-0.025049,0.016113,0.026611,0.552246,0.004150,0.000244,0.001953,0.000000.5,-0.000375.50,-4500,-4500,0
149.861893,-0.949219,-2.519531,-0.019531,0.000000,0.000000,-0.024260,0.016293,0.026597,0.552318,0.005859,-0.000732,0.003174,0.000000.5,-0.000375.50,-4500,-4500,0
149.871643,-0.949219,-2.519531,-0.019531,0.000000,0.000000,-0.023443,0.016113,0.026611,0.552246,0.008057,0.000244,0.002686,0.000000.5,-0.000375.50,-4500,-4500,0
149.881424,-0.949219,-2.519531,-0.019531,0.000000,0.000000,-0.023836,0.016113,0.026611,0.552246,0.001709,0.001709,-0.002197,-0.001522.5,-0.001652.50,-4500,-4500,0
149.891174,-0.949219,-2.519531,-0.019531,0.000000,0.000000,-0.024197,0.016113,0.026611,0.552246,0.002197,0.000244,0.001465,-0.001522.5,-0.001652.50,-4500,-4500,0
149.904877,-0.949219,-2.519531,-0.019531,0.000000,0.000000,-0.022415,0.016113,0.026611,0.552246,0.002686,0.001709,0.001953,-0.001522.5,-0.001652.50,-4500,-4500,0
149.916565,-0.949219,-2.519531,-0.019531,0.000000,0.000000,-0.023048,0.016260,0.026480,0.552316,-0.002686,0.001221,-0.000488,-0.001522.5,-0.001652.50,-4500,-4500,0
149.928284,-0.949219,-2.519531,-0.019531,0.000000,0.000000,-0.023561,0.016113,0.026367,0.552246,0.006836,0.000732,0.000977,-0.001522.5,-0.001652.50,-4500,-4500,0
149.938049,-0.949219,-2.519531,-0.019531,0.000000,0.000000,-0.024200,0.016113,0.026367,0.552246,0.005859,0.000732,0.001465,-0.001522.5,-0.001652.50,-4500,-4500,0
149.947815,-0.949219,-2.519531,-0.019531,0.000000,0.000000,-0.024792,0.016113,0.026367,0.552246,0.003174,0.000244,0.000977,-0.001522.5,-0.001652.50,-4500,-4500,0
149.957581,-0.949219,-2.519531,-0.019531,0.000000,0.000000,-0.022381,0.016113,0.026367,0.552246,0.002197,0.002930,0.001465,-0.001522.5,-0.001652.50,-4500,-4500,0
149.967346,-0.949219,-2.519531,-0.019531,0.000000,0.000000,-0.021423,0.016113,0.026367,0.552246,0.005859,0.000244,-0.000488,-0.001522.5,-0.001652.50,-4500,-4500,0
149.977112,-0.949219,-2.519531,-0.019531,0.000000,0.000000,-0.022015,0.016113,0.026367,0.552246,-0.005371,-0.006592,-0.002197,-0.001522.5,-0.001652.50,-4500,-4500,0
149.986877,-0.949219,-2.519531,-0.019531,0.000000,0.000000,-0.022760,0.016113,0.026367,0.552246,0.004883,0.003906,0.001465,-0.001522.5,-0.001652.50,-4500,-4500,0
149.996658,-0.949219,-2.519531,-0.019531,0.000000,0.000000,-0.022072,0.016260,0.026480,0.552316,-0.001709,0.006348,-0.002686,-0.001522.5,-0.001652.50,-4500,-4500,0
150.006409,-0.949219,-2.519531,-0.019531,0.000000,0.000000,-0.022161,0.016113,0.026367,0.552246,-0.010010,-0.008301,-0.003174,-0.001522.5,-0.001652.50,-4500,-4500,0
150.016174,-0.949219,-2.519531,-0.019531,0.000000,0.000000,-0.022675,0.016113,0.026367,0.552246,-0.000488,-0.004639,-0.002197,0.000000.5,0.000473.50,-4500,-4500,0
150.025940,-0.949219,-2.519531,-0.019531,0.000000,0.000000,-0.023203,0.016113,0.026367,0.552246,-0.004883,0.000732,0.000977,0.000000.5,0.000473.50,-4500,-4500,0
150.035706,-0.949219,-2.519531,-0.019531,0.000000,0.000000,-0.022839,0.016113,0.026367,0.552246,-0.010010,-0.004639,-0.001221,0.000000.5,0.000473.50,-4500,-4500,0
150.045471,-0.949219,-2.519531,-0.019531,0.000000,0.000000,-0.022243,0.016113,0.026367,0.552246,0.000488,0.002930,-0.002197,0.000000.5,0.000473.50,-4500,-4500,0
150.055237,-0.949219,-2.519531,-0.019531,0.000000,0.000000,-0.020607,0.016113,0.026367,0.552246,-0.002686,0.004395,-0.002197,0.000000.5,0.000473.50,-4500,-4500,0
150.065002,-0.949219,-2.519531,-0.019531,0.000000,0.000000,-0.019722,0.016113,0.026367,0.552246,-0.002686,-0.005127,-0.000488,0.000000.5,0.000473.50,-4500,-4500,0
150.074768,-0.949219,-2.519531,-0.019531,0.000000,0.000000,-0.020185,0.016113,0.026367,0.552246,0.002197,-0.000244,0.003174,0.000000.5,0.000473.50,-4500,-4500,0
150.084534,-0.949219,-2.519531,-0.019531,0.000000,0.000000,-0.020639,0.016113,0.026367,0.552246,0.000488,0.003418,0.001953,0.000000.5,0.000473.50,-4500,-4500,0
150.094315,-0.949219,-2.519531,-0.019531,0.000000,0.000000,-0.021402,0.016184,0.026437,0.552314,0.004883,-0.004639,0.001465,0.000000.5,0.000473.50,-4500,-4500,0
150.104065,-0.949219,-2.519531,-0.019531,0.000000,0.000000,-0.020458,0.016113,0.026367,0.552246,0.006836,0.001709,-0.000488,0.000000.5,0.000473.50,-4500,-4500,0
150.113846,-0.949219,-2.519531,-0.019531,0.000000,0.000000,-0.021042,0.016113,0.026367,0.552246,0.006348,0.002441,-0.001221,0.000000.5,0.000473.50,-4500,-4500,0
150.123596,-0.949219,-2.519531,-0.019531,0.000000,0.000000,-0.021376,0.016113,0.026367,0.552246,0.006348,-0.004150,0.003662,0.000000.5,0.000473.50,-4500,-4500,0
150.133362,-0.949219,-2.519531,-0.019531,0.000000,0.000000,-0.019152,0.016113,0.026367,0.552246,0.001709,0.001709,-0.001221,0.000965.5,0.000436.50,-4500,-4500,0
150.143127,-0.949219,-2.519531,-0.019531,0.000000,0.000000,-0.019789,0.016113,0.026367,0.552246,0.004883,0.002930,0.001465,0.000965.5,0.000436.50,-4500,-4500,0
150.158768,-0.949219,-2.519531,-0.019531,0.000000,0.000000,-0.020632,0.016241,0.026421,0.552180,-0.002686,-0.003418,-0.000488,0.000965.5,0.000436.50,-4500,-4500,0
150.168518,-0.949219,-2.519531,-0.019531,0.000000,0.000000,-0.019825,0.016113,0.026367,0.552002,-0.006348,0.001709,-0.001221,0.000965.5,0.000436.50,-4500,-4500,0
150.178284,-0.949219,-2.519531,-0.019531,0.000000,0.000000,-0.020903,0.016113,0.026367,0.552002,-0.006836,0.001221,-0.000488,0.000965.5,0.000436.50,-4500,-4500,0
150.188049,-0.949219,-2.519531,-0.019531,0.000000,0.000000,-0.021358,0.016113,0.026367,0.552002,-0.002686,-0.001465,-0.002686,0.000965.5,0.000436.50,-4500,-4500,0
150.197815,-0.949219,-2.519531,-0.019531,0.000000,0.000000,-0.022108,0.016113,0.026367,0.552002,-0.004883,0.003906,-0.003906,0.000965.5,0.000436.50,-4500,-4500,0
150.207581,-0.949219,-2.519531,-0.019531,0.000000,0.000000,-0.021429,0.016113,0.026367,0.552002,0.002197,0.000244,0.003174,0.000965.5,0.000436.50,-4500,-4500,0
150.217346,-0.949219,-2.519531,-0.019531,0.000000,0.000000,-0.023661,0.016113,0.026367,0.552002,0.000000,-0.005127,-0.001221,0.000965.5,0.000436.50,-4500,-4500,0
150.227112,-0.949219,-2.519531,-0.019531,0.000000,0.000000,-0.024334,0.016113,0.026367,0.552002,0.002197,0.002441,0.000000,0.000965.5,0.000436.50,-4500,-4500,0
150.236877,-0.949219,-2.519531,-0.019531,0.000000,0.000000,-0.023006,0.016113,0.026367,0.552002,0.001709,0.000732,0.000000,0.000965.5,0.000436.50,-4500,-4500,0
150.246658,-0.949219,-2.519531,-0.019531,0.000000,0.000000,-0.023794,0.016113,0.026367,0.552002,0.006836,0.000244,0.001953,0.000965.5,0.000436.50,-4500,-4500,0
150.256409,-0.949219,-2.519531,-0.019531,0.000000,0.000000,-0.024376,0.016113,0.026367,0.552002,0.003662,-0.001465,0.001465,0.000965.5,0.000436.50,-4500,-4500,0
150.266174,-0.949219,-2.519531,-0.019531,0.000000,0.000000,-0.022961,0.016113,0.026367,0.552002,0.004883,-0.000244,0.001465,0.000000.5,-0.000212.50,-4500,-4500,0
150.275940,-0.949219,-2.519531,-0.019531,0.000000,0.000000,-0.023544,0.016113,0.026367,0.552002,0.004883,0.003906,-0.002197,0.000000.5,-0.000212.50,-4500,-4500,0
150.285706,-0.949219,-2.519531,-0.019531,0.000000,0.000000,-0.024260,0.016113,0.026367,0.552002,0.002197,-0.001465,0.003662,0.000000.5,-0.000212.50,-4500,-4500,0
150.295471,-0.949219,-2.519531,-0.019531,0.000000,0.000000,-0.029413,0.016241,0.026421,0.552180,0.006836,-0.001465,0.000977,0.000000.5,-0.000212.50,-4500,-4500,0
150.305237,-0.949219,-2.519531,-0.019531,0.000000,0.000000,-0.026567,0.016113,0.026367,0.552002,-0.000977,-0.003418,0.000000,0.000000.5,-0.000212.50,-4500,-4500,0
150.315002,-0.949219,-2.519531,-0.019531,0.000000,0.000000,-0.027346,0.016113,0.026367,0.552002,0.003174,0.001709,0.000488,0.000000.5,-0.000212.50,-4500,-4500,0
150.324783,-0.949219,-2.519531,-0.019531,0.000000,0.000000,-0.027754,0.016113,0.026367,0.552002,-0.002686,-0.001465,-0.001709,0.000000.5,-0.000212.50,-4500,-4500,0
150.334534,-0.949219,-2.519531,-0.019531,0.000000,0.000000,-0.028164,0.016113,0.026367,0.552002,0.000488,0.000732,0.000000,0.000000.5,-0.000212.50,-4500,-4500,0
150.344299,-0.949219,-2.519531,-0.019531,0.000000,0.000000,-0.025772,0.016113,0.026367,0.552002,-0.003662,-0.001465,0.000977,0.000000.5,-0.000212.50,-4500,-4500,0
150.354065,-0.949219,-2.519531,-0.019531,0.000000,0.000000,-0.026312,0.016113,0.026367,0.552002,-0.002686,-0.000732,-0.002686,0.000000.5,-0.000212.50,-4500,-4500,0
150.363831,-0.949219,-2.519531,-0.019531,0.000000,0.000000,-0.025307,0.016113,0.026367,0.552002,-0.004150,0.002441,-0.003174,0.000000.5,-0.000212.50,-4500,-4500,0
150.373596,-0.949219,-2.519531,-0.019531,0.000000,0.000000,-0.023857,0.016113,0.026367,0.552002,-0.005371,0.002441,-0.001709,0.000000.5,-0.000212.50,-4500,-4500,0
150.383362,-0.949219,-2.519531,-0.019531,0.000000,0.000000,-0.024614,0.016113,0.026367,0.552002,-0.002686,-0.000244,-0.002197,0.002765.5,-0.001122.50,-4500,-4500,0
150.393127,-0.949219,-2.519531,-0.019531,0.000000,0.000000,-0.025255,0.016113,0.026367,0.552002,-0.003662,-0.002441,0.000488,0.002765.5,-0.001122.50,-4500,-4500,0
150.406815,-0.949219,-2.519531,-0.019531,0.000000,0.000000,-0.023661,0.016113,0.026367,0.552246,-0.004150,-0.000244,-0.000488,0.002765.5,-0.001122.50,-4500,-4500,0
150.418518,-0.949219,-2.519531,-0.019531,0.000000,0.000000,-0.024649,0.016113,0.026367,0.552246,0.003662,0.000732,0.001953,0.002765.5,-0.001122.50,-4500,-4500,0
150.429260,-0.949219,-2.519531,-0.019531,0.000000,0.000000,-0.025042,0.016113,0.026367,0.552246,0.003662,-0.000244,0.001465,0.002765.5,-0.001122.50,-4500,-4500,0
150.438049,-0.949219,-2.519531,-0.019531,0.000000,0.000000,-0.025717,0.016113,0.026367,0.552246,0.005859,0.002441,0.001465,0.002765.5,-0.001122.50,-4500,-4500,0
150.447815,-0.949219,-2.519531,-0.019531,0.000000,0.000000,-0.026579,0.016113,0.026367,0.552246,0.001709,0.003418,-0.002197,0.002765.5,-0.001122.50,-4500,-4500,0
150.457581,-0.949219,-2.519531,-0.019531,0.000000,0.000000,-0.022375,0.016113,0.026367,0.552246,0.003174,-0.000244,-0.000488,0.002765.5,-0.001122.50,-4500,-4500,0
150.467346,-0.949219,-2.519531,-0.019531,0.000000,0.000000,-0.022535,0.016113,0.026367,0.552246,0.002686,-0.000977,0.001465,0.002765.5,-0.001122.50,-4500,-4500,0
150.477112,-0.949219,-2.519531,-0.019531,0.000000,0.000000,-0.021692,0.016113,0.026367,0.552246,-0.002197,0.002197,-0.001709,0.002765.5,-0.001122.50,-4500,-4500,0
150.486877,-0.949219,-2.519531,-0.019531,0.000000,0.000000,-0.022230,0.016113,0.026367,0.552246,0.002197,0.002197,-0.001221,0.002765.5,-0.001122.50,-4500,-4500,0
150.496658,-0.949219,-2.519531,-0.019531,0.000000,0.000000,-0.022839,0.016284,0.026346,0.552247,-0.003174,0.003174,-0.004395,0.002765.5,-0.001122.50,-4500,-4500,0
150.506409,-0.949219,-2.519531,-0.019531,0.000000,0.000000,-0.022058,0.016113,0.026367,0.552246,-0.006348,0.002197,-0.001709,0.002765.5,-0.001122.50,-4500,-4500,0
150.516174,-0.949219,-2.519531,-0.019531,0.000000,0.000000,-0.022358,0.016113,0.026367,0.552246,-0.004883,-0.000488,0.000977,0.000361.5,0.000089.50,-4500,-4500,0
150.525940,-0.949219,-2.519531,-0.019531,0.000000,0.000000,-0.022869,0.016113,0.026367,0.552246,-0.004883,0.000488,0.000000,0.000361.5,0.000089.50,-4500,-4500,0
150.535706,-0.949219,-2.519531,-0.019531,0.000000,0.000000,-0.020485,0.016113,0.026367,0.552246,-0.004883,0.000000,-0.001221,0.000361.5,0.000089.50,-4500,-4500,0
150.545471,-0.949219,-2.519531,-0.019531,0.000000,0.000000,-0.020945,0.016113,0.026367,0.552246,-0.003174,0.000000,-0.002197,0.000361.5,0.000089.50,-4500,-4500,0
150.555237,-0.949219,-2.519531,-0.019531,0.000000,0.000000,-0.021255,0.016113,0.026123,0.552246,-0.003174,0.000977,-0.000488,0.000361.5,0.000089.50,-4500,-4500,0
150.565002,-0.949219,-2.519531,-0.019531,0.000000,0.000000,-0.021584,0.016113,0.026123,0.552246,0.000000,-0.003662,-0.001221,0.000361.5,0.000089.50,-4500,-4500,0
150.574768,-0.949219,-2.519531,-0.019531,0.000000,0.000000,-0.020533,0.016113,0.026123,0.552246,0.000488,0.000488,0.001953,0.000361.5,0.000089.50,-4500,-4500,0
150.584534,-0.949219,-2.519531,-0.019531,0.000000,0.000000,-0.021135,0.016113,0.026123,0.552246,0.000488,-0.001709,-0.000488,0.000361.5,0.000089.50,-4500,-4500,0
150.594299,-0.949219,-2.519531,-0.019531,0.000000,0.000000,-0.021837,0.016113,0.026123,0.552246,0.005371,-0.002197,0.000977,0.000361.5,0.000089.50,-4500,-4500,0
150.604080,-0.949219,-2.519531,-0.019531,0.000000,0.000000,-0.022549,0.016113,0.026123,0.552246,0.006836,-0.001709,0.000488,0.000361.5,0.000089.50,-4500,-4500,0
150.613831,-0.949219,-2.519531,-0.019531,0.000000,0.000000,-0.021538,0.016113,0.026123,0.552246,0.006348,0.002197,-0.000488,0.000361.5,0.000089.50,-4500,-4500,0
150.623596,-0.949219,-2.519531,-0.019531,0.000000,0.000000,-0.021889,0.016113,0.026123,0.552246,0.006836,0.002686,0.000000,0.000361.5,0.000089.50,-4500,-4500,0
150.633377,-0.949219,-2.519531,-0.019531,0.000000,0.000000,-0.021643,0.016113,0.026123,0.552246,0.000488,-0.002197,0.000977,0.000000.5,-0.000459.50,-4500,-4500,0
150.643127,-0.949219,-2.519531,-0.019531,0.000000,0.000000,-0.021307,0.016113,0.026123,0.552246,0.003662,0.002197,0.000488,0.000000.5,-0.000459.50,-4500,-4500,0
150.658752,-0.949219,-2.519531,-0.019531,0.000000,0.000000,-0.023367,0.016113,0.026123,0.552002,0.005859,-0.004395,0.003662,0.000000.5,-0.000459.50,-4500,-4500,0
150.668518,-0.949219,-2.519531,-0.019531,0.000000,0.000000,-0.022717,0.016113,0.026123,0.552002,0.005859,0.002686,-0.001221,0.000000.5,-0.000459.50,-4500,-4500,0
150.678284,-0.949219,-2.519531,-0.019531,0.000000,0.000000,-0.022446,0.016113,0.026123,0.552002,-0.005371,-0.002197,-0.001709,0.000000.5,-0.000459.50,-4500,-4500,0
150.688049,-0.949219,-2.519531,-0.019531,0.000000,0.000000,-0.022818,0.016113,0.026123,0.552002,-0.004150,-0.002686,-0.002686,0.000000.5,-0.000459.50,-4500,-4500,0
150.697815,-0.949219,-2.519531,-0.019531,0.000000,0.000000,-0.020990,0.016113,0.026123,0.552002,0.002197,0.000488,0.000488,0.000000.5,-0.000459.50,-4500,-4500,0
150.707581,-0.949219,-2.519531,-0.019531,0.000000,0.000000,-0.020536,0.016113,0.026123,0.552002,-0.005371,-0.000977,0.000488,0.000000.5,-0.000459.50,-4500,-4500,0
150.717346,-0.949219,-2.519531,-0.019531,0.000000,0.000000,-0.021152,0.016113,0.026123,0.552002,0.003174,-0.002197,0.003662,0.000000.5,-0.000459.50,-4500,-4500,0
150.727112,-0.949219,-2.519531,-0.019531,0.000000,0.000000,-0.021511,0.016113,0.026123,0.552002,0.002686,-0.001709,-0.001221,0.000000.5,-0.000459.50,-4500,-4500,0
150.736893,-0.949219,-2.519531,-0.019531,0.000000,0.000000,-0.020971,0.016113,0.026123,0.552002,0.002686,0.004150,0.001465,0.000000.5,-0.000459.50,-4500,-4500,0
150.746658,-0.949219,-2.519531,-0.019531,0.000000,0.000000,-0.021246,0.016113,0.026123,0.552246,0.004883,-0.003174,0.003174,0.000000.5,-0.000459.50,-4500,-4500,0
150.756424,-0.949219,-2.519531,-0.019531,0.000000,0.000000,-0.021685,0.016113,0.026123,0.552246,0.005859,0.002686,0.001953,0.000000.5,-0.000459.50,-4500,-4500,0
150.766174,-0.949219,-2.519531,-0.019531,0.000000,0.000000,-0.022133,0.016113,0.026123,0.552246,0.001709,0.003662,-0.000488,0.000000.5,-0.000087.50,-4500,-4500,0
150.775940,-0.949219,-2.519531,-0.019531,0.000000,0.000000,-0.022554,0.016113,0.026123,0.552246,0.005371,0.000488,0.001953,0.000000.5,-0.000087.50,-4500,-4500,0
150.785706,-0.949219,-2.519531,-0.019531,0.000000,0.000000,-0.022993,0.016113,0.026123,0.552246,0.006836,0.003662,-0.002197,0.000000.5,-0.000087.50,-4500,-4500,0
150.795471,-0.949219,-2.519531,-0.019531,0.000000,0.000000,-0.023621,0.016113,0.026123,0.552246,-0.000488,0.003174,0.000488,0.000000.5,-0.000087.50,-4500,-4500,0
150.805237,-0.949219,-2.519531,-0.019531,0.000000,0.000000,-0.022999,0.016113,0.026123,0.552246,0.000488,0.000000,-0.002197,0.000000.5,-0.000087.50,-4500,-4500,0
150.815002,-0.949219,-2.519531,-0.019531,0.000000,0.000000,-0.022476,0.016113,0.026123,0.552246,0.003662,0.000488,0.001953,0.000000.5,-0.000087.50,-4500,-4500,0
150.824768,-0.949219,-2.519531,-0.019531,0.000000,0.000000,-0.023226,0.016113,0.026123,0.552246,-0.001709,0.000000,-0.000488,0.000000.5,-0.000087.50,-4500,-4500,0
150.834534,-0.949219,-2.519531,-0.019531,0.000000,0.000000,-0.022650,0.016113,0.026123,0.552246,-0.002197,0.000000,-0.001221,0.000000.5,-0.000087.50,-4500,-4500,0
150.851151,-0.949219,-2.519531,-0.019531,0.000000,0.000000,-0.022301,0.016113,0.026123,0.552246,0.003174,-0.000488,0.000000,0.000000.5,-0.000087.50,-4500,-4500,0
150.859940,-0.949219,-2.519531,-0.019531,0.000000,0.000000,-0.021547,0.016357,0.025879,0.552246,-0.000488,0.000977,-0.001221,0.000000.5,-0.000087.50,-4500,-4500,0
150.869690,-0.949219,-2.519531,-0.019531,0.000000,0.000000,-0.021927,0.016357,0.025879,0.552246,-0.000977,-0.002686,-0.001221,0.000000.5,0.000398.50,-4500,-4500,0
150.879456,-0.949219,-2.519531,-0.019531,0.000000,0.000000,-0.020458,0.016357,0.025879,0.552246,0.000977,0.001465,0.000488,0.000000.5,0.000398.50,-4500,-4500,0
150.889221,-0.949219,-2.519531,-0.019531,0.000000,0.000000,-0.020952,0.016357,0.025879,0.552246,0.008057,-0.000977,0.000488,0.000000.5,0.000398.50,-4500,-4500,0
150.898987,-0.949219,-2.519531,-0.019531,0.000000,0.000000,-0.021082,0.016357,0.025879,0.552246,0.000977,0.000000,0.000977,0.000000.5,0.000398.50,-4500,-4500,0
150.908752,-0.949219,-2.519531,-0.019531,0.000000,0.000000,-0.020594,0.016357,0.025879,0.552246,0.005859,0.000488,-0.001221,0.000000.5,0.000398.50,-4500,-4500,0
150.918518,-0.949219,-2.519531,-0.019531,0.000000,0.000000,-0.020502,0.016357,0.025879,0.552246,0.003662,-0.002197,-0.000488,0.000000.5,0.000398.50,-4500,-4500,0
150.928284,-0.949219,-2.519531,-0.019531,0.000000,0.000000,-0.021051,0.016357,0.025879,0.552246,0.004883,-0.000488,0.001465,0.000000.5,0.000398.50,-4500,-4500,0
150.938049,-0.949219,-2.519531,-0.019531,0.000000,0.000000,-0.018385,0.016512,0.026026,0.552299,0.003174,0.002197,0.003174,0.000000.5,0.000398.50,-4500,-4500,0
150.947815,-0.949219,-2.519531,-0.019531,0.000000,0.000000,-0.018614,0.016357,0.025879,0.552246,0.002197,0.003174,0.000000,0.000000.5,0.000398.50,-4500,-4500,0
150.957581,-0.949219,-2.519531,-0.019531,0.000000,0.000000,-0.019083,0.016357,0.025879,0.552246,0.004150,-0.000977,0.000000,0.000000.5,0.000398.50,-4500,-4500,0
150.967346,-0.949219,-2.519531,-0.019531,0.000000,0.000000,-0.018747,0.016357,0.025879,0.552246,-0.002197,0.000488,0.000977,0.000000.5,0.000398.50,-4500,-4500,0
150.977112,-0.949219,-2.519531,-0.019531,0.000000,0.000000,-0.018930,0.016357,0.025879,0.552246,-0.000977,0.002686,-0.000488,0.000000.5,0.000398.50,-4500,-4500,0
150.986877,-0.949219,-2.519531,-0.019531,0.000000,0.000000,-0.019255,0.016357,0.025879,0.552246,-0.003174,0.000000,-0.001709,0.000000.5,0.000398.50,-4500,-4500,0
150.996643,-0.949219,-2.519531,-0.019531,0.000000,0.000000,-0.020075,0.016357,0.025879,0.552246,-0.003174,0.002197,-0.000488,0.000000.5,0.000398.50,-4500,-4500,0
151.006409,-0.949219,-2.519531,-0.019531,0.000000,0.000000,-0.019188,0.016511,0.026027,0.552232,-0.003662,-0.002686,-0.002686,0.000171.5,-0.000584.50,-4500,-4500,0
151.016174,-0.949219,-2.519531,-0.019531,0.000000,0.000000,-0.018063,0.016357,0.025879,0.552246,-0.004150,0.000977,0.000000,0.000171.5,-0.000584.50,-4500,-4500,0
151.025940,-0.949219,-2.519531,-0.019531,0.000000,0.000000,-0.018726,0.016357,0.025879,0.552246,-0.002197,-0.002197,-0.003174,0.000171.5,-0.000584.50,-4500,-4500,0
151.035706,-0.949219,-2.519531,-0.019531,0.000000,0.000000,-0.019077,0.016357,0.025879,0.552246,-0.005859,-0.000977,-0.002197,0.000171.5,-0.000584.50,-4500,-4500,0
151.045471,-0.949219,-2.519531,-0.019531,0.000000,0.000000,-0.018888,0.016357,0.025879,0.552246,0.000488,0.000488,0.000488,0.000171.5,-0.000584.50,-4500,-4500,0
151.055237,-0.949219,-2.519531,-0.019531,0.000000,0.000000,-0.019453,0.016357,0.025879,0.552246,0.000488,-0.000977,-0.002197,0.000171.5,-0.000584.50,-4500,-4500,0
151.065002,-0.949219,-2.519531,-0.019531,0.000000,0.000000,-0.020098,0.016357,0.025879,0.552246,0.000000,0.000000,0.000488,0.000171.5,-0.000584.50,-4500,-4500,0
151.074768,-0.949219,-2.519531,-0.019531,0.000000,0.000000,-0.019339,0.016357,0.025879,0.552246,0.002686,0.000977,0.000000,0.000171.5,-0.000584.50,-4500,-4500,0
151.084534,-0.949219,-2.519531,-0.019531,0.000000,0.000000,-0.020035,0.016357,0.025879,0.552246,0.004150,0.002686,0.002686,0.000171.5,-0.000584.50,-4500,-4500,0
151.100174,-0.949219,-2.519531,-0.019531,0.000000,0.000000,-0.019861,0.016477,0.025910,0.552176,-0.003662,0.000000,-0.002686,0.000171.5,-0.000584.50,-4500,-4500,0
151.109924,-0.949219,-2.519531,-0.019531,0.000000,0.000000,-0.020430,0.016357,0.025879,0.552002,-0.000488,-0.000977,-0.001709,0.000171.5,-0.000584.50,-4500,-4500,0
151.119690,-0.949219,-2.519531,-0.019531,0.000000,0.000000,-0.020443,0.016357,0.025879,0.552002,0.000488,-0.001709,-0.000488,0.000000.5,-0.000832.50,-4500,-4500,0
151.129456,-0.949219,-2.519531,-0.019531,0.000000,0.000000,-0.020510,0.016357,0.025879,0.552002,-0.003662,0.002686,-0.001221,0.000000.5,-0.000832.50,-4500,-4500,0
151.139221,-0.949219,-2.519531,-0.019531,0.000000,0.000000,-0.020411,0.016357,0.025879,0.552002,-0.003174,0.004639,-0.001221,0.000000.5,-0.000832.50,-4500,-4500,0
151.149017,-0.949219,-2.519531,-0.019531,0.000000,0.000000,-0.020302,0.016357,0.025879,0.552002,-0.005371,0.002197,-0.001221,0.000000.5,-0.000832.50,-4500,-4500,0
151.158752,-0.949219,-2.519531,-0.019531,0.000000,0.000000,-0.020807,0.016357,0.025879,0.552002,-0.006348,0.001465,-0.000488,0.000000.5,-0.000832.50,-4500,-4500,0
151.168518,-0.949219,-2.519531,-0.019531,0.000000,0.000000,-0.020988,0.016357,0.025879,0.552002,-0.002686,-0.000977,-0.001221,0.000000.5,-0.000832.50,-4500,-4500,0
151.178284,-0.949219,-2.519531,-0.019531,0.000000,0.000000,-0.020151,0.016357,0.025879,0.552002,-0.002686,0.003174,-0.001221,0.000000.5,-0.000832.50,-4500,-4500,0
151.188049,-0.949219,-2.519531,-0.019531,0.000000,0.000000,-0.020693,0.016357,0.025879,0.552002,-0.002686,-0.002686,-0.002686,0.000000.5,-0.000832.50,-4500,-4500,0
151.197815,-0.949219,-2.519531,-0.019531,0.000000,0.000000,-0.021118,0.016357,0.025879,0.552002,-0.004883,0.001465,-0.002686,0.000000.5,-0.000832.50,-4500,-4500,0
151.207581,-0.949219,-2.519531,-0.019531,0.000000,0.000000,-0.020472,0.016357,0.025879,0.552002,0.000000,0.003662,0.001953,0.000000.5,-0.000832.50,-4500,-4500,0
151.217346,-0.949219,-2.519531,-0.019531,0.000000,0.000000,-0.020931,0.016357,0.025879,0.552002,0.000488,-0.000488,0.000488,0.000000.5,-0.000832.50,-4500,-4500,0
151.227112,-0.949219,-2.519531,-0.019531,0.000000,0.000000,-0.021481,0.016357,0.025879,0.552002,0.000488,0.000488,0.000977,0.000000.5,-0.000832.50,-4500,-4500,0
151.236893,-0.949219,-2.519531,-0.019531,0.000000,0.000000,-0.020880,0.016357,0.025879,0.552002,0.003662,-0.003662,0.001953,0.000000.5,-0.000832.50,-4500,-4500,0
151.246643,-0.949219,-2.519531,-0.019531,0.000000,0.000000,-0.020025,0.016357,0.025879,0.552002,0.002686,0.003662,-0.000488,0.000000.5,-0.000832.50,-4500,-4500,0
151.256409,-0.949219,-2.519531,-0.019531,0.000000,0.000000,-0.019966,0.016357,0.025879,0.552002,-0.004150,-0.000488,0.000488,0.000000.5,0.000006.50,-4500,-4500,0
151.266174,-0.949219,-2.519531,-0.019531,0.000000,0.000000,-0.021093,0.016357,0.025879,0.552002,0.011230,0.004150,0.003174,0.000000.5,0.000006.50,-4500,-4500,0
151.275940,-0.949219,-2.519531,-0.019531,0.000000,0.000000,-0.019836,0.016357,0.025879,0.552002,-0.003662,0.007080,0.000000,0.000000.5,0.000006.50,-4500,-4500,0
151.285706,-0.949219,-2.519531,-0.019531,0.000000,0.000000,-0.020176,0.016357,0.025879,0.552002,-0.000488,-0.002686,0.000000,0.000000.5,0.000006.50,-4500,-4500,0
151.303284,-0.949219,-2.519531,-0.019531,0.000000,0.000000,-0.020863,0.016113,0.025635,0.552002,-0.000488,0.000488,-0.000488,0.000000.5,0.000006.50,-4500,-4500,0
151.313049,-0.949219,-2.519531,-0.019531,0.000000,0.000000,-0.021322,0.016352,0.025692,0.552171,0.001709,-0.002197,-0.001709,0.000000.5,0.000006.50,-4500,-4500,0
151.322815,-0.949219,-2.519531,-0.019531,0.000000,0.000000,-0.020018,0.016113,0.025635,0.552002,0.007568,-0.002197,0.003174,0.000000.5,0.000006.50,-4500,-4500,0
151.332581,-0.949219,-2.519531,-0.019531,0.000000,0.000000,-0.018147,0.016113,0.025635,0.552002,0.001709,0.002686,0.000977,0.000000.5,0.000006.50,-4500,-4500,0
151.342346,-0.949219,-2.519531,-0.019531,0.000000,0.000000,-0.017906,0.016352,0.025692,0.552171,0.005859,0.000000,0.004150,0.000000.5,0.000006.50,-4500,-4500,0
151.352127,-0.949219,-2.519531,-0.019531,0.000000,0.000000,-0.018118,0.016113,0.025635,0.552002,0.005859,-0.000488,0.000000,0.000000.5,0.000006.50,-4500,-4500,0
151.361877,-0.949219,-2.519531,-0.019531,0.000000,0.000000,-0.018509,0.016113,0.025635,0.552002,0.000977,0.004150,-0.000488,0.000000.5,0.000006.50,-4500,-4500,0
151.371643,-0.949219,-2.519531,-0.019531,0.000000,0.000000,-0.019119,0.016113,0.025635,0.552002,0.005371,-0.000488,-0.000488,0.000000.5,0.000352.50,-4500,-4500,0
151.381409,-0.949219,-2.519531,-0.019531,0.000000,0.000000,-0.018440,0.016113,0.025635,0.552002,0.001709,0.000977,0.000977,0.000000.5,0.000352.50,-4500,-4500,0
151.391174,-0.949219,-2.519531,-0.019531,0.000000,0.000000,-0.018848,0.016113,0.025635,0.552002,-0.006348,0.000977,-0.003906,0.000000.5,0.000352.50,-4500,-4500,0
151.400955,-0.949219,-2.519531,-0.019531,0.000000,0.000000,-0.019247,0.016113,0.025635,0.552002,-0.002197,0.001465,-0.003906,0.000000.5,0.000352.50,-4500,-4500,0
151.410706,-0.949219,-2.519531,-0.019531,0.000000,0.000000,-0.016535,0.016113,0.025635,0.552002,-0.002197,0.004150,0.000977,0.000000.5,0.000352.50,-4500,-4500,0
151.420471,-0.949219,-2.519531,-0.019531,0.000000,0.000000,-0.017031,0.016113,0.025635,0.552002,-0.006348,-0.002197,0.000977,0.000000.5,0.000352.50,-4500,-4500,0
151.430237,-0.949219,-2.519531,-0.019531,0.000000,0.000000,-0.017633,0.016113,0.025635,0.552002,-0.003662,-0.000488,-0.003906,0.000000.5,0.000352.50,-4500,-4500,0
151.440002,-0.949219,-2.519531,-0.019531,0.000000,0.000000,-0.018114,0.016113,0.025635,0.552002,-0.008057,0.000488,-0.004395,0.000000.5,0.000352.50,-4500,-4500,0
151.449768,-0.949219,-2.519531,-0.019531,0.000000,0.000000,-0.018244,0.016113,0.025635,0.552002,0.000000,-0.003662,0.000000,0.000000.5,0.000352.50,-4500,-4500,0
151.459534,-0.949219,-2.519531,-0.019531,0.000000,0.000000,-0.018301,0.016113,0.025635,0.552002,0.000488,-0.000488,0.001953,0.000000.5,0.000352.50,-4500,-4500,0
151.469299,-0.949219,-2.519531,-0.019531,0.000000,0.000000,-0.019226,0.016113,0.025635,0.552002,-0.002686,0.000488,-0.001709,0.000000.5,0.000352.50,-4500,-4500,0
151.479065,-0.949219,-2.519531,-0.019531,0.000000,0.000000,-0.019213,0.016113,0.025635,0.552002,-0.002197,-0.003174,-0.005859,0.000000.5,0.000352.50,-4500,-4500,0
151.488831,-0.949219,-2.519531,-0.019531,0.000000,0.000000,-0.020926,0.016113,0.025635,0.552002,-0.000977,0.000000,0.000977,0.000000.5,0.000352.50,-4500,-4500,0
151.498596,-0.949219,-2.519531,-0.019531,0.000000,0.000000,-0.021595,0.016113,0.025635,0.552002,0.004150,0.001465,0.004150,0.000000.5,0.000352.50,-4500,-4500,0
151.508362,-0.949219,-2.519531,-0.019531,0.000000,0.000000,-0.020952,0.016113,0.025635,0.552002,0.004883,0.000977,0.003174,0.000000.5,-0.000054.50,-4500,-4500,0
151.518127,-0.949219,-2.519531,-0.019531,0.000000,0.000000,-0.021599,0.016113,0.025635,0.552002,0.002197,0.000000,-0.002686,0.000000.5,-0.000054.50,-4500,-4500,0
151.527893,-0.949219,-2.519531,-0.019531,0.000000,0.000000,-0.021915,0.016113,0.025635,0.552002,0.004883,0.000977,0.001953,0.000000.5,-0.000054.50,-4500,-4500,0
151.537659,-0.949219,-2.519531,-0.019531,0.000000,0.000000,-0.022932,0.016276,0.025650,0.552169,0.006348,-0.003174,0.003662,0.000000.5,-0.000054.50,-4500,-4500,0
151.554260,-0.949219,-2.519531,-0.019531,0.000000,0.000000,-0.022738,0.016113,0.025391,0.552002,-0.005859,0.002686,-0.002197,0.000000.5,-0.000054.50,-4500,-4500,0
151.563049,-0.949219,-2.519531,-0.019531,0.000000,0.000000,-0.022846,0.016302,0.025517,0.552181,-0.003662,0.000977,-0.003906,0.000000.5,-0.000054.50,-4500,-4500,0
151.572830,-0.949219,-2.519531,-0.019531,0.000000,0.000000,-0.023331,0.016301,0.025517,0.552114,-0.003174,0.000488,-0.003174,0.000000.5,-0.000054.50,-4500,-4500,0
151.582581,-0.949219,-2.519531,-0.019531,0.000000,0.000000,-0.021732,0.016113,0.025391,0.552002,-0.002197,0.000488,-0.001221,0.000000.5,-0.000054.50,-4500,-4500,0
151.592346,-0.949219,-2.519531,-0.019531,0.000000,0.000000,-0.022665,0.016113,0.025391,0.552002,-0.004150,0.002686,0.000000,0.000000.5,-0.000054.50,-4500,-4500,0
151.602112,-0.949219,-2.519531,-0.019531,0.000000,0.000000,-0.023352,0.016113,0.025391,0.552002,-0.004150,-0.000977,-0.006348,0.000000.5,-0.000054.50,-4500,-4500,0
151.611877,-0.949219,-2.519531,-0.019531,0.000000,0.000000,-0.022701,0.016301,0.025517,0.552114,-0.000977,-0.000977,-0.002197,0.000000.5,-0.000054.50,-4500,-4500,0
151.621643,-0.949219,-2.519531,-0.019531,0.000000,0.000000,-0.022436,0.016113,0.025391,0.552002,0.000488,-0.003662,0.000000,-0.000752.5,-0.000057.50,-4500,-4500,0
151.631409,-0.949219,-2.519531,-0.019531,0.000000,0.000000,-0.023140,0.016113,0.025391,0.552002,0.000488,-0.000488,0.004150,-0.000752.5,-0.000057.50,-4500,-4500,0
151.641174,-0.949219,-2.519531,-0.019531,0.000000,0.000000,-0.022732,0.016301,0.025517,0.552114,-0.000977,0.000977,-0.003174,-0.000752.5,-0.000057.50,-4500,-4500,0
151.650955,-0.949219,-2.519531,-0.019531,0.000000,0.000000,-0.025661,0.016113,0.025391,0.552002,0.001709,0.002197,-0.001221,-0.000752.5,-0.000057.50,-4500,-4500,0
151.660706,-0.949219,-2.519531,-0.019531,0.000000,0.000000,-0.026093,0.016113,0.025391,0.552002,0.002686,0.000488,-0.000488,-0.000752.5,-0.000057.50,-4500,-4500,0
151.670471,-0.949219,-2.519531,-0.019531,0.000000,0.000000,-0.026560,0.016113,0.025391,0.552002,0.006836,-0.000977,0.003662,-0.000752.5,-0.000057.50,-4500,-4500,0
151.680237,-0.949219,-2.519531,-0.019531,0.000000,0.000000,-0.024029,0.016113,0.025391,0.552002,0.003662,-0.002197,0.001953,-0.000752.5,-0.000057.50,-4500,-4500,0
151.690002,-0.949219,-2.519531,-0.019531,0.000000,0.000000,-0.024364,0.016113,0.025391,0.552002,0.002197,-0.002197,-0.001709,-0.000752.5,-0.000057.50,-4500,-4500,0
151.699768,-0.949219,-2.519531,-0.019531,0.000000,0.000000,-0.024960,0.016113,0.025391,0.552002,0.005371,-0.002197,0.000977,-0.000752.5,-0.000057.50,-4500,-4500,0
151.709534,-0.949219,-2.519531,-0.019531,0.000000,0.000000,-0.023897,0.016113,0.025391,0.552002,0.001709,-0.002686,0.001953,-0.000752.5,-0.000057.50,-4500,-4500,0
151.719299,-0.949219,-2.519531,-0.019531,0.000000,0.000000,-0.023214,0.016113,0.025391,0.552002,0.000977,0.000000,0.003174,-0.000752.5,-0.000057.50,-4500,-4500,0
151.729080,-0.949219,-2.519531,-0.019531,0.000000,0.000000,-0.021389,0.016113,0.025391,0.552002,-0.000488,-0.000977,-0.003906,-0.000752.5,-0.000057.50,-4500,-4500,0
151.741776,-0.949219,-2.519531,-0.019531,0.000000,0.000000,-0.021593,0.016113,0.025391,0.552002,-0.000977,0.000000,-0.002686,-0.000752.5,-0.000057.50,-4500,-4500,0
151.754456,-0.949219,-2.519531,-0.019531,0.000000,0.000000,-0.019581,0.016357,0.025391,0.552002,-0.003662,-0.001709,0.000977,0.011164.5,-0.009250.50,-4500,-4500,0
151.764221,-0.949219,-2.519531,-0.019531,0.000000,0.000000,-0.020302,0.016357,0.025391,0.552002,-0.003174,0.000977,0.000488,0.011164.5,-0.009250.50,-4500,-4500,0
151.773987,-0.949219,-2.519531,-0.019531,0.000000,0.000000,-0.020752,0.016401,0.025425,0.552047,-0.002686,0.000488,-0.005371,0.011164.5,-0.009250.50,-4500,-4500,0
151.783752,-0.949219,-2.519531,-0.019531,0.000000,0.000000,-0.019594,0.016357,0.025391,0.552002,-0.000488,-0.000977,0.000977,0.011164.5,-0.009250.50,-4500,-4500,0
151.793518,-0.949219,-2.519531,-0.019531,0.000000,0.000000,-0.020029,0.016357,0.025391,0.552002,0.001709,0.000488,0.000000,0.011164.5,-0.009250.50,-4500,-4500,0
151.803284,-0.949219,-2.519531,-0.019531,0.000000,0.000000,-0.020996,0.016357,0.025391,0.552002,0.004150,0.000000,0.001953,0.011164.5,-0.009250.50,-4500,-4500,0
151.813049,-0.949219,-2.519531,-0.019531,0.000000,0.000000,-0.019688,0.016357,0.025391,0.552002,0.000977,-0.001709,-0.001709,0.011164.5,-0.009250.50,-4500,-4500,0
151.822815,-0.949219,-2.519531,-0.019531,0.000000,0.000000,-0.020311,0.016357,0.025391,0.552002,0.002686,0.000000,0.002686,0.011164.5,-0.009250.50,-4500,-4500,0
151.832581,-0.949219,-2.519531,-0.019531,0.000000,0.000000,-0.020987,0.016357,0.025391,0.552002,0.006348,-0.002197,0.001953,0.011164.5,-0.009250.50,-4500,-4500,0
151.842361,-0.949219,-2.519531,-0.019531,0.000000,0.000000,-0.020357,0.016357,0.025391,0.552002,0.007568,-0.000977,0.001465,0.011164.5,-0.009250.50,-4500,-4500,0
151.852112,-0.949219,-2.519531,-0.019531,0.000000,0.000000,-0.019657,0.016357,0.025391,0.552002,0.009521,0.002686,0.000000,0.011164.5,-0.009250.50,-4500,-4500,0
151.861877,-0.949219,-2.519531,-0.019531,0.000000,0.000000,-0.020432,0.016113,0.025391,0.552002,-0.001709,-0.000488,-0.001709,0.011164.5,-0.009250.50,-4500,-4500,0
151.871643,-0.949219,-2.519531,-0.019531,0.000000,0.000000,-0.020361,0.016113,0.025391,0.552002,0.008057,0.000000,0.004150,-0.002848.5,-0.001893.50,-4500,-4500,0
151.881409,-0.949219,-2.519531,-0.019531,0.000000,0.000000,-0.020279,0.016113,0.025391,0.552002,0.004883,-0.000977,-0.001221,-0.002848.5,-0.001893.50,-4500,-4500,0
151.891174,-0.949219,-2.519531,-0.019531,0.000000,0.000000,-0.022903,0.016113,0.025391,0.552002,-0.006836,-0.002197,-0.002197,-0.002848.5,-0.001893.50,-4500,-4500,0
151.900940,-0.949219,-2.519531,-0.019531,0.000000,0.000000,-0.023510,0.016113,0.025391,0.552002,0.004883,0.000977,0.000977,-0.002848.5,-0.001893.50,-4500,-4500,0
151.910706,-0.949219,-2.519531,-0.019531,0.000000,0.000000,-0.024307,0.016113,0.025391,0.552002,-0.000977,0.005127,0.000488,-0.002848.5,-0.001893.50,-4500,-4500,0
151.920471,-0.949219,-2.519531,-0.019531,0.000000,0.000000,-0.024464,0.016384,0.025366,0.552046,-0.006836,-0.005371,-0.002197,-0.002848.5,-0.001893.50,-4500,-4500,0
151.930237,-0.949219,-2.519531,-0.019531,0.000000,0.000000,-0.021652,0.016113,0.025391,0.552002,-0.000977,0.000488,-0.003906,-0.002848.5,-0.001893.50,-4500,-4500,0
151.940002,-0.949219,-2.519531,-0.019531,0.000000,0.000000,-0.021074,0.016113,0.025391,0.552002,-0.006836,0.000488,-0.000488,-0.002848.5,-0.001893.50,-4500,-4500,0
151.949768,-0.949219,-2.519531,-0.019531,0.000000,0.000000,-0.020742,0.016113,0.025391,0.552002,-0.005859,-0.005859,-0.001221,-0.002848.5,-0.001893.50,-4500,-4500,0
151.959534,-0.949219,-2.519531,-0.019531,0.000000,0.000000,-0.021255,0.016113,0.025146,0.552002,-0.002686,0.000488,-0.003174,-0.002848.5,-0.001893.50,-4500,-4500,0
151.969299,-0.949219,-2.519531,-0.019531,0.000000,0.000000,-0.023293,0.016113,0.025146,0.552002,-0.003174,0.005127,0.000000,-0.002848.5,-0.001893.50,-4500,-4500,0
151.979065,-0.949219,-2.519531,-0.019531,0.000000,0.000000,-0.021162,0.016113,0.025146,0.552002,-0.000977,0.000000,-0.003906,-0.002848.5,-0.001893.50,-4500,-4500,0
151.994690,-0.949219,-2.519531,-0.019531,0.000000,0.000000,-0.021235,0.016357,0.025146,0.552002,0.002197,0.005127,-0.000488,-0.002848.5,-0.001893.50,-4500,-4500,0
152.004456,-0.949219,-2.519531,-0.019531,0.000000,0.000000,-0.021791,0.016357,0.025146,0.552002,0.006348,-0.002686,0.003662,-0.000341.5,-0.002710.50,-4500,-4500,0
152.014221,-0.949219,-2.519531,-0.019531,0.000000,0.000000,-0.020037,0.016357,0.025146,0.552002,0.005859,0.000000,0.001465,-0.000341.5,-0.002710.50,-4500,-4500,0
152.023987,-0.949219,-2.519531,-0.019531,0.000000,0.000000,-0.020794,0.016357,0.025146,0.552002,0.002197,0.005615,0.001953,-0.000341.5,-0.002710.50,-4500,-4500,0
152.033752,-0.949219,-2.519531,-0.019531,0.000000,0.000000,-0.020775,0.016357,0.025146,0.552002,0.003662,0.000488,0.000488,-0.000341.5,-0.002710.50,-4500,-4500,0
152.043518,-0.949219,-2.519531,-0.019531,0.000000,0.000000,-0.020279,0.016357,0.025146,0.552002,-0.002197,-0.001709,0.000488,-0.000341.5,-0.002710.50,-4500,-4500,0
152.053284,-0.949219,-2.519531,-0.019531,0.000000,0.000000,-0.020960,0.016357,0.025146,0.552002,-0.002686,0.002686,-0.000488,-0.000341.5,-0.002710.50,-4500,-4500,0
152.063049,-0.949219,-2.519531,-0.019531,0.000000,0.000000,-0.021551,0.016357,0.025146,0.552002,-0.003174,-0.000488,-0.003174,-0.000341.5,-0.002710.50,-4500,-4500,0
152.072815,-0.949219,-2.519531,-0.019531,0.000000,0.000000,-0.022373,0.016427,0.025291,0.552113,-0.002197,0.000488,-0.002197,-0.000341.5,-0.002710.50,-4500,-4500,0
152.082581,-0.949219,-2.519531,-0.019531,0.000000,0.000000,-0.020514,0.016357,0.025146,0.552002,-0.003174,-0.001709,0.000000,-0.000341.5,-0.002710.50,-4500,-4500,0
152.092346,-0.949219,-2.519531,-0.019531,0.000000,0.000000,-0.020697,0.016357,0.025146,0.552002,-0.001709,0.002197,0.000488,-0.000341.5,-0.002710.50,-4500,-4500,0
152.102112,-0.949219,-2.519531,-0.019531,0.000000,0.000000,-0.021105,0.016357,0.025146,0.552002,-0.004883,-0.003174,-0.001709,-0.000341.5,-0.002710.50,-4500,-4500,0
152.111893,-0.949219,-2.519531,-0.019531,0.000000,0.000000,-0.019329,0.016357,0.025146,0.552002,-0.003174,0.001465,-0.000488,-0.001428.5,-0.002990.50,-4500,-4500,0
152.121643,-0.949219,-2.519531,-0.019531,0.000000,0.000000,-0.019815,0.016357,0.025146,0.552002,0.000000,-0.002686,0.000488,-0.001428.5,-0.002990.50,-4500,-4500,0
152.131409,-0.949219,-2.519531,-0.019531,0.000000,0.000000,-0.018721,0.016357,0.025146,0.552002,0.000000,-0.000977,-0.002686,-0.001428.5,-0.002990.50,-4500,-4500,0
152.141174,-0.949219,-2.519531,-0.019531,0.000000,0.000000,-0.019156,0.016357,0.025146,0.552002,0.002686,0.000488,0.001465,-0.001428.5,-0.002990.50,-4500,-4500,0
152.150940,-0.949219,-2.519531,-0.019531,0.000000,0.000000,-0.018068,0.016357,0.025146,0.552002,0.003662,0.000977,0.000977,-0.001428.5,-0.002990.50,-4500,-4500,0
152.160706,-0.949219,-2.519531,-0.019531,0.000000,0.000000,-0.019035,0.016427,0.025291,0.552113,0.003174,-0.000488,-0.001709,-0.001428.5,-0.002990.50,-4500,-4500,0
152.170471,-0.949219,-2.519531,-0.019531,0.000000,0.000000,-0.019472,0.016357,0.025146,0.552002,0.007568,0.001465,-0.001221,-0.001428.5,-0.002990.50,-4500,-4500,0
152.180237,-0.949219,-2.519531,-0.019531,0.000000,0.000000,-0.018795,0.016357,0.025146,0.552002,0.004150,0.004150,0.000488,-0.001428.5,-0.002990.50,-4500,-4500,0
152.190002,-0.949219,-2.519531,-0.019531,0.000000,0.000000,-0.018551,0.016357,0.025146,0.552002,0.001709,-0.003174,0.002686,-0.001428.5,-0.002990.50,-4500,-4500,0
152.199768,-0.949219,-2.519531,-0.019531,0.000000,0.000000,-0.018827,0.016357,0.025146,0.552002,0.007568,0.003174,0.001953,-0.001428.5,-0.002990.50,-4500,-4500,0
152.209534,-0.949219,-2.519531,-0.019531,0.000000,0.000000,-0.019463,0.016357,0.025146,0.552002,0.000977,-0.000488,-0.002197,-0.001428.5,-0.002990.50,-4500,-4500,0
152.219299,-0.949219,-2.519531,-0.019531,0.000000,0.000000,-0.019484,0.016357,0.025146,0.552002,0.002686,-0.000977,-0.001221,-0.001428.5,-0.002990.50,-4500,-4500,0
152.229080,-0.949219,-2.519531,-0.019531,0.000000,0.000000,-0.019960,0.016357,0.025146,0.552002,0.000977,0.000977,0.000000,-0.001428.5,-0.002990.50,-4500,-4500,0
152.246643,-0.949219,-2.519531,-0.019531,0.000000,0.000000,-0.019464,0.016357,0.025146,0.552002,0.003662,-0.001709,0.001465,-0.014840.5,-0.017862.50,-4500,-4500,0
152.256409,-0.949219,-2.519531,-0.019531,0.000000,0.000000,-0.019083,0.016357,0.025146,0.552002,0.003662,0.002197,0.003662,-0.014840.5,-0.017862.50,-4500,-4500,0
152.266174,-0.949219,-2.519531,-0.019531,0.000000,0.000000,-0.019464,0.016357,0.025146,0.552002,0.004150,0.000977,0.001465,-0.014840.5,-0.017862.50,-4500,-4500,0
152.275940,-0.949219,-2.519531,-0.019531,0.000000,0.000000,-0.019066,0.016572,0.025123,0.552247,-0.000977,0.000488,0.000488,-0.014840.5,-0.017862.50,-4500,-4500,0
152.285706,-0.949219,-2.519531,-0.019531,0.000000,0.000000,-0.018814,0.016357,0.025146,0.552002,0.006348,-0.002686,0.000488,-0.014840.5,-0.017862.50,-4500,-4500,0
152.295471,-0.949219,-2.519531,-0.019531,0.000000,0.000000,-0.017544,0.016357,0.025146,0.552002,0.002197,0.002686,0.000000,-0.014840.5,-0.017862.50,-4500,-4500,0
152.305237,-0.949219,-2.519531,-0.019531,0.000000,0.000000,-0.018127,0.016357,0.025146,0.552002,0.003174,0.000977,0.000977,-0.014840.5,-0.017862.50,-4500,-4500,0
152.315002,-0.949219,-2.519531,-0.019531,0.000000,0.000000,-0.017344,0.016357,0.025146,0.552002,-0.000977,0.002197,0.000977,-0.014840.5,-0.017862.50,-4500,-4500,0
152.324768,-0.949219,-2.519531,-0.019531,0.000000,0.000000,-0.017916,0.016357,0.025146,0.552002,-0.000488,0.000488,-0.002197,-0.014840.5,-0.017862.50,-4500,-4500,0
152.334534,-0.949219,-2.519531,-0.019531,0.000000,0.000000,-0.018595,0.016357,0.025146,0.552002,-0.004150,0.000977,0.001465,-0.014840.5,-0.017862.50,-4500,-4500,0
152.344330,-0.949219,-2.519531,-0.019531,0.000000,0.000000,-0.018040,0.016357,0.025146,0.552002,-0.003174,-0.000977,0.000000,-0.014840.5,-0.017862.50,-4500,-4500,0
152.354065,-0.949219,-2.519531,-0.019531,0.000000,0.000000,-0.017914,0.016357,0.025146,0.552002,-0.002686,0.001465,-0.001709,-0.014840.5,-0.017862.50,-4500,-4500,0
152.363831,-0.949219,-2.519531,-0.019531,0.000000,0.000000,-0.018442,0.016357,0.025146,0.552002,-0.003662,0.000488,-0.000488,0.000000.5,-0.000972.50,-4500,-4500,0
152.373596,-0.949219,-2.519531,-0.019531,0.000000,0.000000,-0.017981,0.016357,0.025146,0.552002,-0.005859,0.000488,-0.003174,0.000000.5,-0.000972.50,-4500,-4500,0
152.383362,-0.949219,-2.519531,-0.019531,0.000000,0.000000,-0.016792,0.016357,0.025146,0.552002,-0.003174,-0.000977,-0.001221,0.000000.5,-0.000972.50,-4500,-4500,0
152.393127,-0.949219,-2.519531,-0.019531,0.000000,0.000000,-0.017500,0.016357,0.025146,0.552002,0.000488,0.000000,0.000000,0.000000.5,-0.000972.50,-4500,-4500,0
152.402893,-0.949219,-2.519531,-0.019531,0.000000,0.000000,-0.018299,0.016357,0.025146,0.552002,-0.002686,-0.003662,0.000000,0.000000.5,-0.000972.50,-4500,-4500,0
152.412659,-0.949219,-2.519531,-0.019531,0.000000,0.000000,-0.018976,0.016357,0.025146,0.552002,0.001709,0.002197,0.000488,0.000000.5,-0.000972.50,-4500,-4500,0
152.422424,-0.949219,-2.519531,-0.019531,0.000000,0.000000,-0.018124,0.016357,0.025146,0.552002,0.000488,-0.000488,0.001465,0.000000.5,-0.000972.50,-4500,-4500,0
152.432190,-0.949219,-2.519531,-0.019531,0.000000,0.000000,-0.018799,0.016357,0.025146,0.552002,0.004883,-0.000977,0.000000,0.000000.5,-0.000972.50,-4500,-4500,0
152.441956,-0.949219,-2.519531,-0.019531,0.000000,0.000000,-0.019382,0.016357,0.024902,0.552002,0.003174,0.000977,0.000977,0.000000.5,-0.000972.50,-4500,-4500,0
152.451721,-0.949219,-2.519531,-0.019531,0.000000,0.000000,-0.020502,0.016357,0.024902,0.552002,0.003662,-0.000977,0.000488,0.000000.5,-0.000972.50,-4500,-4500,0
152.461487,-0.949219,-2.519531,-0.019531,0.000000,0.000000,-0.021021,0.016357,0.024902,0.552002,0.004883,0.000000,0.000977,0.000000.5,-0.000972.50,-4500,-4500,0
152.471252,-0.949219,-2.519531,-0.019531,0.000000,0.000000,-0.021427,0.016357,0.024902,0.552002,0.004883,0.000000,-0.001221,0.000000.5,-0.000972.50,-4500,-4500,0
152.485931,-0.949219,-2.519531,-0.019531,0.000000,0.000000,-0.020456,0.016357,0.024902,0.552002,-0.003174,-0.008057,0.003662,0.000000.5,-0.000972.50,-4500,-4500,0
152.498596,-0.949219,-2.519531,-0.019531,0.000000,0.000000,-0.022087,0.016357,0.024902,0.552002,0.000977,0.000977,0.000000,0.004500.5,-0.003975.50,-4500,-4500,0
152.508362,-0.949219,-2.519531,-0.019531,0.000000,0.000000,-0.022749,0.016357,0.024902,0.552002,0.009033,-0.003174,0.000488,0.004500.5,-0.003975.50,-4500,-4500,0
152.518127,-0.949219,-2.519531,-0.019531,0.000000,0.000000,-0.021105,0.016357,0.024902,0.552002,0.001709,-0.005371,0.000488,0.004500.5,-0.003975.50,-4500,-4500,0
152.527893,-0.949219,-2.519531,-0.019531,0.000000,0.000000,-0.021704,0.016357,0.024902,0.552002,0.008057,0.002686,0.000977,0.004500.5,-0.003975.50,-4500,-4500,0
152.537659,-0.949219,-2.519531,-0.019531,0.000000,0.000000,-0.022293,0.016357,0.024902,0.552002,0.003662,0.003662,0.001465,0.004500.5,-0.003975.50,-4500,-4500,0
152.547424,-0.949219,-2.519531,-0.019531,0.000000,0.000000,-0.022919,0.016357,0.024902,0.552002,0.005371,-0.005859,-0.000488,0.004500.5,-0.003975.50,-4500,-4500,0
152.557190,-0.949219,-2.519531,-0.019531,0.000000,0.000000,-0.022306,0.016421,0.025039,0.552244,0.003174,0.006592,0.000488,0.004500.5,-0.003975.50,-4500,-4500,0
152.566956,-0.949219,-2.519531,-0.019531,0.000000,0.000000,-0.021891,0.016357,0.024902,0.552002,0.000977,0.004150,0.000000,0.004500.5,-0.003975.50,-4500,-4500,0
152.576721,-0.949219,-2.519531,-0.019531,0.000000,0.000000,-0.022337,0.016357,0.024902,0.552002,-0.000488,-0.004395,0.001953,0.004500.5,-0.003975.50,-4500,-4500,0
152.586487,-0.949219,-2.519531,-0.019531,0.000000,0.000000,-0.021542,0.016357,0.024902,0.552002,0.002197,0.003174,-0.000488,0.004500.5,-0.003975.50,-4500,-4500,0
152.596252,-0.949219,-2.519531,-0.019531,0.000000,0.000000,-0.022085,0.016357,0.024902,0.552002,0.000000,0.000000,-0.002197,0.004500.5,-0.003975.50,-4500,-4500,0
152.606018,-0.949219,-2.519531,-0.019531,0.000000,0.000000,-0.022409,0.016357,0.024902,0.552002,-0.002686,-0.002686,-0.003174,0.004500.5,-0.003975.50,-4500,-4500,0
152.615784,-0.949219,-2.519531,-0.019531,0.000000,0.000000,-0.021294,0.016357,0.024902,0.552002,-0.003174,0.002197,0.000488,0.000084.5,-0.003982.50,-4500,-4500,0
152.625549,-0.949219,-2.519531,-0.019531,0.000000,0.000000,-0.021914,0.016357,0.024902,0.552002,-0.006348,0.003662,0.000977,0.000084.5,-0.003982.50,-4500,-4500,0
152.635315,-0.949219,-2.519531,-0.019531,0.000000,0.000000,-0.022663,0.016357,0.024902,0.552002,-0.002686,-0.003662,-0.002197,0.000084.5,-0.003982.50,-4500,-4500,0
152.645081,-0.949219,-2.519531,-0.019531,0.000000,0.000000,-0.023397,0.016357,0.024902,0.552002,-0.006348,-0.001709,-0.004883,0.000084.5,-0.003982.50,-4500,-4500,0
152.654846,-0.949219,-2.519531,-0.019531,0.000000,0.000000,-0.023621,0.016357,0.024902,0.552002,-0.003174,0.003662,0.001953,0.000084.5,-0.003982.50,-4500,-4500,0
152.664612,-0.949219,-2.519531,-0.019531,0.000000,0.000000,-0.021820,0.016357,0.024902,0.552002,0.001709,-0.001709,0.000488,0.000084.5,-0.003982.50,-4500,-4500,0
152.674377,-0.949219,-2.519531,-0.019531,0.000000,0.000000,-0.022076,0.016357,0.024902,0.552002,-0.005371,-0.002686,-0.001221,0.000084.5,-0.003982.50,-4500,-4500,0
152.688049,-0.949219,-2.519531,-0.019531,0.000000,0.000000,-0.019970,0.016268,0.024955,0.552038,0.000000,-0.002686,-0.002197,0.000084.5,-0.003982.50,-4500,-4500,0
152.699768,-0.949219,-2.519531,-0.019531,0.000000,0.000000,-0.020699,0.016268,0.024955,0.552038,-0.000488,0.003662,0.001465,0.000084.5,-0.003982.50,-4500,-4500,0
152.709534,-0.949219,-2.519531,-0.019531,0.000000,0.000000,-0.020998,0.016113,0.024902,0.552002,0.002686,0.000977,0.003174,0.000084.5,-0.003982.50,-4500,-4500,0
152.719299,-0.949219,-2.519531,-0.019531,0.000000,0.000000,-0.020571,0.016113,0.024902,0.552002,0.004150,0.000000,0.000488,0.000084.5,-0.003982.50,-4500,-4500,0
152.729065,-0.949219,-2.519531,-0.019531,0.000000,0.000000,-0.020927,0.016113,0.024902,0.552002,0.000488,0.002686,-0.000488,0.000084.5,-0.003982.50,-4500,-4500,0
152.738831,-0.949219,-2.519531,-0.019531,0.000000,0.000000,-0.021715,0.016113,0.024902,0.552002,0.000488,0.000488,0.000488,0.000084.5,-0.003982.50,-4500,-4500,0
152.748596,-0.949219,-2.519531,-0.019531,0.000000,0.000000,-0.021328,0.016268,0.024955,0.552038,-0.001709,0.002197,-0.002686,-0.002610.5,-0.005141.50,-4500,-4500,0
152.758362,-0.949219,-2.519531,-0.019531,0.000000,0.000000,-0.021126,0.016113,0.024902,0.552002,-0.000488,-0.004395,-0.001709,-0.002610.5,-0.005141.50,-4500,-4500,0
152.768127,-0.949219,-2.519531,-0.019531,0.000000,0.000000,-0.023941,0.016113,0.024902,0.552002,0.000488,-0.000488,-0.001709,-0.002610.5,-0.005141.50,-4500,-4500,0
152.777893,-0.949219,-2.519531,-0.019531,0.000000,0.000000,-0.024158,0.016268,0.024955,0.552038,-0.005859,0.000488,0.000977,-0.002610.5,-0.005141.50,-4500,-4500,0
152.787659,-0.949219,-2.519531,-0.019531,0.000000,0.000000,-0.022589,0.016113,0.024902,0.552002,-0.003662,0.000977,-0.002686,-0.002610.5,-0.005141.50,-4500,-4500,0
152.797424,-0.949219,-2.519531,-0.019531,0.000000,0.000000,-0.023670,0.016113,0.024902,0.552002,-0.003662,0.000977,0.000000,-0.002610.5,-0.005141.50,-4500,-4500,0
152.807190,-0.949219,-2.519531,-0.019531,0.000000,0.000000,-0.024220,0.016113,0.024902,0.552002,-0.003662,-0.000977,-0.000488,-0.002610.5,-0.005141.50,-4500,-4500,0
152.816956,-0.949219,-2.519531,-0.019531,0.000000,0.000000,-0.022287,0.016113,0.024902,0.552002,-0.004883,-0.001709,-0.001709,-0.002610.5,-0.005141.50,-4500,-4500,0
152.826721,-0.949219,-2.519531,-0.019531,0.000000,0.000000,-0.022623,0.016113,0.024902,0.552002,0.002197,0.000488,-0.001221,-0.002610.5,-0.005141.50,-4500,-4500,0
152.836487,-0.949219,-2.519531,-0.019531,0.000000,0.000000,-0.023235,0.016113,0.024902,0.552002,0.000000,-0.004395,0.000488,-0.002610.5,-0.005141.50,-4500,-4500,0
152.846268,-0.949219,-2.519531,-0.019531,0.000000,0.000000,-0.024265,0.016113,0.024902,0.552002,-0.001709,0.002686,-0.004395,-0.002610.5,-0.005141.50,-4500,-4500,0
