time,pos_x,pos_y,pos_z,vel_x,vel_y,vel_z,att_phi,att_theta,att_psi,rate_p,rate_q,rate_r,cmd_thrust,cmd_roll,cmd_pitch,cmd_yaw
19.784250,-0.016856,-0.000455,-0.034797,-0.005645,-0.000030,0.037326,0.000000,0.000732,0.000244,-0.000171,0.234080,-0.000076,0,0,0,0
19.794020,-0.016864,-0.000455,-0.034797,-0.005645,-0.000030,0.037326,0.000000,0.000732,0.000244,-0.000171,0.234080,-0.000076,0,0,0,0
19.803789,-0.016872,-0.000455,-0.034797,-0.005645,-0.000030,0.037326,0.000000,0.000732,0.000244,-0.000171,0.234080,-0.000076,0,0,0,0
19.813560,-0.016881,-0.000456,-0.034797,-0.005645,-0.000030,0.037326,0.000000,0.000732,0.000244,-0.000171,0.234080,-0.000076,0,0,0,0
19.823330,-0.016889,-0.000456,-0.034797,-0.005645,-0.000030,0.037326,0.000000,0.000732,0.000244,-0.000171,0.234080,-0.000076,0,0,0,0
19.833099,-0.016897,-0.000456,-0.034797,-0.005645,-0.000030,0.037326,0.000000,0.000732,0.000244,-0.000171,0.234080,-0.000076,0,0,0,0
19.842871,-0.016906,-0.000456,-0.034797,-0.005645,-0.000030,0.037326,0.000000,0.000732,0.000244,-0.000171,0.234080,-0.000076,0,0,0,0
19.852640,-0.016914,-0.000457,-0.034797,-0.005645,-0.000030,0.037326,0.000000,0.000732,0.000244,-0.000171,0.234080,-0.000076,0,0,0,0
19.862410,-0.016923,-0.000457,-0.034797,-0.005645,-0.000030,0.037326,0.000000,0.000732,0.000244,-0.000171,0.234080,-0.000076,0,0,0,0
19.872181,-0.016931,-0.000457,-0.034797,-0.005645,-0.000030,0.037326,0.000000,0.000732,0.000244,-0.000171,0.234080,-0.000076,0,0,0,0
19.881950,-0.016939,-0.000457,-0.034797,-0.005645,-0.000030,0.037326,0.000000,0.000732,0.000244,-0.000171,0.234080,-0.000076,0,0,0,0
19.891720,-0.016948,-0.000457,-0.034797,-0.005645,-0.000030,0.037326,0.000000,0.000732,0.000244,-0.000171,0.234080,-0.000076,0,0,0,0
19.901489,-0.016956,-0.000458,-0.034797,-0.005645,-0.000030,0.037326,0.000000,0.000732,0.000244,-0.000171,0.234080,-0.000076,0,0,0,0
19.911261,-0.016964,-0.000458,-0.034797,-0.005645,-0.000030,0.037326,0.000000,0.000732,0.000244,-0.000171,0.234080,-0.000076,0,0,0,0
19.921030,-0.016973,-0.000458,-0.034797,-0.005645,-0.000030,0.037326,0.000000,0.000732,0.000244,-0.000171,0.234080,-0.000076,0,0,0,0
19.930799,-0.016981,-0.000458,-0.034797,-0.005645,-0.000030,0.037326,0.000000,0.000732,0.000244,-0.000171,0.234080,-0.000076,0,0,0,0
19.940571,-0.016990,-0.000459,-0.034797,-0.005645,-0.000030,0.037326,0.000000,0.000732,0.000244,-0.000171,0.234080,-0.000076,0,0,0,0
19.950340,-0.016998,-0.000459,-0.034797,-0.005645,-0.000030,0.037326,0.000000,0.000732,0.000244,-0.000171,0.234080,-0.000076,0,0,0,0
19.960110,-0.017006,-0.000459,-0.034797,-0.005645,-0.000030,0.037326,0.000000,0.000732,0.000244,-0.000171,0.234080,-0.000076,0,0,0,0
19.969879,-0.017015,-0.000459,-0.034797,-0.005645,-0.000030,0.037326,0.000000,0.000732,0.000244,-0.000171,0.234080,-0.000076,0,0,0,0
19.979650,-0.017023,-0.000460,-0.034797,-0.005645,-0.000030,0.037326,0.000000,0.000732,0.000244,-0.000171,0.234080,-0.000076,0,0,0,0
19.989420,-0.017031,-0.000460,-0.034797,-0.005645,-0.000030,0.037326,0.000000,0.000732,0.000244,-0.000171,0.234080,-0.000076,0,0,0,0
19.999189,-0.017040,-0.000460,-0.034797,-0.005645,-0.000030,0.037326,0.000000,0.000732,0.000244,-0.000171,0.234080,-0.000076,0,0,0,0
20.008961,-0.017048,-0.000460,-0.034797,-0.005645,-0.000030,0.037326,0.000000,0.000732,0.000244,-0.000171,0.234080,-0.000076,0,0,0,0
20.018730,-0.017057,-0.000460,-0.034797,-0.005645,-0.000030,0.037326,0.000000,0.000732,0.000244,-0.000171,0.234080,-0.000076,0,0,0,0
20.028500,-0.017065,-0.000461,-0.034797,-0.005645,-0.000030,0.037326,0.000000,0.000732,0.000244,-0.000171,0.234080,-0.000076,0,0,0,0
20.038271,-0.017073,-0.000461,-0.034797,-0.005645,-0.000030,0.037326,0.000000,0.000732,0.000244,-0.000171,0.234080,-0.000076,0,0,0,0
20.048040,-0.017082,-0.000461,-0.034797,-0.005645,-0.000030,0.037326,0.000000,0.000732,0.000244,-0.000171,0.234080,-0.000076,0,0,0,0
20.057810,-0.017090,-0.000461,-0.034797,-0.005645,-0.000030,0.037326,0.000000,0.000732,0.000244,-0.000171,0.234080,-0.000076,0,0,0,0
20.067579,-0.017098,-0.000462,-0.034797,-0.005645,-0.000030,0.037326,0.000000,0.000732,0.000244,-0.000171,0.234080,-0.000076,0,0,0,0
20.077351,-0.017107,-0.000462,-0.034797,-0.005645,-0.000030,0.037326,0.000000,0.000732,0.000244,-0.000171,0.234080,-0.000076,0,0,0,0
20.087120,-0.017115,-0.000462,-0.034797,-0.005645,-0.000030,0.037326,0.000000,0.000732,0.000244,-0.000171,0.234080,-0.000076,0,0,0,0
20.096889,-0.017124,-0.000462,-0.034797,-0.005645,-0.000030,0.037326,0.000000,0.000732,0.000244,-0.000171,0.234080,-0.000076,0,0,0,0
20.106661,-0.017132,-0.000462,-0.034797,-0.005645,-0.000030,0.037326,0.000000,0.000732,0.000244,-0.000171,0.234080,-0.000076,0,0,0,0
20.116430,-0.017140,-0.000463,-0.034797,-0.005645,-0.000030,0.037326,0.000000,0.000732,0.000244,-0.000171,0.234080,-0.000076,0,0,0,0
20.126200,-0.017149,-0.000463,-0.034797,-0.005645,-0.000030,0.037326,0.000000,0.000732,0.000244,-0.000171,0.234080,-0.000076,0,0,0,0
20.135969,-0.017157,-0.000463,-0.034797,-0.005645,-0.000030,0.037326,0.000000,0.000732,0.000244,-0.000171,0.234080,-0.000076,0,0,0,0
20.145741,-0.017165,-0.000463,-0.034797,-0.005645,-0.000030,0.037326,0.000000,0.000732,0.000244,-0.000171,0.234080,-0.000076,0,0,0,0
20.155510,-0.017174,-0.000464,-0.034797,-0.005645,-0.000030,0.037326,0.000000,0.000732,0.000244,-0.000171,0.234080,-0.000076,0,0,0,0
20.165279,-0.017182,-0.000464,-0.034797,-0.005645,-0.000030,0.037326,0.000000,0.000732,0.000244,-0.000171,0.234080,-0.000076,0,0,0,0
20.175051,-0.017191,-0.000464,-0.034797,-0.005645,-0.000030,0.037326,0.000000,0.000732,0.000244,-0.000171,0.234080,-0.000076,0,0,0,0
20.184820,-0.017199,-0.000464,-0.034797,-0.005645,-0.000030,0.037326,0.000000,0.000732,0.000244,-0.000171,0.234080,-0.000076,0,0,0,0
20.194590,-0.017207,-0.000465,-0.034797,-0.005645,-0.000030,0.037326,0.000000,0.000732,0.000244,-0.000171,0.234080,-0.000076,0,0,0,0
20.204359,-0.017216,-0.000465,-0.034797,-0.005645,-0.000030,0.037326,0.000000,0.000732,0.000244,-0.000171,0.234080,-0.000076,0,0,0,0
20.214130,-0.017224,-0.000465,-0.034797,-0.005645,-0.000030,0.037326,0.000000,0.000732,0.000244,-0.000171,0.234080,-0.000076,0,0,0,0
20.223900,-0.017232,-0.000465,-0.034797,-0.005645,-0.000030,0.037326,0.000000,0.000732,0.000244,-0.000171,0.234080,-0.000076,0,0,0,0
20.233669,-0.017241,-0.000465,-0.034797,-0.005645,-0.000030,0.037326,0.000000,0.000732,0.000244,-0.000171,0.234080,-0.000076,0,0,0,0
20.243441,-0.017249,-0.000466,-0.034797,-0.005645,-0.000030,0.037326,0.000000,0.000732,0.000244,-0.000171,0.234080,-0.000076,0,0,0,0
20.253210,-0.017258,-0.000466,-0.034797,-0.005645,-0.000030,0.037326,0.000000,0.000732,0.000244,-0.000171,0.234080,-0.000076,0,0,0,0
20.262980,-0.017266,-0.000466,-0.034797,-0.005645,-0.000030,0.037326,0.000000,0.000732,0.000244,-0.000171,0.234080,-0.000076,0,0,0,0
20.272751,-0.017274,-0.000466,-0.034797,-0.005645,-0.000030,0.037326,0.000000,0.000732,0.000244,-0.000171,0.234080,-0.000076,0,0,0,0
20.282520,-0.017283,-0.000467,-0.034797,-0.005645,-0.000030,0.037326,0.000000,0.000732,0.000244,-0.000171,0.234080,-0.000076,0,0,0,0
20.292290,-0.017291,-0.000467,-0.034797,-0.005645,-0.000030,0.037326,0.000000,0.000732,0.000244,-0.000171,0.234080,-0.000076,0,0,0,0
20.302059,-0.017299,-0.000467,-0.034797,-0.005645,-0.000030,0.037326,0.000000,0.000732,0.000244,-0.000171,0.234080,-0.000076,0,0,0,0
20.311831,-0.017308,-0.000467,-0.034797,-0.005645,-0.000030,0.037326,0.000000,0.000732,0.000244,-0.000171,0.234080,-0.000076,0,0,0,0
20.321600,-0.017316,-0.000468,-0.034797,-0.005645,-0.000030,0.037326,0.000000,0.000732,0.000244,-0.000171,0.234080,-0.000076,0,0,0,0
20.331369,-0.017324,-0.000468,-0.034797,-0.005645,-0.000030,0.037326,0.000000,0.000732,0.000244,-0.000171,0.234080,-0.000076,0,0,0,0
20.341141,-0.017333,-0.000468,-0.034797,-0.005645,-0.000030,0.037326,0.000000,0.000732,0.000244,-0.000171,0.234080,-0.000076,0,0,0,0
20.350910,-0.017341,-0.000468,-0.034797,-0.005645,-0.000030,0.037326,0.000000,0.000732,0.000244,-0.000171,0.234080,-0.000076,0,0,0,0
20.360680,-0.017350,-0.000468,-0.034797,-0.005645,-0.000030,0.037326,0.000000,0.000732,0.000244,-0.000171,0.234080,-0.000076,0,0,0,0
20.370449,-0.017358,-0.000469,-0.034797,-0.005645,-0.000030,0.037326,0.000000,0.000732,0.000244,-0.000171,0.234080,-0.000076,0,0,0,0
20.380220,-0.017366,-0.000469,-0.034797,-0.005645,-0.000030,0.037326,0.000000,0.000732,0.000244,-0.000171,0.234080,-0.000076,0,0,0,0
20.389990,-0.017375,-0.000469,-0.034797,-0.005645,-0.000030,0.037326,0.000000,0.000732,0.000244,-0.000171,0.234080,-0.000076,0,0,0,0
20.399759,-0.017383,-0.000469,-0.034797,-0.005645,-0.000030,0.037326,0.000000,0.000732,0.000244,-0.000171,0.234080,-0.000076,0,0,0,0
20.409531,-0.017391,-0.000470,-0.034797,-0.005645,-0.000030,0.037326,0.000000,0.000732,0.000244,-0.000171,0.234080,-0.000076,0,0,0,0
20.419300,-0.017400,-0.000470,-0.034797,-0.005645,-0.000030,0.037326,0.000000,0.000732,0.000244,-0.000171,0.234080,-0.000076,0,0,0,0
20.429070,-0.017408,-0.000470,-0.034797,-0.005645,-0.000030,0.037326,0.000000,0.000732,0.000244,-0.000171,0.234080,-0.000076,0,0,0,0
20.438841,-0.017417,-0.000470,-0.034797,-0.005645,-0.000030,0.037326,0.000000,0.000732,0.000244,-0.000171,0.234080,-0.000076,0,0,0,0
20.448610,-0.017425,-0.000471,-0.034797,-0.005645,-0.000030,0.037326,0.000000,0.000732,0.000244,-0.000172,0.234080,-0.000076,0,0,0,0
20.458380,-0.017433,-0.000471,-0.034797,-0.005645,-0.000030,0.037326,0.000000,0.000732,0.000244,-0.000172,0.234080,-0.000076,0,0,0,0
20.468149,-0.017442,-0.000471,-0.034797,-0.005645,-0.000030,0.037326,0.000000,0.000732,0.000244,-0.000172,0.234080,-0.000076,0,0,0,0
20.477921,-0.017450,-0.000471,-0.034797,-0.005645,-0.000030,0.037326,0.000000,0.000732,0.000244,-0.000172,0.234080,-0.000076,0,0,0,0
20.487690,-0.017458,-0.000471,-0.034797,-0.005645,-0.000030,0.037326,0.000000,0.000732,0.000244,-0.000172,0.234080,-0.000076,0,0,0,0
20.497459,-0.017467,-0.000472,-0.034797,-0.005645,-0.000030,0.037326,0.000000,0.000732,0.000244,-0.000172,0.234080,-0.000076,0,0,0,0
20.507231,-0.017475,-0.000472,-0.034797,-0.005645,-0.000030,0.037326,0.000000,0.000732,0.000244,-0.000172,0.234080,-0.000076,0,0,0,0
20.517000,-0.017484,-0.000472,-0.034797,-0.005645,-0.000030,0.037326,0.000000,0.000732,0.000244,-0.000172,0.234080,-0.000076,0,0,0,0
20.526770,-0.017492,-0.000472,-0.034797,-0.005645,-0.000030,0.037326,0.000000,0.000732,0.000244,-0.000172,0.234080,-0.000076,0,0,0,0
20.536539,-0.017500,-0.000473,-0.034797,-0.005645,-0.000030,0.037326,0.000000,0.000732,0.000244,-0.000172,0.234080,-0.000076,0,0,0,0
20.546310,-0.017509,-0.000473,-0.034797,-0.005645,-0.000030,0.037326,0.000000,0.000732,0.000244,-0.000172,0.234080,-0.000076,0,0,0,0
20.556080,-0.017517,-0.000473,-0.034797,-0.005645,-0.000030,0.037326,0.000000,0.000732,0.000244,-0.000172,0.234080,-0.000076,0,0,0,0
20.565849,-0.017525,-0.000473,-0.034797,-0.005645,-0.000030,0.037326,0.000000,0.000732,0.000244,-0.000172,0.234080,-0.000076,0,0,0,0
20.575621,-0.017534,-0.000474,-0.034797,-0.005645,-0.000030,0.037326,0.000000,0.000732,0.000244,-0.000172,0.234080,-0.000076,0,0,0,0
20.585390,-0.017542,-0.000474,-0.034797,-0.005645,-0.000030,0.037326,0.000000,0.000732,0.000244,-0.000172,0.234080,-0.000076,0,0,0,0
20.595160,-0.017551,-0.000474,-0.034797,-0.005645,-0.000030,0.037326,0.000000,0.000732,0.000244,-0.000172,0.234080,-0.000076,0,0,0,0
20.604931,-0.017559,-0.000474,-0.034797,-0.005645,-0.000030,0.037326,0.000000,0.000732,0.000244,-0.000172,0.234080,-0.000076,0,0,0,0
20.614700,-0.017567,-0.000474,-0.034797,-0.005645,-0.000030,0.037326,0.000000,0.000732,0.000244,-0.000172,0.234080,-0.000076,0,0,0,0
20.624470,-0.017576,-0.000475,-0.034797,-0.005645,-0.000030,0.037326,0.000000,0.000732,0.000244,-0.000172,0.234080,-0.000076,0,0,0,0
20.634239,-0.017584,-0.000475,-0.034797,-0.005645,-0.000030,0.037326,0.000000,0.000732,0.000244,-0.000172,0.234080,-0.000076,0,0,0,0
20.644011,-0.017592,-0.000475,-0.034797,-0.005645,-0.000030,0.037326,0.000000,0.000732,0.000244,-0.000172,0.234080,-0.000076,0,0,0,0
20.653780,-0.017601,-0.000475,-0.034797,-0.005645,-0.000030,0.037326,0.000000,0.000732,0.000244,-0.000172,0.234080,-0.000076,0,0,0,0
20.663549,-0.017609,-0.000476,-0.034797,-0.005645,-0.000030,0.037326,0.000000,0.000732,0.000244,-0.000172,0.234080,-0.000076,0,0,0,0
20.673321,-0.017618,-0.000476,-0.034797,-0.005645,-0.000030,0.037326,0.000000,0.000732,0.000244,-0.000172,0.234080,-0.000076,0,0,0,0
20.683090,-0.017626,-0.000476,-0.034797,-0.005645,-0.000030,0.037326,0.000000,0.000732,0.000244,-0.000172,0.234080,-0.000076,0,0,0,0
20.692860,-0.017634,-0.000476,-0.034797,-0.005645,-0.000030,0.037326,0.000000,0.000732,0.000244,-0.000172,0.234080,-0.000076,0,0,0,0
20.702629,-0.017643,-0.000477,-0.034797,-0.005645,-0.000030,0.037326,0.000000,0.000732,0.000244,-0.000172,0.234080,-0.000076,0,0,0,0
20.712400,-0.017651,-0.000477,-0.034797,-0.005645,-0.000030,0.037326,0.000000,0.000732,0.000244,-0.000172,0.234080,-0.000076,0,0,0,0
20.722170,-0.017659,-0.000477,-0.034797,-0.005645,-0.000030,0.037326,0.000000,0.000732,0.000244,-0.000172,0.234080,-0.000076,0,0,0,0
20.731939,-0.017668,-0.000477,-0.034797,-0.005645,-0.000030,0.037326,0.000000,0.000732,0.000244,-0.000172,0.234080,-0.000076,0,0,0,0
20.741711,-0.017676,-0.000477,-0.034797,-0.005645,-0.000030,0.037326,0.000000,0.000732,0.000244,-0.000172,0.234080,-0.000076,0,0,0,0
20.751480,-0.017685,-0.000478,-0.034797,-0.005645,-0.000030,0.037326,0.000000,0.000732,0.000244,-0.000172,0.234080,-0.000076,0,0,0,0
20.761250,-0.017693,-0.000478,-0.034797,-0.005645,-0.000030,0.037326,0.000000,0.000732,0.000244,-0.000172,0.234080,-0.000076,0,0,0,0
20.771021,-0.017701,-0.000478,-0.034797,-0.005645,-0.000030,0.037326,0.000000,0.000732,0.000244,-0.000172,0.234080,-0.000076,0,0,0,0
20.780790,-0.017710,-0.000478,-0.034797,-0.005645,-0.000030,0.037326,0.000000,0.000732,0.000244,-0.000172,0.234080,-0.000076,0,0,0,0
20.790560,-0.017718,-0.000479,-0.034797,-0.005645,-0.000030,0.037326,0.000000,0.000732,0.000244,-0.000172,0.234080,-0.000076,0,0,0,0
20.800329,-0.017726,-0.000479,-0.034797,-0.005645,-0.000030,0.037326,0.000000,0.000732,0.000244,-0.000172,0.234080,-0.000076,0,0,0,0
20.810101,-0.017735,-0.000479,-0.034797,-0.005645,-0.000030,0.037326,0.000000,0.000732,0.000244,-0.000172,0.234080,-0.000076,0,0,0,0
20.819870,-0.017743,-0.000479,-0.034797,-0.005645,-0.000030,0.037326,0.000000,0.000732,0.000244,-0.000172,0.234080,-0.000076,0,0,0,0
20.829639,-0.017752,-0.000480,-0.034797,-0.005645,-0.000030,0.037326,0.000000,0.000732,0.000244,-0.000172,0.234080,-0.000076,0,0,0,0
20.839411,-0.017760,-0.000480,-0.034797,-0.005645,-0.000030,0.037326,0.000000,0.000732,0.000244,-0.000172,0.234080,-0.000076,0,0,0,0
20.849180,-0.017768,-0.000480,-0.034797,-0.005645,-0.000030,0.037326,0.000000,0.000732,0.000244,-0.000172,0.234080,-0.000076,0,0,0,0
20.858950,-0.017777,-0.000480,-0.034797,-0.005645,-0.000030,0.037326,0.000000,0.000732,0.000244,-0.000172,0.234080,-0.000076,0,0,0,0
20.868719,-0.017785,-0.000480,-0.034797,-0.005645,-0.000030,0.037326,0.000000,0.000732,0.000244,-0.000172,0.234080,-0.000076,0,0,0,0
20.878490,-0.017793,-0.000481,-0.034797,-0.005645,-0.000030,0.037326,0.000000,0.000732,0.000244,-0.000172,0.234080,-0.000076,0,0,0,0
20.888260,-0.017802,-0.000481,-0.034797,-0.005645,-0.000030,0.037326,0.000000,0.000732,0.000244,-0.000172,0.234080,-0.000076,0,0,0,0
20.898029,-0.017810,-0.000481,-0.034797,-0.005645,-0.000030,0.037326,0.000000,0.000732,0.000244,-0.000172,0.234080,-0.000076,0,0,0,0
20.907801,-0.017819,-0.000481,-0.034797,-0.005645,-0.000030,0.037326,0.000000,0.000732,0.000244,-0.000172,0.234080,-0.000076,0,0,0,0
20.917570,-0.017827,-0.000482,-0.034797,-0.005645,-0.000030,0.037326,0.000000,0.000732,0.000244,-0.000172,0.234080,-0.000076,0,0,0,0
20.927340,-0.017835,-0.000482,-0.034797,-0.005645,-0.000030,0.037326,0.000000,0.000732,0.000244,-0.000172,0.234080,-0.000076,0,0,0,0
20.937111,-0.017844,-0.000482,-0.034797,-0.005645,-0.000030,0.037326,0.000000,0.000732,0.000244,-0.000172,0.234080,-0.000076,0,0,0,0
20.946880,-0.017852,-0.000482,-0.034797,-0.005645,-0.000030,0.037326,0.000000,0.000732,0.000244,-0.000172,0.234080,-0.000076,0,0,0,0
20.956650,-0.017860,-0.000483,-0.034797,-0.005645,-0.000030,0.037326,0.000000,0.000732,0.000244,-0.000172,0.234080,-0.000076,0,0,0,0
20.966419,-0.017869,-0.000483,-0.034797,-0.005645,-0.000030,0.037326,0.000000,0.000732,0.000244,-0.000172,0.234080,-0.000076,0,0,0,0
20.976191,-0.017877,-0.000483,-0.034797,-0.005645,-0.000030,0.037326,0.000000,0.000732,0.000244,-0.000172,0.234080,-0.000076,0,0,0,0
20.985960,-0.017886,-0.000483,-0.034797,-0.005645,-0.000030,0.037326,0.000000,0.000732,0.000244,-0.000172,0.234080,-0.000076,0,0,0,0
20.995729,-0.017894,-0.000483,-0.034797,-0.005645,-0.000030,0.037326,0.000000,0.000732,0.000244,-0.000172,0.234080,-0.000076,0,0,0,0
21.005501,-0.017902,-0.000484,-0.034797,-0.005645,-0.000030,0.037326,0.000000,0.000732,0.000244,-0.000172,0.234080,-0.000076,0,0,0,0
21.015270,-0.017911,-0.000484,-0.034797,-0.005645,-0.000030,0.037326,0.000000,0.000732,0.000244,-0.000172,0.234080,-0.000076,0,0,0,0
21.025040,-0.017919,-0.000484,-0.034797,-0.005645,-0.000030,0.037326,0.000000,0.000732,0.000244,-0.000172,0.234080,-0.000076,0,0,0,0
21.034809,-0.017927,-0.000484,-0.034797,-0.005645,-0.000030,0.037326,0.000000,0.000732,0.000244,-0.000172,0.234080,-0.000076,0,0,0,0
21.044580,-0.017936,-0.000485,-0.034797,-0.005645,-0.000030,0.037326,0.000000,0.000732,0.000244,-0.000172,0.234080,-0.000076,0,0,0,0
21.054350,-0.017944,-0.000485,-0.034797,-0.005645,-0.000030,0.037326,0.000000,0.000732,0.000244,-0.000172,0.234080,-0.000076,0,0,0,0
21.064119,-0.017953,-0.000485,-0.034797,-0.005645,-0.000030,0.037326,0.000000,0.000732,0.000244,-0.000172,0.234080,-0.000076,0,0,0,0
21.073891,-0.017961,-0.000485,-0.034797,-0.005645,-0.000030,0.037326,0.000000,0.000732,0.000244,-0.000172,0.234080,-0.000076,0,0,0,0
21.083660,-0.017969,-0.000486,-0.034797,-0.005645,-0.000030,0.037326,0.000000,0.000732,0.000244,-0.000172,0.234080,-0.000076,0,0,0,0
21.093430,-0.017978,-0.000486,-0.034797,-0.005645,-0.000030,0.037326,0.000000,0.000732,0.000244,-0.000172,0.234080,-0.000076,0,0,0,0
21.103201,-0.017986,-0.000486,-0.034797,-0.005645,-0.000030,0.037326,0.000000,0.000732,0.000244,-0.000172,0.234080,-0.000076,0,0,0,0
21.112970,-0.017994,-0.000486,-0.034797,-0.005645,-0.000030,0.037326,0.000000,0.000732,0.000244,-0.000172,0.234080,-0.000076,0,0,0,0
21.122740,-0.018003,-0.000486,-0.034797,-0.005645,-0.000030,0.037326,0.000000,0.000732,0.000244,-0.000172,0.234080,-0.000076,0,0,0,0
21.132509,-0.018011,-0.000487,-0.034797,-0.005645,-0.000030,0.037326,0.000000,0.000732,0.000244,-0.000172,0.234080,-0.000076,0,0,0,0
21.142281,-0.018020,-0.000487,-0.034797,-0.005645,-0.000030,0.037326,0.000000,0.000732,0.000244,-0.000172,0.234080,-0.000076,0,0,0,0
21.152050,-0.018028,-0.000487,-0.034797,-0.005645,-0.000030,0.037326,0.000000,0.000732,0.000244,-0.000172,0.234080,-0.000076,0,0,0,0
21.161819,-0.018036,-0.000487,-0.034797,-0.005645,-0.000030,0.037326,0.000000,0.000732,0.000244,-0.000172,0.234080,-0.000076,0,0,0,0
21.171591,-0.018045,-0.000488,-0.034797,-0.005645,-0.000030,0.037326,0.000000,0.000732,0.000244,-0.000172,0.234080,-0.000076,0,0,0,0
21.181360,-0.018053,-0.000488,-0.034797,-0.005645,-0.000030,0.037326,0.000000,0.000732,0.000244,-0.000172,0.234080,-0.000076,0,0,0,0
21.191130,-0.018061,-0.000488,-0.034797,-0.005645,-0.000030,0.037326,0.000000,0.000732,0.000244,-0.000172,0.234080,-0.000076,0,0,0,0
21.200899,-0.018070,-0.000488,-0.034797,-0.005645,-0.000030,0.037326,0.000000,0.000732,0.000244,-0.000172,0.234080,-0.000076,0,0,0,0
21.210670,-0.018078,-0.000489,-0.034797,-0.005645,-0.000030,0.037326,0.000000,0.000732,0.000244,-0.000172,0.234080,-0.000076,0,0,0,0
21.220440,-0.018086,-0.000489,-0.034797,-0.005645,-0.000030,0.037326,0.000000,0.000732,0.000244,-0.000172,0.234080,-0.000076,0,0,0,0
21.230209,-0.018095,-0.000489,-0.034797,-0.005645,-0.000030,0.037326,0.000000,0.000732,0.000244,-0.000172,0.234080,-0.000076,0,0,0,0
21.239981,-0.018103,-0.000489,-0.034797,-0.005645,-0.000030,0.037326,0.000000,0.000732,0.000244,-0.000172,0.234080,-0.000076,0,0,0,0
21.249750,-0.018112,-0.000489,-0.034797,-0.005645,-0.000030,0.037326,0.000000,0.000732,0.000244,-0.000172,0.234080,-0.000076,0,0,0,0
21.259520,-0.018120,-0.000490,-0.034797,-0.005645,-0.000030,0.037326,0.000000,0.000732,0.000244,-0.000172,0.234080,-0.000076,0,0,0,0
21.269291,-0.018128,-0.000490,-0.034797,-0.005645,-0.000030,0.037326,0.000000,0.000732,0.000244,-0.000172,0.234080,-0.000076,0,0,0,0
21.279060,-0.018137,-0.000490,-0.034797,-0.005645,-0.000030,0.037326,0.000000,0.000732,0.000244,-0.000172,0.234080,-0.000076,0,0,0,0
21.288830,-0.018145,-0.000490,-0.034797,-0.005645,-0.000030,0.037326,0.000000,0.000732,0.000244,-0.000172,0.234080,-0.000076,0,0,0,0
21.298599,-0.018153,-0.000491,-0.034797,-0.005645,-0.000030,0.037326,0.000000,0.000732,0.000244,-0.000172,0.234080,-0.000076,0,0,0,0
21.308371,-0.018162,-0.000491,-0.034797,-0.005645,-0.000030,0.037326,0.000000,0.000732,0.000244,-0.000172,0.234080,-0.000076,0,0,0,0
21.318140,-0.018170,-0.000491,-0.034797,-0.005645,-0.000030,0.037326,0.000000,0.000732,0.000244,-0.000172,0.234080,-0.000076,0,0,0,0
21.327909,-0.018179,-0.000491,-0.034797,-0.005645,-0.000030,0.037326,0.000000,0.000732,0.000244,-0.000172,0.234080,-0.000076,0,0,0,0
21.337681,-0.018187,-0.000491,-0.034797,-0.005645,-0.000030,0.037326,0.000000,0.000732,0.000244,-0.000172,0.234080,-0.000076,0,0,0,0
21.347450,-0.018195,-0.000492,-0.034797,-0.005645,-0.000030,0.037326,0.000000,0.000732,0.000244,-0.000172,0.234080,-0.000076,0,0,0,0
21.357220,-0.018204,-0.000492,-0.034797,-0.005645,-0.000030,0.037326,0.000000,0.000732,0.000244,-0.000172,0.234080,-0.000076,0,0,0,0
21.366989,-0.018212,-0.000492,-0.034797,-0.005645,-0.000030,0.037326,0.000000,0.000732,0.000244,-0.000172,0.234080,-0.000076,0,0,0,0
21.376760,-0.018220,-0.000492,-0.034797,-0.005645,-0.000030,0.037326,0.000000,0.000732,0.000244,-0.000172,0.234080,-0.000076,0,0,0,0
21.386530,-0.018229,-0.000493,-0.034797,-0.005645,-0.000030,0.037326,0.000000,0.000732,0.000244,-0.000172,0.234080,-0.000076,0,0,0,0
21.396299,-0.018237,-0.000493,-0.034797,-0.005645,-0.000030,0.037326,0.000000,0.000732,0.000244,-0.000172,0.234080,-0.000076,0,0,0,0
21.406071,-0.018246,-0.000493,-0.034797,-0.005645,-0.000030,0.037326,0.000000,0.000732,0.000244,-0.000172,0.234080,-0.000076,0,0,0,0
21.415840,-0.018254,-0.000493,-0.034797,-0.005645,-0.000030,0.037326,0.000000,0.000732,0.000244,-0.000172,0.234080,-0.000076,0,0,0,0
21.425610,-0.018262,-0.000494,-0.034797,-0.005645,-0.000030,0.037326,0.000000,0.000732,0.000244,-0.000172,0.234080,-0.000076,0,0,0,0
21.435381,-0.018271,-0.000494,-0.034797,-0.005645,-0.000030,0.037326,0.000000,0.000732,0.000244,-0.000172,0.234080,-0.000076,0,0,0,0
21.445150,-0.018279,-0.000494,-0.034797,-0.005645,-0.000030,0.037326,0.000000,0.000732,0.000244,-0.000172,0.234080,-0.000076,0,0,0,0
21.454920,-0.018287,-0.000494,-0.034797,-0.005645,-0.000030,0.037326,0.000000,0.000732,0.000244,-0.000172,0.234080,-0.000076,0,0,0,0
21.464689,-0.018296,-0.000494,-0.034797,-0.005645,-0.000030,0.037326,0.000000,0.000732,0.000244,-0.000172,0.234080,-0.000076,0,0,0,0
21.474461,-0.018304,-0.000495,-0.034797,-0.005645,-0.000030,0.037326,0.000000,0.000732,0.000244,-0.000172,0.234080,-0.000076,0,0,0,0
21.484230,-0.018313,-0.000495,-0.034797,-0.005645,-0.000030,0.037326,0.000000,0.000732,0.000244,-0.000172,0.234080,-0.000076,0,0,0,0
21.493999,-0.018321,-0.000495,-0.034797,-0.005645,-0.000030,0.037326,0.000000,0.000732,0.000244,-0.000172,0.234080,-0.000076,0,0,0,0
21.503771,-0.018329,-0.000495,-0.034797,-0.005645,-0.000030,0.037326,0.000000,0.000732,0.000244,-0.000172,0.234080,-0.000076,0,0,0,0
21.513540,-0.018338,-0.000496,-0.034797,-0.005645,-0.000030,0.037326,0.000000,0.000732,0.000244,-0.000172,0.234080,-0.000076,0,0,0,0
21.523310,-0.018346,-0.000496,-0.034797,-0.005645,-0.000030,0.037326,0.000000,0.000732,0.000244,-0.000172,0.234080,-0.000076,0,0,0,0
21.533079,-0.018354,-0.000496,-0.034797,-0.005645,-0.000030,0.037326,0.000000,0.000732,0.000244,-0.000172,0.234080,-0.000076,0,0,0,0
21.542850,-0.018363,-0.000496,-0.034797,-0.005645,-0.000030,0.037326,0.000000,0.000732,0.000244,-0.000172,0.234080,-0.000076,0,0,0,0
21.552620,-0.018371,-0.000497,-0.034797,-0.005645,-0.000030,0.037326,0.000000,0.000732,0.000244,-0.000172,0.234080,-0.000076,0,0,0,0
21.562389,-0.018380,-0.000497,-0.034797,-0.005645,-0.000030,0.037326,0.000000,0.000732,0.000244,-0.000172,0.234080,-0.000076,0,0,0,0
21.572161,-0.018388,-0.000497,-0.034797,-0.005645,-0.000030,0.037326,0.000000,0.000732,0.000244,-0.000172,0.234080,-0.000076,0,0,0,0
21.581930,-0.018396,-0.000497,-0.034797,-0.005645,-0.000030,0.037326,0.000000,0.000732,0.000244,-0.000172,0.234080,-0.000076,0,0,0,0
21.591700,-0.018405,-0.000497,-0.034797,-0.005645,-0.000030,0.037326,0.000000,0.000732,0.000244,-0.000172,0.234080,-0.000076,0,0,0,0
21.601471,-0.018413,-0.000498,-0.034797,-0.005645,-0.000030,0.037326,0.000000,0.000732,0.000244,-0.000172,0.234080,-0.000076,0,0,0,0
21.611240,-0.018421,-0.000498,-0.034797,-0.005645,-0.000030,0.037326,0.000000,0.000732,0.000244,-0.000172,0.234080,-0.000076,0,0,0,0
21.621010,-0.018430,-0.000498,-0.034797,-0.005645,-0.000030,0.037326,0.000000,0.000732,0.000244,-0.000172,0.234080,-0.000076,0,0,0,0
21.630779,-0.018438,-0.000498,-0.034797,-0.005645,-0.000030,0.037326,0.000000,0.000732,0.000244,-0.000172,0.234080,-0.000076,0,0,0,0
21.640551,-0.018447,-0.000499,-0.034797,-0.005645,-0.000030,0.037326,0.000000,0.000732,0.000244,-0.000172,0.234080,-0.000076,0,0,0,0
21.650320,-0.018455,-0.000499,-0.034797,-0.005645,-0.000030,0.037326,0.000000,0.000732,0.000244,-0.000172,0.234080,-0.000076,0,0,0,0
21.660089,-0.018463,-0.000499,-0.034797,-0.005645,-0.000030,0.037326,0.000000,0.000732,0.000244,-0.000172,0.234080,-0.000076,0,0,0,0
21.669861,-0.018472,-0.000499,-0.034797,-0.005645,-0.000030,0.037326,0.000000,0.000732,0.000244,-0.000172,0.234080,-0.000076,0,0,0,0
21.679630,-0.018480,-0.000500,-0.034797,-0.005645,-0.000030,0.037326,0.000000,0.000732,0.000244,-0.000172,0.234080,-0.000076,0,0,0,0
21.689400,-0.018488,-0.000500,-0.034797,-0.005645,-0.000030,0.037326,0.000000,0.000732,0.000244,-0.000172,0.234080,-0.000076,0,0,0,0
21.699169,-0.018497,-0.000500,-0.034797,-0.005645,-0.000030,0.037326,0.000000,0.000732,0.000244,-0.000172,0.234080,-0.000076,0,0,0,0
21.708941,-0.018505,-0.000500,-0.034797,-0.005645,-0.000030,0.037326,0.000000,0.000732,0.000244,-0.000172,0.234080,-0.000076,0,0,0,0
21.718710,-0.018514,-0.000500,-0.034797,-0.005645,-0.000030,0.037326,0.000000,0.000732,0.000244,-0.000172,0.234080,-0.000076,0,0,0,0
21.728479,-0.018522,-0.000501,-0.034797,-0.005645,-0.000030,0.037326,0.000000,0.000732,0.000244,-0.000172,0.234080,-0.000076,0,0,0,0
21.738251,-0.018530,-0.000501,-0.034797,-0.005645,-0.000030,0.037326,0.000000,0.000732,0.000244,-0.000172,0.234080,-0.000076,0,0,0,0
21.748020,-0.018539,-0.000501,-0.034797,-0.005645,-0.000030,0.037326,0.000000,0.000732,0.000244,-0.000172,0.234080,-0.000076,0,0,0,0
21.757790,-0.018547,-0.000501,-0.034797,-0.005645,-0.000030,0.037326,0.000000,0.000732,0.000244,-0.000172,0.234080,-0.000076,0,0,0,0
21.767559,-0.018555,-0.000502,-0.034797,-0.005645,-0.000030,0.037326,0.000000,0.000732,0.000244,-0.000172,0.234080,-0.000076,0,0,0,0
21.777330,-0.018564,-0.000502,-0.034797,-0.005645,-0.000030,0.037326,0.000000,0.000732,0.000244,-0.000172,0.234080,-0.000076,0,0,0,0
21.787100,-0.018572,-0.000502,-0.034797,-0.005645,-0.000030,0.037326,0.000000,0.000732,0.000244,-0.000172,0.234080,-0.000076,0,0,0,0
21.796869,-0.018581,-0.000502,-0.034797,-0.005645,-0.000030,0.037326,0.000000,0.000732,0.000244,-0.000172,0.234080,-0.000076,0,0,0,0
21.806641,-0.018589,-0.000503,-0.034797,-0.005645,-0.000030,0.037326,0.000000,0.000732,0.000244,-0.000172,0.234080,-0.000076,0,0,0,0
21.816410,-0.018597,-0.000503,-0.034797,-0.005645,-0.000030,0.037326,0.000000,0.000732,0.000244,-0.000172,0.234080,-0.000075,0,0,0,0
21.826180,-0.018606,-0.000503,-0.034797,-0.005645,-0.000030,0.037326,0.000000,0.000732,0.000244,-0.000172,0.234080,-0.000075,0,0,0,0
21.835951,-0.018614,-0.000503,-0.034797,-0.005645,-0.000030,0.037326,0.000000,0.000732,0.000244,-0.000172,0.234080,-0.000075,0,0,0,0
21.845720,-0.018622,-0.000503,-0.034797,-0.005645,-0.000030,0.037326,0.000000,0.000732,0.000244,-0.000172,0.234080,-0.000075,0,0,0,0
21.855490,-0.018631,-0.000504,-0.034797,-0.005645,-0.000030,0.037326,0.000000,0.000732,0.000244,-0.000172,0.234080,-0.000075,0,0,0,0
21.865259,-0.018639,-0.000504,-0.034797,-0.005645,-0.000030,0.037326,0.000000,0.000732,0.000244,-0.000172,0.234080,-0.000075,0,0,0,0
21.875031,-0.018648,-0.000504,-0.034797,-0.005645,-0.000030,0.037326,0.000000,0.000732,0.000244,-0.000172,0.234080,-0.000075,0,0,0,0
21.884800,-0.018656,-0.000504,-0.034797,-0.005645,-0.000030,0.037326,0.000000,0.000732,0.000244,-0.000172,0.234080,-0.000075,0,0,0,0
21.894569,-0.018664,-0.000505,-0.034797,-0.005645,-0.000030,0.037326,0.000000,0.000732,0.000244,-0.000172,0.234080,-0.000075,0,0,0,0
21.904341,-0.018673,-0.000505,-0.034797,-0.005645,-0.000030,0.037326,0.000000,0.000732,0.000244,-0.000172,0.234080,-0.000075,0,0,0,0
21.914110,-0.018681,-0.000505,-0.034797,-0.005645,-0.000030,0.037326,0.000000,0.000732,0.000244,-0.000172,0.234080,-0.000075,0,0,0,0
21.923880,-0.018689,-0.000505,-0.034797,-0.005645,-0.000030,0.037326,0.000000,0.000732,0.000244,-0.000172,0.234080,-0.000075,0,0,0,0
21.933651,-0.018698,-0.000506,-0.034797,-0.005645,-0.000030,0.037326,0.000000,0.000732,0.000244,-0.000172,0.234080,-0.000075,0,0,0,0
21.943420,-0.018706,-0.000506,-0.034797,-0.005645,-0.000030,0.037326,0.000000,0.000732,0.000244,-0.000172,0.234080,-0.000075,0,0,0,0
21.953190,-0.018715,-0.000506,-0.034797,-0.005645,-0.000030,0.037326,0.000000,0.000732,0.000244,-0.000172,0.234080,-0.000075,0,0,0,0
21.962959,-0.018723,-0.000506,-0.034797,-0.005645,-0.000030,0.037326,0.000000,0.000732,0.000244,-0.000172,0.234080,-0.000075,0,0,0,0
21.972731,-0.018731,-0.000506,-0.034797,-0.005645,-0.000030,0.037326,0.000000,0.000732,0.000244,-0.000172,0.234080,-0.000075,0,0,0,0
21.982500,-0.018740,-0.000507,-0.034797,-0.005645,-0.000030,0.037326,0.000000,0.000732,0.000244,-0.000172,0.234080,-0.000075,0,0,0,0
21.992270,-0.018748,-0.000507,-0.034797,-0.005645,-0.000030,0.037326,0.000000,0.000732,0.000244,-0.000172,0.234080,-0.000075,0,0,0,0
22.002041,-0.018756,-0.000507,-0.034797,-0.005645,-0.000030,0.037326,0.000000,0.000732,0.000244,-0.000172,0.234080,-0.000075,0,0,0,0
22.011810,-0.018765,-0.000507,-0.034797,-0.005645,-0.000030,0.037326,0.000000,0.000732,0.000244,-0.000172,0.234080,-0.000075,0,0,0,0
22.021580,-0.018773,-0.000508,-0.034797,-0.005645,-0.000030,0.037326,0.000000,0.000732,0.000244,-0.000172,0.234080,-0.000075,0,0,0,0
22.031349,-0.018781,-0.000508,-0.034797,-0.005645,-0.000030,0.037326,0.000000,0.000732,0.000244,-0.000172,0.234080,-0.000075,0,0,0,0
22.041121,-0.018790,-0.000508,-0.034797,-0.005645,-0.000030,0.037326,0.000000,0.000732,0.000244,-0.000172,0.234080,-0.000075,0,0,0,0
22.050890,-0.018798,-0.000508,-0.034797,-0.005645,-0.000030,0.037326,0.000000,0.000732,0.000244,-0.000172,0.234080,-0.000075,0,0,0,0
22.060659,-0.018807,-0.000509,-0.034797,-0.005645,-0.000030,0.037326,0.000000,0.000732,0.000244,-0.000172,0.234080,-0.000075,0,0,0,0
22.070431,-0.018815,-0.000509,-0.034797,-0.005645,-0.000030,0.037326,0.000000,0.000732,0.000244,-0.000172,0.234080,-0.000075,0,0,0,0
22.080200,-0.018823,-0.000509,-0.034797,-0.005645,-0.000030,0.037326,0.000000,0.000732,0.000244,-0.000172,0.234080,-0.000075,0,0,0,0
22.089970,-0.018832,-0.000509,-0.034797,-0.005645,-0.000030,0.037326,0.000000,0.000732,0.000244,-0.000172,0.234080,-0.000075,0,0,0,0
22.099739,-0.018840,-0.000509,-0.034797,-0.005645,-0.000030,0.037326,0.000000,0.000732,0.000244,-0.000172,0.234080,-0.000075,0,0,0,0
22.109510,-0.018848,-0.000510,-0.034797,-0.005645,-0.000030,0.037326,0.000000,0.000732,0.000244,-0.000172,0.234080,-0.000075,0,0,0,0
22.119280,-0.018857,-0.000510,-0.034797,-0.005645,-0.000030,0.037326,0.000000,0.000732,0.000244,-0.000172,0.234080,-0.000075,0,0,0,0
22.129049,-0.018865,-0.000510,-0.034797,-0.005645,-0.000030,0.037326,0.000000,0.000732,0.000244,-0.000172,0.234080,-0.000075,0,0,0,0
22.138821,-0.018874,-0.000510,-0.034797,-0.005645,-0.000030,0.037326,0.000000,0.000732,0.000244,-0.000172,0.234080,-0.000075,0,0,0,0
22.148590,-0.018882,-0.000511,-0.034797,-0.005645,-0.000030,0.037326,0.000000,0.000732,0.000244,-0.000172,0.234080,-0.000075,0,0,0,0
22.158360,-0.018890,-0.000511,-0.034797,-0.005645,-0.000030,0.037326,0.000000,0.000732,0.000244,-0.000172,0.234080,-0.000075,0,0,0,0
22.168131,-0.018899,-0.000511,-0.034797,-0.005645,-0.000030,0.037326,0.000000,0.000732,0.000244,-0.000172,0.234080,-0.000075,0,0,0,0
22.177900,-0.018907,-0.000511,-0.034797,-0.005645,-0.000030,0.037326,0.000000,0.000732,0.000244,-0.000172,0.234080,-0.000075,0,0,0,0
22.187670,-0.018915,-0.000512,-0.034797,-0.005645,-0.000030,0.037326,0.000000,0.000732,0.000244,-0.000172,0.234080,-0.000075,0,0,0,0
22.197439,-0.018924,-0.000512,-0.034797,-0.005645,-0.000030,0.037326,0.000000,0.000732,0.000244,-0.000172,0.234080,-0.000075,0,0,0,0
22.207211,-0.018932,-0.000512,-0.034797,-0.005645,-0.000030,0.037326,0.000000,0.000732,0.000244,-0.000172,0.234080,-0.000075,0,0,0,0
22.216980,-0.018941,-0.000512,-0.034797,-0.005645,-0.000030,0.037326,0.000000,0.000732,0.000244,-0.000172,0.234080,-0.000075,0,0,0,0
22.226749,-0.018949,-0.000512,-0.034797,-0.005645,-0.000030,0.037326,0.000000,0.000732,0.000244,-0.000172,0.234080,-0.000075,0,0,0,0
22.236521,-0.018957,-0.000513,-0.034797,-0.005645,-0.000030,0.037326,0.000000,0.000732,0.000244,-0.000172,0.234080,-0.000075,0,0,0,0
22.246290,-0.018966,-0.000513,-0.034797,-0.005645,-0.000030,0.037326,0.000000,0.000732,0.000244,-0.000172,0.234080,-0.000075,0,0,0,0
22.256060,-0.018974,-0.000513,-0.034797,-0.005645,-0.000030,0.037326,0.000000,0.000732,0.000244,-0.000172,0.234080,-0.000075,0,0,0,0
22.265829,-0.018982,-0.000513,-0.034797,-0.005645,-0.000030,0.037326,0.000000,0.000732,0.000244,-0.000172,0.234080,-0.000075,0,0,0,0
22.275600,-0.018991,-0.000514,-0.034797,-0.005645,-0.000030,0.037326,0.000000,0.000732,0.000244,-0.000172,0.234080,-0.000075,0,0,0,0
22.285370,-0.018999,-0.000514,-0.034797,-0.005645,-0.000030,0.037326,0.000000,0.000732,0.000244,-0.000172,0.234080,-0.000075,0,0,0,0
22.295139,-0.019008,-0.000514,-0.034797,-0.005645,-0.000030,0.037326,0.000000,0.000732,0.000244,-0.000172,0.234080,-0.000075,0,0,0,0
22.304911,-0.019016,-0.000514,-0.034797,-0.005645,-0.000030,0.037326,0.000000,0.000732,0.000244,-0.000172,0.234080,-0.000075,0,0,0,0
22.314680,-0.019024,-0.000515,-0.034797,-0.005645,-0.000030,0.037326,0.000000,0.000732,0.000244,-0.000172,0.234080,-0.000075,0,0,0,0
22.324450,-0.019033,-0.000515,-0.034797,-0.005645,-0.000030,0.037326,0.000000,0.000732,0.000244,-0.000172,0.234080,-0.000075,0,0,0,0
22.334221,-0.019041,-0.000515,-0.034797,-0.005645,-0.000030,0.037326,0.000000,0.000732,0.000244,-0.000172,0.234080,-0.000075,0,0,0,0
22.343990,-0.019049,-0.000515,-0.034797,-0.005645,-0.000030,0.037326,0.000000,0.000732,0.000244,-0.000172,0.234080,-0.000075,0,0,0,0
22.353760,-0.019058,-0.000515,-0.034797,-0.005645,-0.000030,0.037326,0.000000,0.000732,0.000244,-0.000172,0.234080,-0.000075,0,0,0,0
22.363529,-0.019066,-0.000516,-0.034797,-0.005645,-0.000030,0.037326,0.000000,0.000732,0.000244,-0.000172,0.234080,-0.000075,0,0,0,0
22.373301,-0.019075,-0.000516,-0.034797,-0.005645,-0.000030,0.037326,0.000000,0.000732,0.000244,-0.000172,0.234080,-0.000075,0,0,0,0
22.383070,-0.019083,-0.000516,-0.034797,-0.005645,-0.000030,0.037326,0.000000,0.000732,0.000244,-0.000172,0.234080,-0.000075,0,0,0,0
22.392839,-0.019091,-0.000516,-0.034797,-0.005645,-0.000030,0.037326,0.000000,0.000732,0.000244,-0.000172,0.234080,-0.000075,0,0,0,0
22.402611,-0.019100,-0.000517,-0.034797,-0.005645,-0.000030,0.037326,0.000000,0.000732,0.000244,-0.000172,0.234080,-0.000075,0,0,0,0
22.412380,-0.019108,-0.000517,-0.034797,-0.005645,-0.000030,0.037326,0.000000,0.000732,0.000244,-0.000172,0.234080,-0.000075,0,0,0,0
22.422150,-0.019116,-0.000517,-0.034797,-0.005645,-0.000030,0.037326,0.000000,0.000732,0.000244,-0.000172,0.234080,-0.000075,0,0,0,0
22.431919,-0.019125,-0.000517,-0.034797,-0.005645,-0.000030,0.037326,0.000000,0.000732,0.000244,-0.000172,0.234080,-0.000075,0,0,0,0
22.441690,-0.019133,-0.000518,-0.034797,-0.005645,-0.000030,0.037326,0.000000,0.000732,0.000244,-0.000172,0.234080,-0.000075,0,0,0,0
22.451460,-0.019142,-0.000518,-0.034797,-0.005645,-0.000030,0.037326,0.000000,0.000732,0.000244,-0.000172,0.234080,-0.000075,0,0,0,0
22.461229,-0.019150,-0.000518,-0.034797,-0.005645,-0.000030,0.037326,0.000000,0.000732,0.000244,-0.000172,0.234080,-0.000075,0,0,0,0
22.471001,-0.019158,-0.000518,-0.034797,-0.005645,-0.000030,0.037326,0.000000,0.000732,0.000244,-0.000172,0.234080,-0.000075,0,0,0,0
22.480770,-0.019167,-0.000518,-0.034797,-0.005645,-0.000030,0.037326,0.000000,0.000732,0.000244,-0.000172,0.234080,-0.000075,0,0,0,0
22.490540,-0.019175,-0.000519,-0.034797,-0.005645,-0.000030,0.037326,0.000000,0.000732,0.000244,-0.000172,0.234080,-0.000075,0,0,0,0
22.500311,-0.019183,-0.000519,-0.034797,-0.005645,-0.000030,0.037326,0.000000,0.000732,0.000244,-0.000172,0.234080,-0.000075,0,0,0,0
22.510080,-0.019192,-0.000519,-0.034797,-0.005645,-0.000030,0.037326,0.000000,0.000732,0.000244,-0.000172,0.234080,-0.000075,0,0,0,0
22.519850,-0.019200,-0.000519,-0.034797,-0.005645,-0.000030,0.037326,0.000000,0.000732,0.000244,-0.000172,0.234080,-0.000075,0,0,0,0
22.529619,-0.019209,-0.000520,-0.034797,-0.005645,-0.000030,0.037326,0.000000,0.000732,0.000244,-0.000172,0.234080,-0.000075,0,0,0,0
22.539391,-0.019217,-0.000520,-0.034797,-0.005645,-0.000030,0.037326,0.000000,0.000732,0.000244,-0.000172,0.234080,-0.000075,0,0,0,0
22.549160,-0.019225,-0.000520,-0.034797,-0.005645,-0.000030,0.037326,0.000000,0.000732,0.000244,-0.000172,0.234080,-0.000075,0,0,0,0
22.558929,-0.019234,-0.000520,-0.034797,-0.005645,-0.000030,0.037326,0.000000,0.000732,0.000244,-0.000172,0.234080,-0.000075,0,0,0,0
22.568701,-0.019242,-0.000521,-0.034797,-0.005645,-0.000030,0.037326,0.000000,0.000732,0.000244,-0.000172,0.234080,-0.000075,0,0,0,0
22.578470,-0.019250,-0.000521,-0.034797,-0.005645,-0.000030,0.037326,0.000000,0.000732,0.000244,-0.000172,0.234080,-0.000075,0,0,0,0
22.588240,-0.019259,-0.000521,-0.034797,-0.005645,-0.000030,0.037326,0.000000,0.000732,0.000244,-0.000172,0.234080,-0.000075,0,0,0,0
22.598009,-0.019267,-0.000521,-0.034797,-0.005645,-0.000030,0.037326,0.000000,0.000732,0.000244,-0.000172,0.234080,-0.000075,0,0,0,0
22.607780,-0.019276,-0.000521,-0.034797,-0.005645,-0.000030,0.037326,0.000000,0.000732,0.000244,-0.000172,0.234080,-0.000075,0,0,0,0
22.617550,-0.019284,-0.000522,-0.034797,-0.005645,-0.000030,0.037326,0.000000,0.000732,0.000244,-0.000172,0.234080,-0.000075,0,0,0,0
22.627319,-0.019292,-0.000522,-0.034797,-0.005645,-0.000030,0.037326,0.000000,0.000732,0.000244,-0.000172,0.234080,-0.000075,0,0,0,0
22.637091,-0.019301,-0.000522,-0.034797,-0.005645,-0.000030,0.037326,0.000000,0.000732,0.000244,-0.000172,0.234080,-0.000075,0,0,0,0
22.646860,-0.019309,-0.000522,-0.034797,-0.005645,-0.000030,0.037326,0.000000,0.000732,0.000244,-0.000172,0.234080,-0.000075,0,0,0,0
22.656630,-0.019317,-0.000523,-0.034797,-0.005645,-0.000030,0.037326,0.000000,0.000732,0.000244,-0.000172,0.234080,-0.000075,0,0,0,0
22.666401,-0.019326,-0.000523,-0.034797,-0.005645,-0.000030,0.037326,0.000000,0.000732,0.000244,-0.000172,0.234080,-0.000075,0,0,0,0
22.676170,-0.019334,-0.000523,-0.034797,-0.005645,-0.000030,0.037326,0.000000,0.000732,0.000244,-0.000172,0.234080,-0.000075,0,0,0,0
22.685940,-0.019343,-0.000523,-0.034797,-0.005645,-0.000030,0.037326,0.000000,0.000732,0.000244,-0.000172,0.234080,-0.000075,0,0,0,0
22.695709,-0.019351,-0.000524,-0.034797,-0.005645,-0.000030,0.037326,0.000000,0.000732,0.000244,-0.000172,0.234080,-0.000075,0,0,0,0
22.705481,-0.019359,-0.000524,-0.034797,-0.005645,-0.000030,0.037326,0.000000,0.000732,0.000244,-0.000172,0.234080,-0.000075,0,0,0,0
22.715250,-0.019368,-0.000524,-0.034797,-0.005645,-0.000030,0.037326,0.000000,0.000732,0.000244,-0.000172,0.234080,-0.000075,0,0,0,0
22.725019,-0.019376,-0.000524,-0.034797,-0.005645,-0.000030,0.037326,0.000000,0.000732,0.000244,-0.000172,0.234080,-0.000075,0,0,0,0
22.734791,-0.019384,-0.000524,-0.034797,-0.005645,-0.000030,0.037326,0.000000,0.000732,0.000244,-0.000172,0.234080,-0.000075,0,0,0,0
22.744560,-0.019393,-0.000525,-0.034797,-0.005645,-0.000030,0.037326,0.000000,0.000732,0.000244,-0.000172,0.234080,-0.000075,0,0,0,0
22.754330,-0.019401,-0.000525,-0.034797,-0.005645,-0.000030,0.037326,0.000000,0.000732,0.000244,-0.000172,0.234080,-0.000075,0,0,0,0
22.764099,-0.019410,-0.000525,-0.034797,-0.005645,-0.000030,0.037326,0.000000,0.000732,0.000244,-0.000172,0.234080,-0.000075,0,0,0,0
22.773870,-0.019418,-0.000525,-0.034797,-0.005645,-0.000030,0.037326,0.000000,0.000732,0.000244,-0.000172,0.234080,-0.000075,0,0,0,0
22.783640,-0.019426,-0.000526,-0.034797,-0.005645,-0.000030,0.037326,0.000000,0.000732,0.000244,-0.000172,0.234080,-0.000075,0,0,0,0
22.793409,-0.019435,-0.000526,-0.034797,-0.005645,-0.000030,0.037326,0.000000,0.000732,0.000244,-0.000172,0.234080,-0.000075,0,0,0,0
22.803181,-0.019443,-0.000526,-0.034797,-0.005645,-0.000030,0.037326,0.000000,0.000732,0.000244,-0.000172,0.234080,-0.000075,0,0,0,0
22.812950,-0.019451,-0.000526,-0.034797,-0.005645,-0.000030,0.037326,0.000000,0.000732,0.000244,-0.000172,0.234080,-0.000075,0,0,0,0
22.822720,-0.019460,-0.000527,-0.034797,-0.005645,-0.000030,0.037326,0.000000,0.000732,0.000244,-0.000172,0.234080,-0.000075,0,0,0,0
22.832491,-0.019468,-0.000527,-0.034797,-0.005645,-0.000030,0.037326,0.000000,0.000732,0.000244,-0.000172,0.234080,-0.000075,0,0,0,0
22.842260,-0.019477,-0.000527,-0.034797,-0.005645,-0.000030,0.037326,0.000000,0.000732,0.000244,-0.000172,0.234080,-0.000075,0,0,0,0
22.852030,-0.019485,-0.000527,-0.034797,-0.005645,-0.000030,0.037326,0.000000,0.000732,0.000244,-0.000172,0.234080,-0.000075,0,0,0,0
22.861799,-0.019493,-0.000527,-0.034797,-0.005645,-0.000030,0.037326,0.000000,0.000732,0.000244,-0.000172,0.234080,-0.000075,0,0,0,0
22.871571,-0.019502,-0.000528,-0.034797,-0.005645,-0.000030,0.037326,0.000000,0.000732,0.000244,-0.000172,0.234080,-0.000075,0,0,0,0
22.881340,-0.019510,-0.000528,-0.034797,-0.005645,-0.000030,0.037326,0.000000,0.000732,0.000244,-0.000172,0.234080,-0.000075,0,0,0,0
22.891109,-0.019518,-0.000528,-0.034797,-0.005645,-0.000030,0.037326,0.000000,0.000732,0.000244,-0.000172,0.234080,-0.000075,0,0,0,0
22.900881,-0.019527,-0.000528,-0.034797,-0.005645,-0.000030,0.037326,0.000000,0.000732,0.000244,-0.000172,0.234080,-0.000075,0,0,0,0
22.910650,-0.019535,-0.000529,-0.034797,-0.005645,-0.000030,0.037326,0.000000,0.000732,0.000244,-0.000172,0.234080,-0.000075,0,0,0,0
22.920420,-0.019543,-0.000529,-0.034797,-0.005645,-0.000030,0.037326,0.000000,0.000732,0.000244,-0.000172,0.234080,-0.000075,0,0,0,0
22.930189,-0.019552,-0.000529,-0.034797,-0.005645,-0.000030,0.037326,0.000000,0.000732,0.000244,-0.000172,0.234080,-0.000075,0,0,0,0
22.939960,-0.019560,-0.000529,-0.034797,-0.005645,-0.000030,0.037326,0.000000,0.000732,0.000244,-0.000172,0.234080,-0.000075,0,0,0,0
22.949730,-0.019569,-0.000530,-0.034797,-0.005645,-0.000030,0.037326,0.000000,0.000732,0.000244,-0.000172,0.234080,-0.000075,0,0,0,0
22.959499,-0.019577,-0.000530,-0.034797,-0.005645,-0.000030,0.037326,0.000000,0.000732,0.000244,-0.000172,0.234080,-0.000075,0,0,0,0
22.969271,-0.019585,-0.000530,-0.034797,-0.005645,-0.000030,0.037326,0.000000,0.000732,0.000244,-0.000172,0.234080,-0.000075,0,0,0,0
22.979040,-0.019594,-0.000530,-0.034797,-0.005645,-0.000030,0.037326,0.000000,0.000732,0.000244,-0.000172,0.234080,-0.000075,0,0,0,0
22.988810,-0.019602,-0.000530,-0.034797,-0.005645,-0.000030,0.037326,0.000000,0.000732,0.000244,-0.000172,0.234080,-0.000075,0,0,0,0
22.998581,-0.019610,-0.000531,-0.034797,-0.005645,-0.000030,0.037326,0.000000,0.000732,0.000244,-0.000172,0.234080,-0.000075,0,0,0,0
23.008350,-0.019619,-0.000531,-0.034797,-0.005645,-0.000030,0.037326,0.000000,0.000732,0.000244,-0.000172,0.234080,-0.000075,0,0,0,0
23.018120,-0.019627,-0.000531,-0.034797,-0.005645,-0.000030,0.037326,0.000000,0.000732,0.000244,-0.000172,0.234080,-0.000075,0,0,0,0
23.027889,-0.019636,-0.000531,-0.034797,-0.005645,-0.000030,0.037326,0.000000,0.000732,0.000244,-0.000172,0.234080,-0.000075,0,0,0,0
23.037661,-0.019644,-0.000532,-0.034797,-0.005645,-0.000030,0.037326,0.000000,0.000732,0.000244,-0.000172,0.234080,-0.000075,0,0,0,0
23.047430,-0.019652,-0.000532,-0.034797,-0.005645,-0.000030,0.037326,0.000000,0.000732,0.000244,-0.000172,0.234080,-0.000075,0,0,0,0
23.057199,-0.019661,-0.000532,-0.034797,-0.005645,-0.000030,0.037326,0.000000,0.000732,0.000244,-0.000172,0.234080,-0.000075,0,0,0,0
23.066971,-0.019669,-0.000532,-0.034797,-0.005645,-0.000030,0.037326,0.000000,0.000732,0.000244,-0.000172,0.234080,-0.000075,0,0,0,0
23.076740,-0.019677,-0.000533,-0.034797,-0.005645,-0.000030,0.037326,0.000000,0.000732,0.000244,-0.000172,0.234080,-0.000075,0,0,0,0
23.086510,-0.019686,-0.000533,-0.034797,-0.005645,-0.000030,0.037326,0.000000,0.000732,0.000244,-0.000172,0.234080,-0.000075,0,0,0,0
23.096279,-0.019694,-0.000533,-0.034797,-0.005645,-0.000030,0.037326,0.000000,0.000732,0.000244,-0.000172,0.234080,-0.000075,0,0,0,0
23.106050,-0.019703,-0.000533,-0.034797,-0.005645,-0.000030,0.037326,0.000000,0.000732,0.000244,-0.000172,0.234080,-0.000075,0,0,0,0
23.115820,-0.019711,-0.000533,-0.034797,-0.005645,-0.000030,0.037326,0.000000,0.000732,0.000244,-0.000172,0.234080,-0.000075,0,0,0,0
23.125589,-0.019719,-0.000534,-0.034797,-0.005645,-0.000030,0.037326,0.000000,0.000732,0.000244,-0.000172,0.234080,-0.000075,0,0,0,0
23.135361,-0.019728,-0.000534,-0.034797,-0.005645,-0.000030,0.037326,0.000000,0.000732,0.000244,-0.000172,0.234080,-0.000075,0,0,0,0
23.145130,-0.019736,-0.000534,-0.034797,-0.005645,-0.000030,0.037326,0.000000,0.000732,0.000244,-0.000172,0.234080,-0.000075,0,0,0,0
23.154900,-0.019744,-0.000534,-0.034797,-0.005645,-0.000030,0.037326,0.000000,0.000732,0.000244,-0.000172,0.234080,-0.000075,0,0,0,0
23.164671,-0.019753,-0.000535,-0.034797,-0.005645,-0.000030,0.037326,0.000000,0.000732,0.000244,-0.000172,0.234080,-0.000075,0,0,0,0
23.174440,-0.019761,-0.000535,-0.034797,-0.005645,-0.000030,0.037326,0.000000,0.000732,0.000244,-0.000172,0.234080,-0.000075,0,0,0,0
23.184210,-0.019770,-0.000535,-0.034797,-0.005645,-0.000030,0.037326,0.000000,0.000732,0.000244,-0.000172,0.234080,-0.000075,0,0,0,0
23.193979,-0.019778,-0.000535,-0.034797,-0.005645,-0.000030,0.037326,0.000000,0.000732,0.000244,-0.000172,0.234080,-0.000075,0,0,0,0
23.203751,-0.019786,-0.000536,-0.034797,-0.005645,-0.000030,0.037326,0.000000,0.000732,0.000244,-0.000172,0.234080,-0.000075,0,0,0,0
23.213520,-0.019795,-0.000536,-0.034797,-0.005645,-0.000030,0.037326,0.000000,0.000732,0.000244,-0.000172,0.234080,-0.000075,0,0,0,0
23.223289,-0.019803,-0.000536,-0.034797,-0.005645,-0.000030,0.037326,0.000000,0.000732,0.000244,-0.000172,0.234080,-0.000075,0,0,0,0
23.233061,-0.019811,-0.000536,-0.034797,-0.005645,-0.000030,0.037326,0.000000,0.000732,0.000244,-0.000172,0.234080,-0.000075,0,0,0,0
23.242830,-0.019820,-0.000536,-0.034797,-0.005645,-0.000030,0.037326,0.000000,0.000732,0.000244,-0.000172,0.234080,-0.000075,0,0,0,0
23.252600,-0.019828,-0.000537,-0.034797,-0.005645,-0.000030,0.037326,0.000000,0.000732,0.000244,-0.000172,0.234080,-0.000075,0,0,0,0
23.262369,-0.019837,-0.000537,-0.034797,-0.005645,-0.000030,0.037326,0.000000,0.000732,0.000244,-0.000172,0.234080,-0.000075,0,0,0,0
23.272141,-0.019845,-0.000537,-0.034797,-0.005645,-0.000030,0.037326,0.000000,0.000732,0.000244,-0.000172,0.234080,-0.000075,0,0,0,0
23.281910,-0.019853,-0.000537,-0.034797,-0.005645,-0.000030,0.037326,0.000000,0.000732,0.000244,-0.000172,0.234080,-0.000075,0,0,0,0
23.291679,-0.019862,-0.000538,-0.034797,-0.005645,-0.000030,0.037326,0.000000,0.000732,0.000244,-0.000172,0.234080,-0.000075,0,0,0,0
23.301451,-0.019870,-0.000538,-0.034797,-0.005645,-0.000030,0.037326,0.000000,0.000732,0.000244,-0.000172,0.234080,-0.000075,0,0,0,0
23.311220,-0.019878,-0.000538,-0.034797,-0.005645,-0.000030,0.037326,0.000000,0.000732,0.000244,-0.000172,0.234080,-0.000075,0,0,0,0
23.320990,-0.019887,-0.000538,-0.034797,-0.005645,-0.000030,0.037326,0.000000,0.000732,0.000244,-0.000172,0.234080,-0.000075,0,0,0,0
23.330761,-0.019895,-0.000539,-0.034797,-0.005645,-0.000030,0.037326,0.000000,0.000732,0.000244,-0.000172,0.234080,-0.000075,0,0,0,0
23.340530,-0.019904,-0.000539,-0.034797,-0.005645,-0.000030,0.037326,0.000000,0.000732,0.000244,-0.000172,0.234080,-0.000075,0,0,0,0
23.350300,-0.019912,-0.000539,-0.034797,-0.005645,-0.000030,0.037326,0.000000,0.000732,0.000244,-0.000172,0.234080,-0.000075,0,0,0,0
23.360069,-0.019920,-0.000539,-0.034797,-0.005645,-0.000030,0.037326,0.000000,0.000732,0.000244,-0.000172,0.234080,-0.000075,0,0,0,0
23.369841,-0.019929,-0.000539,-0.034797,-0.005645,-0.000030,0.037326,0.000000,0.000732,0.000244,-0.000172,0.234080,-0.000075,0,0,0,0
23.379610,-0.019937,-0.000540,-0.034797,-0.005645,-0.000030,0.037326,0.000000,0.000732,0.000244,-0.000172,0.234080,-0.000075,0,0,0,0
23.389380,-0.019945,-0.000540,-0.034797,-0.005645,-0.000030,0.037326,0.000000,0.000732,0.000244,-0.000172,0.234080,-0.000075,0,0,0,0
23.399151,-0.019954,-0.000540,-0.034797,-0.005645,-0.000030,0.037326,0.000000,0.000732,0.000244,-0.000172,0.234080,-0.000075,0,0,0,0
23.408920,-0.019962,-0.000540,-0.034797,-0.005645,-0.000030,0.037326,0.000000,0.000732,0.000244,-0.000172,0.234080,-0.000075,0,0,0,0
23.418690,-0.019971,-0.000541,-0.034797,-0.005645,-0.000030,0.037326,0.000000,0.000732,0.000244,-0.000172,0.234080,-0.000075,0,0,0,0
23.428459,-0.019979,-0.000541,-0.034797,-0.005645,-0.000030,0.037326,0.000000,0.000732,0.000244,-0.000172,0.234080,-0.000075,0,0,0,0
23.438231,-0.019987,-0.000541,-0.034797,-0.005645,-0.000030,0.037326,0.000000,0.000732,0.000244,-0.000172,0.234080,-0.000075,0,0,0,0
23.448000,-0.019996,-0.000541,-0.034797,-0.005645,-0.000030,0.037326,0.000000,0.000732,0.000244,-0.000172,0.234080,-0.000075,0,0,0,0
23.457769,-0.020004,-0.000542,-0.034797,-0.005645,-0.000030,0.037326,0.000000,0.000732,0.000244,-0.000172,0.234080,-0.000075,0,0,0,0
23.467541,-0.020012,-0.000542,-0.034797,-0.005645,-0.000030,0.037326,0.000000,0.000732,0.000244,-0.000172,0.234080,-0.000075,0,0,0,0
23.477310,-0.020021,-0.000542,-0.034797,-0.005645,-0.000030,0.037326,0.000000,0.000732,0.000244,-0.000172,0.234080,-0.000075,0,0,0,0
23.487080,-0.020029,-0.000542,-0.034797,-0.005645,-0.000030,0.037326,0.000000,0.000732,0.000244,-0.000172,0.234080,-0.000075,0,0,0,0
23.496849,-0.020038,-0.000542,-0.034797,-0.005645,-0.000030,0.037326,0.000000,0.000732,0.000244,-0.000172,0.234080,-0.000075,0,0,0,0
23.506620,-0.020046,-0.000543,-0.034797,-0.005645,-0.000030,0.037326,0.000000,0.000732,0.000244,-0.000172,0.234080,-0.000075,0,0,0,0
23.516390,-0.020054,-0.000543,-0.034797,-0.005645,-0.000030,0.037326,0.000000,0.000732,0.000244,-0.000172,0.234080,-0.000075,0,0,0,0
23.526159,-0.020063,-0.000543,-0.034797,-0.005645,-0.000030,0.037326,0.000000,0.000732,0.000244,-0.000172,0.234080,-0.000075,0,0,0,0
23.535931,-0.020071,-0.000543,-0.034797,-0.005645,-0.000030,0.037326,0.000000,0.000732,0.000244,-0.000172,0.234080,-0.000075,0,0,0,0
23.545700,-0.020079,-0.000544,-0.034797,-0.005645,-0.000030,0.037326,0.000000,0.000732,0.000244,-0.000172,0.234080,-0.000075,0,0,0,0
23.555470,-0.020088,-0.000544,-0.034797,-0.005645,-0.000030,0.037326,0.000000,0.000732,0.000244,-0.000172,0.234080,-0.000075,0,0,0,0
23.565241,-0.020096,-0.000544,-0.034797,-0.005645,-0.000030,0.037326,0.000000,0.000732,0.000244,-0.000172,0.234080,-0.000075,0,0,0,0
23.575010,-0.020105,-0.000544,-0.034797,-0.005645,-0.000030,0.037326,0.000000,0.000732,0.000244,-0.000172,0.234080,-0.000075,0,0,0,0
23.584780,-0.020113,-0.000545,-0.034797,-0.005645,-0.000030,0.037326,0.000000,0.000732,0.000244,-0.000172,0.234080,-0.000075,0,0,0,0
23.594549,-0.020121,-0.000545,-0.034797,-0.005645,-0.000030,0.037326,0.000000,0.000732,0.000244,-0.000172,0.234080,-0.000075,0,0,0,0
23.604321,-0.020130,-0.000545,-0.034797,-0.005645,-0.000030,0.037326,0.000000,0.000732,0.000244,-0.000172,0.234080,-0.000075,0,0,0,0
23.614090,-0.020138,-0.000545,-0.034797,-0.005645,-0.000030,0.037326,0.000000,0.000732,0.000244,-0.000172,0.234080,-0.000075,0,0,0,0
23.623859,-0.020146,-0.000545,-0.034797,-0.005645,-0.000030,0.037326,0.000000,0.000732,0.000244,-0.000172,0.234080,-0.000075,0,0,0,0
23.633631,-0.020155,-0.000546,-0.034797,-0.005645,-0.000030,0.037326,0.000000,0.000732,0.000244,-0.000172,0.234080,-0.000075,0,0,0,0
23.643400,-0.020163,-0.000546,-0.034797,-0.005645,-0.000030,0.037326,0.000000,0.000732,0.000244,-0.000172,0.234080,-0.000075,0,0,0,0
23.653170,-0.020172,-0.000546,-0.034797,-0.005645,-0.000030,0.037326,0.000000,0.000732,0.000244,-0.000172,0.234080,-0.000075,0,0,0,0
23.662941,-0.020180,-0.000546,-0.034797,-0.005645,-0.000030,0.037326,0.000000,0.000732,0.000244,-0.000172,0.234080,-0.000075,0,0,0,0
23.672710,-0.020188,-0.000547,-0.034797,-0.005645,-0.000030,0.037326,0.000000,0.000732,0.000244,-0.000172,0.234080,-0.000075,0,0,0,0
23.682480,-0.020197,-0.000547,-0.034797,-0.005645,-0.000030,0.037326,0.000000,0.000732,0.000244,-0.000172,0.234080,-0.000075,0,0,0,0
23.692249,-0.020205,-0.000547,-0.034797,-0.005645,-0.000030,0.037326,0.000000,0.000732,0.000244,-0.000172,0.234080,-0.000075,0,0,0,0
23.702021,-0.020213,-0.000547,-0.034797,-0.005645,-0.000030,0.037326,0.000000,0.000732,0.000244,-0.000172,0.234080,-0.000075,0,0,0,0
23.711790,-0.020222,-0.000548,-0.034797,-0.005645,-0.000030,0.037326,0.000000,0.000732,0.000244,-0.000172,0.234080,-0.000075,0,0,0,0
23.721560,-0.020230,-0.000548,-0.034797,-0.005645,-0.000030,0.037326,0.000000,0.000732,0.000244,-0.000172,0.234080,-0.000075,0,0,0,0
23.731331,-0.020239,-0.000548,-0.034797,-0.005645,-0.000030,0.037326,0.000000,0.000732,0.000244,-0.000172,0.234080,-0.000075,0,0,0,0
23.741100,-0.020247,-0.000548,-0.034797,-0.005645,-0.000030,0.037326,0.000000,0.000732,0.000244,-0.000172,0.234080,-0.000075,0,0,0,0
23.750870,-0.020255,-0.000548,-0.034797,-0.005645,-0.000030,0.037326,0.000000,0.000732,0.000244,-0.000172,0.234080,-0.000075,0,0,0,0
23.760639,-0.020264,-0.000549,-0.034797,-0.005645,-0.000030,0.037326,0.000000,0.000732,0.000244,-0.000172,0.234080,-0.000075,0,0,0,0
23.770411,-0.020272,-0.000549,-0.034797,-0.005645,-0.000030,0.037326,0.000000,0.000732,0.000244,-0.000172,0.234080,-0.000075,0,0,0,0
23.780180,-0.020280,-0.000549,-0.034797,-0.005645,-0.000030,0.037326,0.000000,0.000732,0.000244,-0.000172,0.234080,-0.000075,0,0,0,0
23.789949,-0.020289,-0.000549,-0.034797,-0.005645,-0.000030,0.037326,0.000000,0.000732,0.000244,-0.000172,0.234080,-0.000075,0,0,0,0
23.799721,-0.020297,-0.000550,-0.034797,-0.005645,-0.000030,0.037326,0.000000,0.000732,0.000244,-0.000172,0.234080,-0.000075,0,0,0,0
23.809490,-0.020305,-0.000550,-0.034797,-0.005645,-0.000030,0.037326,0.000000,0.000732,0.000244,-0.000172,0.234080,-0.000075,0,0,0,0
23.819260,-0.020314,-0.000550,-0.034797,-0.005645,-0.000030,0.037326,0.000000,0.000732,0.000244,-0.000172,0.234080,-0.000075,0,0,0,0
23.829029,-0.020322,-0.000550,-0.034797,-0.005645,-0.000030,0.037326,0.000000,0.000732,0.000244,-0.000172,0.234080,-0.000075,0,0,0,0
23.838800,-0.020331,-0.000551,-0.034797,-0.005645,-0.000030,0.037326,0.000000,0.000732,0.000244,-0.000172,0.234080,-0.000075,0,0,0,0
23.848570,-0.020339,-0.000551,-0.034797,-0.005645,-0.000030,0.037326,0.000000,0.000732,0.000244,-0.000172,0.234080,-0.000075,0,0,0,0
23.858339,-0.020347,-0.000551,-0.034797,-0.005645,-0.000030,0.037326,0.000000,0.000732,0.000244,-0.000172,0.234080,-0.000075,0,0,0,0
23.868111,-0.020356,-0.000551,-0.034797,-0.005645,-0.000030,0.037326,0.000000,0.000732,0.000244,-0.000172,0.234080,-0.000075,0,0,0,0
23.877880,-0.020364,-0.000552,-0.034797,-0.005645,-0.000030,0.037326,0.000000,0.000732,0.000244,-0.000172,0.234080,-0.000075,0,0,0,0
23.887650,-0.020372,-0.000552,-0.034797,-0.005645,-0.000030,0.037326,0.000000,0.000732,0.000244,-0.000172,0.234080,-0.000075,0,0,0,0
23.897421,-0.020381,-0.000552,-0.034797,-0.005645,-0.000030,0.037326,0.000000,0.000732,0.000244,-0.000172,0.234080,-0.000075,0,0,0,0
23.907190,-0.020389,-0.000552,-0.034797,-0.005645,-0.000030,0.037326,0.000000,0.000732,0.000244,-0.000172,0.234080,-0.000075,0,0,0,0
23.916960,-0.020398,-0.000552,-0.034797,-0.005645,-0.000030,0.037326,0.000000,0.000732,0.000244,-0.000172,0.234080,-0.000075,0,0,0,0
23.926729,-0.020406,-0.000553,-0.034797,-0.005645,-0.000030,0.037326,0.000000,0.000732,0.000244,-0.000172,0.234080,-0.000075,0,0,0,0
23.936501,-0.020414,-0.000553,-0.034797,-0.005645,-0.000030,0.037326,0.000000,0.000732,0.000244,-0.000172,0.234080,-0.000075,0,0,0,0
23.946270,-0.020423,-0.000553,-0.034797,-0.005645,-0.000030,0.037326,0.000000,0.000732,0.000244,-0.000172,0.234080,-0.000075,0,0,0,0
23.956039,-0.020431,-0.000553,-0.034797,-0.005645,-0.000030,0.037326,0.000000,0.000732,0.000244,-0.000172,0.234080,-0.000075,0,0,0,0
23.965811,-0.020439,-0.000554,-0.034797,-0.005645,-0.000030,0.037326,0.000000,0.000732,0.000244,-0.000172,0.234080,-0.000075,0,0,0,0
23.975580,-0.020448,-0.000554,-0.034797,-0.005645,-0.000030,0.037326,0.000000,0.000732,0.000244,-0.000172,0.234080,-0.000075,0,0,0,0
23.985350,-0.020456,-0.000554,-0.034797,-0.005645,-0.000030,0.037326,0.000000,0.000732,0.000244,-0.000172,0.234080,-0.000075,0,0,0,0
23.995119,-0.020465,-0.000554,-0.034797,-0.005645,-0.000030,0.037326,0.000000,0.000732,0.000244,-0.000172,0.234080,-0.000075,0,0,0,0
24.004890,-0.020473,-0.000555,-0.034797,-0.005645,-0.000030,0.037326,0.000000,0.000732,0.000244,-0.000172,0.234080,-0.000075,0,0,0,0
24.014660,-0.020481,-0.000555,-0.034797,-0.005645,-0.000030,0.037326,0.000000,0.000732,0.000244,-0.000172,0.234080,-0.000075,0,0,0,0
24.024429,-0.020490,-0.000555,-0.034797,-0.005645,-0.000030,0.037326,0.000000,0.000732,0.000244,-0.000172,0.234080,-0.000075,0,0,0,0
24.034201,-0.020498,-0.000555,-0.034797,-0.005645,-0.000030,0.037326,0.000000,0.000732,0.000244,-0.000172,0.234080,-0.000075,0,0,0,0
24.043970,-0.020506,-0.000555,-0.034797,-0.005645,-0.000030,0.037326,0.000000,0.000732,0.000244,-0.000172,0.234080,-0.000075,0,0,0,0
24.053740,-0.020515,-0.000556,-0.034797,-0.005645,-0.000030,0.037326,0.000000,0.000732,0.000244,-0.000172,0.234080,-0.000075,0,0,0,0
24.063511,-0.020523,-0.000556,-0.034797,-0.005645,-0.000030,0.037326,0.000000,0.000732,0.000244,-0.000172,0.234080,-0.000075,0,0,0,0
24.073280,-0.020532,-0.000556,-0.034797,-0.005645,-0.000030,0.037326,0.000000,0.000732,0.000244,-0.000172,0.234080,-0.000075,0,0,0,0
24.083050,-0.020540,-0.000556,-0.034797,-0.005645,-0.000030,0.037326,0.000000,0.000732,0.000244,-0.000172,0.234080,-0.000075,0,0,0,0
24.092819,-0.020548,-0.000557,-0.034797,-0.005645,-0.000030,0.037326,0.000000,0.000732,0.000244,-0.000172,0.234080,-0.000075,0,0,0,0
24.102591,-0.020557,-0.000557,-0.034797,-0.005645,-0.000030,0.037326,0.000000,0.000732,0.000244,-0.000172,0.234080,-0.000075,0,0,0,0
24.112360,-0.020565,-0.000557,-0.034797,-0.005645,-0.000030,0.037326,0.000000,0.000732,0.000244,-0.000172,0.234080,-0.000075,0,0,0,0
24.122129,-0.020573,-0.000557,-0.034797,-0.005645,-0.000030,0.037326,0.000000,0.000732,0.000244,-0.000172,0.234080,-0.000075,0,0,0,0
24.131901,-0.020582,-0.000558,-0.034797,-0.005645,-0.000030,0.037326,0.000000,0.000732,0.000244,-0.000172,0.234080,-0.000075,0,0,0,0
24.141670,-0.020590,-0.000558,-0.034797,-0.005645,-0.000030,0.037326,0.000000,0.000732,0.000244,-0.000172,0.234080,-0.000075,0,0,0,0
24.151440,-0.020599,-0.000558,-0.034797,-0.005645,-0.000030,0.037326,0.000000,0.000732,0.000244,-0.000172,0.234080,-0.000075,0,0,0,0
24.161209,-0.020607,-0.000558,-0.034797,-0.005645,-0.000030,0.037326,0.000000,0.000732,0.000244,-0.000172,0.234080,-0.000075,0,0,0,0
24.170980,-0.020615,-0.000558,-0.034797,-0.005645,-0.000030,0.037326,0.000000,0.000732,0.000244,-0.000172,0.234080,-0.000075,0,0,0,0
