time,pos_x,pos_y,pos_z,vel_x,vel_y,vel_z,att_phi,att_theta,att_psi,rate_p,rate_q,rate_r,cmd_thrust,cmd_roll,cmd_pitch,cmd_yaw
13.707310,-0.011647,-0.000313,-0.034797,-0.005645,-0.000030,0.037326,0.000000,0.000732,0.000244,-0.000170,0.234080,-0.000077,0,0,0,0
13.717080,-0.011656,-0.000313,-0.034797,-0.005645,-0.000030,0.037326,0.000000,0.000732,0.000244,-0.000170,0.234080,-0.000077,0,0,0,0
13.726850,-0.011664,-0.000313,-0.034797,-0.005645,-0.000030,0.037326,0.000000,0.000732,0.000244,-0.000170,0.234080,-0.000077,0,0,0,0
13.736620,-0.011672,-0.000313,-0.034797,-0.005645,-0.000030,0.037326,0.000000,0.000732,0.000244,-0.000170,0.234080,-0.000077,0,0,0,0
13.746390,-0.011681,-0.000314,-0.034797,-0.005645,-0.000030,0.037326,0.000000,0.000732,0.000244,-0.000170,0.234080,-0.000077,0,0,0,0
13.756160,-0.011689,-0.000314,-0.034797,-0.005645,-0.000030,0.037326,0.000000,0.000732,0.000244,-0.000170,0.234080,-0.000077,0,0,0,0
13.765930,-0.011697,-0.000314,-0.034797,-0.005645,-0.000030,0.037326,0.000000,0.000732,0.000244,-0.000170,0.234080,-0.000077,0,0,0,0
13.775700,-0.011706,-0.000314,-0.034797,-0.005645,-0.000030,0.037326,0.000000,0.000732,0.000244,-0.000170,0.234080,-0.000077,0,0,0,0
13.785470,-0.011714,-0.000314,-0.034797,-0.005645,-0.000030,0.037326,0.000000,0.000732,0.000244,-0.000170,0.234080,-0.000077,0,0,0,0
13.795240,-0.011723,-0.000315,-0.034797,-0.005645,-0.000030,0.037326,0.000000,0.000732,0.000244,-0.000170,0.234080,-0.000077,0,0,0,0
13.805010,-0.011731,-0.000315,-0.034797,-0.005645,-0.000030,0.037326,0.000000,0.000732,0.000244,-0.000170,0.234080,-0.000077,0,0,0,0
13.814780,-0.011739,-0.000315,-0.034797,-0.005645,-0.000030,0.037326,0.000000,0.000732,0.000244,-0.000170,0.234080,-0.000077,0,0,0,0
13.824550,-0.011748,-0.000315,-0.034797,-0.005645,-0.000030,0.037326,0.000000,0.000732,0.000244,-0.000170,0.234080,-0.000077,0,0,0,0
13.834320,-0.011756,-0.000316,-0.034797,-0.005645,-0.000030,0.037326,0.000000,0.000732,0.000244,-0.000170,0.234080,-0.000077,0,0,0,0
13.844090,-0.011764,-0.000316,-0.034797,-0.005645,-0.000030,0.037326,0.000000,0.000732,0.000244,-0.000170,0.234080,-0.000077,0,0,0,0
13.853860,-0.011773,-0.000316,-0.034797,-0.005645,-0.000030,0.037326,0.000000,0.000732,0.000244,-0.000170,0.234080,-0.000077,0,0,0,0
13.863630,-0.011781,-0.000316,-0.034797,-0.005645,-0.000030,0.037326,0.000000,0.000732,0.000244,-0.000170,0.234080,-0.000077,0,0,0,0
13.873400,-0.011790,-0.000316,-0.034797,-0.005645,-0.000030,0.037326,0.000000,0.000732,0.000244,-0.000170,0.234080,-0.000077,0,0,0,0
13.883170,-0.011798,-0.000317,-0.034797,-0.005645,-0.000030,0.037326,0.000000,0.000732,0.000244,-0.000170,0.234080,-0.000077,0,0,0,0
13.892940,-0.011806,-0.000317,-0.034797,-0.005645,-0.000030,0.037326,0.000000,0.000732,0.000244,-0.000170,0.234080,-0.000077,0,0,0,0
13.902710,-0.011815,-0.000317,-0.034797,-0.005645,-0.000030,0.037326,0.000000,0.000732,0.000244,-0.000170,0.234080,-0.000077,0,0,0,0
13.912480,-0.011823,-0.000317,-0.034797,-0.005645,-0.000030,0.037326,0.000000,0.000732,0.000244,-0.000170,0.234080,-0.000077,0,0,0,0
13.922250,-0.011831,-0.000318,-0.034797,-0.005645,-0.000030,0.037326,0.000000,0.000732,0.000244,-0.000170,0.234080,-0.000077,0,0,0,0
13.932020,-0.011840,-0.000318,-0.034797,-0.005645,-0.000030,0.037326,0.000000,0.000732,0.000244,-0.000170,0.234080,-0.000077,0,0,0,0
13.941790,-0.011848,-0.000318,-0.034797,-0.005645,-0.000030,0.037326,0.000000,0.000732,0.000244,-0.000170,0.234080,-0.000077,0,0,0,0
13.951560,-0.011857,-0.000318,-0.034797,-0.005645,-0.000030,0.037326,0.000000,0.000732,0.000244,-0.000170,0.234080,-0.000077,0,0,0,0
13.961330,-0.011865,-0.000319,-0.034797,-0.005645,-0.000030,0.037326,0.000000,0.000732,0.000244,-0.000170,0.234080,-0.000077,0,0,0,0
13.971100,-0.011873,-0.000319,-0.034797,-0.005645,-0.000030,0.037326,0.000000,0.000732,0.000244,-0.000170,0.234080,-0.000077,0,0,0,0
13.980870,-0.011882,-0.000319,-0.034797,-0.005645,-0.000030,0.037326,0.000000,0.000732,0.000244,-0.000170,0.234080,-0.000077,0,0,0,0
13.990640,-0.011890,-0.000319,-0.034797,-0.005645,-0.000030,0.037326,0.000000,0.000732,0.000244,-0.000170,0.234080,-0.000077,0,0,0,0
14.000410,-0.011898,-0.000319,-0.034797,-0.005645,-0.000030,0.037326,0.000000,0.000732,0.000244,-0.000170,0.234080,-0.000077,0,0,0,0
14.010180,-0.011907,-0.000320,-0.034797,-0.005645,-0.000030,0.037326,0.000000,0.000732,0.000244,-0.000170,0.234080,-0.000077,0,0,0,0
14.019950,-0.011915,-0.000320,-0.034797,-0.005645,-0.000030,0.037326,0.000000,0.000732,0.000244,-0.000170,0.234080,-0.000077,0,0,0,0
14.029720,-0.011924,-0.000320,-0.034797,-0.005645,-0.000030,0.037326,0.000000,0.000732,0.000244,-0.000170,0.234080,-0.000077,0,0,0,0
14.039490,-0.011932,-0.000320,-0.034797,-0.005645,-0.000030,0.037326,0.000000,0.000732,0.000244,-0.000170,0.234080,-0.000077,0,0,0,0
14.049260,-0.011940,-0.000321,-0.034797,-0.005645,-0.000030,0.037326,0.000000,0.000732,0.000244,-0.000170,0.234080,-0.000077,0,0,0,0
14.059030,-0.011949,-0.000321,-0.034797,-0.005645,-0.000030,0.037326,0.000000,0.000732,0.000244,-0.000170,0.234080,-0.000077,0,0,0,0
14.068800,-0.011957,-0.000321,-0.034797,-0.005645,-0.000030,0.037326,0.000000,0.000732,0.000244,-0.000170,0.234080,-0.000077,0,0,0,0
14.078570,-0.011965,-0.000321,-0.034797,-0.005645,-0.000030,0.037326,0.000000,0.000732,0.000244,-0.000170,0.234080,-0.000077,0,0,0,0
14.088340,-0.011974,-0.000321,-0.034797,-0.005645,-0.000030,0.037326,0.000000,0.000732,0.000244,-0.000170,0.234080,-0.000077,0,0,0,0
14.098110,-0.011982,-0.000322,-0.034797,-0.005645,-0.000030,0.037326,0.000000,0.000732,0.000244,-0.000170,0.234080,-0.000077,0,0,0,0
14.107880,-0.011991,-0.000322,-0.034797,-0.005645,-0.000030,0.037326,0.000000,0.000732,0.000244,-0.000170,0.234080,-0.000077,0,0,0,0
14.117650,-0.011999,-0.000322,-0.034797,-0.005645,-0.000030,0.037326,0.000000,0.000732,0.000244,-0.000170,0.234080,-0.000077,0,0,0,0
14.127420,-0.012007,-0.000322,-0.034797,-0.005645,-0.000030,0.037326,0.000000,0.000732,0.000244,-0.000170,0.234080,-0.000077,0,0,0,0
14.137190,-0.012016,-0.000323,-0.034797,-0.005645,-0.000030,0.037326,0.000000,0.000732,0.000244,-0.000170,0.234080,-0.000077,0,0,0,0
14.146960,-0.012024,-0.000323,-0.034797,-0.005645,-0.000030,0.037326,0.000000,0.000732,0.000244,-0.000170,0.234080,-0.000077,0,0,0,0
14.156730,-0.012032,-0.000323,-0.034797,-0.005645,-0.000030,0.037326,0.000000,0.000732,0.000244,-0.000170,0.234080,-0.000077,0,0,0,0
14.166500,-0.012041,-0.000323,-0.034797,-0.005645,-0.000030,0.037326,0.000000,0.000732,0.000244,-0.000170,0.234080,-0.000077,0,0,0,0
14.176270,-0.012049,-0.000324,-0.034797,-0.005645,-0.000030,0.037326,0.000000,0.000732,0.000244,-0.000170,0.234080,-0.000077,0,0,0,0
14.186040,-0.012058,-0.000324,-0.034797,-0.005645,-0.000030,0.037326,0.000000,0.000732,0.000244,-0.000170,0.234080,-0.000077,0,0,0,0
14.195810,-0.012066,-0.000324,-0.034797,-0.005645,-0.000030,0.037326,0.000000,0.000732,0.000244,-0.000170,0.234080,-0.000077,0,0,0,0
14.205580,-0.012074,-0.000324,-0.034797,-0.005645,-0.000030,0.037326,0.000000,0.000732,0.000244,-0.000170,0.234080,-0.000077,0,0,0,0
14.215350,-0.012083,-0.000324,-0.034797,-0.005645,-0.000030,0.037326,0.000000,0.000732,0.000244,-0.000170,0.234080,-0.000077,0,0,0,0
14.225120,-0.012091,-0.000325,-0.034797,-0.005645,-0.000030,0.037326,0.000000,0.000732,0.000244,-0.000170,0.234080,-0.000077,0,0,0,0
14.234890,-0.012099,-0.000325,-0.034797,-0.005645,-0.000030,0.037326,0.000000,0.000732,0.000244,-0.000170,0.234080,-0.000077,0,0,0,0
14.244660,-0.012108,-0.000325,-0.034797,-0.005645,-0.000030,0.037326,0.000000,0.000732,0.000244,-0.000170,0.234080,-0.000077,0,0,0,0
14.254430,-0.012116,-0.000325,-0.034797,-0.005645,-0.000030,0.037326,0.000000,0.000732,0.000244,-0.000170,0.234080,-0.000077,0,0,0,0
14.264200,-0.012124,-0.000326,-0.034797,-0.005645,-0.000030,0.037326,0.000000,0.000732,0.000244,-0.000170,0.234080,-0.000077,0,0,0,0
14.273970,-0.012133,-0.000326,-0.034797,-0.005645,-0.000030,0.037326,0.000000,0.000732,0.000244,-0.000170,0.234080,-0.000077,0,0,0,0
14.283740,-0.012141,-0.000326,-0.034797,-0.005645,-0.000030,0.037326,0.000000,0.000732,0.000244,-0.000170,0.234080,-0.000077,0,0,0,0
14.293510,-0.012150,-0.000326,-0.034797,-0.005645,-0.000030,0.037326,0.000000,0.000732,0.000244,-0.000170,0.234080,-0.000077,0,0,0,0
14.303280,-0.012158,-0.000327,-0.034797,-0.005645,-0.000030,0.037326,0.000000,0.000732,0.000244,-0.000170,0.234080,-0.000077,0,0,0,0
14.313050,-0.012166,-0.000327,-0.034797,-0.005645,-0.000030,0.037326,0.000000,0.000732,0.000244,-0.000170,0.234080,-0.000077,0,0,0,0
14.322820,-0.012175,-0.000327,-0.034797,-0.005645,-0.000030,0.037326,0.000000,0.000732,0.000244,-0.000170,0.234080,-0.000077,0,0,0,0
14.332590,-0.012183,-0.000327,-0.034797,-0.005645,-0.000030,0.037326,0.000000,0.000732,0.000244,-0.000170,0.234080,-0.000077,0,0,0,0
14.342360,-0.012191,-0.000327,-0.034797,-0.005645,-0.000030,0.037326,0.000000,0.000732,0.000244,-0.000170,0.234080,-0.000077,0,0,0,0
14.352130,-0.012200,-0.000328,-0.034797,-0.005645,-0.000030,0.037326,0.000000,0.000732,0.000244,-0.000170,0.234080,-0.000077,0,0,0,0
14.361900,-0.012208,-0.000328,-0.034797,-0.005645,-0.000030,0.037326,0.000000,0.000732,0.000244,-0.000170,0.234080,-0.000077,0,0,0,0
14.371670,-0.012217,-0.000328,-0.034797,-0.005645,-0.000030,0.037326,0.000000,0.000732,0.000244,-0.000170,0.234080,-0.000077,0,0,0,0
14.381440,-0.012225,-0.000328,-0.034797,-0.005645,-0.000030,0.037326,0.000000,0.000732,0.000244,-0.000170,0.234080,-0.000077,0,0,0,0
14.391210,-0.012233,-0.000329,-0.034797,-0.005645,-0.000030,0.037326,0.000000,0.000732,0.000244,-0.000170,0.234080,-0.000077,0,0,0,0
14.400980,-0.012242,-0.000329,-0.034797,-0.005645,-0.000030,0.037326,0.000000,0.000732,0.000244,-0.000170,0.234080,-0.000077,0,0,0,0
14.410750,-0.012250,-0.000329,-0.034797,-0.005645,-0.000030,0.037326,0.000000,0.000732,0.000244,-0.000170,0.234080,-0.000077,0,0,0,0
14.420520,-0.012258,-0.000329,-0.034797,-0.005645,-0.000030,0.037326,0.000000,0.000732,0.000244,-0.000170,0.234080,-0.000077,0,0,0,0
14.430290,-0.012267,-0.000329,-0.034797,-0.005645,-0.000030,0.037326,0.000000,0.000732,0.000244,-0.000170,0.234080,-0.000077,0,0,0,0
14.440060,-0.012275,-0.000330,-0.034797,-0.005645,-0.000030,0.037326,0.000000,0.000732,0.000244,-0.000170,0.234080,-0.000077,0,0,0,0
14.449830,-0.012284,-0.000330,-0.034797,-0.005645,-0.000030,0.037326,0.000000,0.000732,0.000244,-0.000170,0.234080,-0.000077,0,0,0,0
14.459600,-0.012292,-0.000330,-0.034797,-0.005645,-0.000030,0.037326,0.000000,0.000732,0.000244,-0.000170,0.234080,-0.000077,0,0,0,0
14.469370,-0.012300,-0.000330,-0.034797,-0.005645,-0.000030,0.037326,0.000000,0.000732,0.000244,-0.000170,0.234080,-0.000077,0,0,0,0
14.479140,-0.012309,-0.000331,-0.034797,-0.005645,-0.000030,0.037326,0.000000,0.000732,0.000244,-0.000170,0.234080,-0.000077,0,0,0,0
14.488910,-0.012317,-0.000331,-0.034797,-0.005645,-0.000030,0.037326,0.000000,0.000732,0.000244,-0.000170,0.234080,-0.000077,0,0,0,0
14.498680,-0.012325,-0.000331,-0.034797,-0.005645,-0.000030,0.037326,0.000000,0.000732,0.000244,-0.000170,0.234080,-0.000077,0,0,0,0
14.508450,-0.012334,-0.000331,-0.034797,-0.005645,-0.000030,0.037326,0.000000,0.000732,0.000244,-0.000170,0.234080,-0.000077,0,0,0,0
14.518220,-0.012342,-0.000332,-0.034797,-0.005645,-0.000030,0.037326,0.000000,0.000732,0.000244,-0.000170,0.234080,-0.000077,0,0,0,0
14.527990,-0.012351,-0.000332,-0.034797,-0.005645,-0.000030,0.037326,0.000000,0.000732,0.000244,-0.000170,0.234080,-0.000077,0,0,0,0
14.537760,-0.012359,-0.000332,-0.034797,-0.005645,-0.000030,0.037326,0.000000,0.000732,0.000244,-0.000170,0.234080,-0.000077,0,0,0,0
14.547530,-0.012367,-0.000332,-0.034797,-0.005645,-0.000030,0.037326,0.000000,0.000732,0.000244,-0.000170,0.234080,-0.000077,0,0,0,0
14.557300,-0.012376,-0.000332,-0.034797,-0.005645,-0.000030,0.037326,0.000000,0.000732,0.000244,-0.000170,0.234080,-0.000077,0,0,0,0
14.567070,-0.012384,-0.000333,-0.034797,-0.005645,-0.000030,0.037326,0.000000,0.000732,0.000244,-0.000170,0.234080,-0.000077,0,0,0,0
14.576840,-0.012392,-0.000333,-0.034797,-0.005645,-0.000030,0.037326,0.000000,0.000732,0.000244,-0.000170,0.234080,-0.000077,0,0,0,0
14.586610,-0.012401,-0.000333,-0.034797,-0.005645,-0.000030,0.037326,0.000000,0.000732,0.000244,-0.000170,0.234080,-0.000077,0,0,0,0
14.596380,-0.012409,-0.000333,-0.034797,-0.005645,-0.000030,0.037326,0.000000,0.000732,0.000244,-0.000170,0.234080,-0.000077,0,0,0,0
14.606150,-0.012418,-0.000334,-0.034797,-0.005645,-0.000030,0.037326,0.000000,0.000732,0.000244,-0.000170,0.234080,-0.000077,0,0,0,0
14.615920,-0.012426,-0.000334,-0.034797,-0.005645,-0.000030,0.037326,0.000000,0.000732,0.000244,-0.000170,0.234080,-0.000077,0,0,0,0
14.625690,-0.012434,-0.000334,-0.034797,-0.005645,-0.000030,0.037326,0.000000,0.000732,0.000244,-0.000170,0.234080,-0.000077,0,0,0,0
14.635460,-0.012443,-0.000334,-0.034797,-0.005645,-0.000030,0.037326,0.000000,0.000732,0.000244,-0.000170,0.234080,-0.000077,0,0,0,0
14.645230,-0.012451,-0.000334,-0.034797,-0.005645,-0.000030,0.037326,0.000000,0.000732,0.000244,-0.000170,0.234080,-0.000077,0,0,0,0
14.655000,-0.012459,-0.000335,-0.034797,-0.005645,-0.000030,0.037326,0.000000,0.000732,0.000244,-0.000170,0.234080,-0.000077,0,0,0,0
14.664770,-0.012468,-0.000335,-0.034797,-0.005645,-0.000030,0.037326,0.000000,0.000732,0.000244,-0.000170,0.234080,-0.000077,0,0,0,0
14.674540,-0.012476,-0.000335,-0.034797,-0.005645,-0.000030,0.037326,0.000000,0.000732,0.000244,-0.000170,0.234080,-0.000077,0,0,0,0
14.684310,-0.012485,-0.000335,-0.034797,-0.005645,-0.000030,0.037326,0.000000,0.000732,0.000244,-0.000170,0.234080,-0.000077,0,0,0,0
14.694080,-0.012493,-0.000336,-0.034797,-0.005645,-0.000030,0.037326,0.000000,0.000732,0.000244,-0.000170,0.234080,-0.000077,0,0,0,0
14.703850,-0.012501,-0.000336,-0.034797,-0.005645,-0.000030,0.037326,0.000000,0.000732,0.000244,-0.000170,0.234080,-0.000077,0,0,0,0
14.713620,-0.012510,-0.000336,-0.034797,-0.005645,-0.000030,0.037326,0.000000,0.000732,0.000244,-0.000170,0.234080,-0.000077,0,0,0,0
14.723390,-0.012518,-0.000336,-0.034797,-0.005645,-0.000030,0.037326,0.000000,0.000732,0.000244,-0.000170,0.234080,-0.000077,0,0,0,0
14.733160,-0.012526,-0.000337,-0.034797,-0.005645,-0.000030,0.037326,0.000000,0.000732,0.000244,-0.000170,0.234080,-0.000077,0,0,0,0
14.742930,-0.012535,-0.000337,-0.034797,-0.005645,-0.000030,0.037326,0.000000,0.000732,0.000244,-0.000170,0.234080,-0.000077,0,0,0,0
14.752700,-0.012543,-0.000337,-0.034797,-0.005645,-0.000030,0.037326,0.000000,0.000732,0.000244,-0.000170,0.234080,-0.000077,0,0,0,0
14.762470,-0.012552,-0.000337,-0.034797,-0.005645,-0.000030,0.037326,0.000000,0.000732,0.000244,-0.000170,0.234080,-0.000077,0,0,0,0
14.772240,-0.012560,-0.000337,-0.034797,-0.005645,-0.000030,0.037326,0.000000,0.000732,0.000244,-0.000170,0.234080,-0.000077,0,0,0,0
14.782010,-0.012568,-0.000338,-0.034797,-0.005645,-0.000030,0.037326,0.000000,0.000732,0.000244,-0.000170,0.234080,-0.000077,0,0,0,0
14.791780,-0.012577,-0.000338,-0.034797,-0.005645,-0.000030,0.037326,0.000000,0.000732,0.000244,-0.000170,0.234080,-0.000077,0,0,0,0
14.801550,-0.012585,-0.000338,-0.034797,-0.005645,-0.000030,0.037326,0.000000,0.000732,0.000244,-0.000170,0.234080,-0.000077,0,0,0,0
14.811320,-0.012593,-0.000338,-0.034797,-0.005645,-0.000030,0.037326,0.000000,0.000732,0.000244,-0.000170,0.234080,-0.000077,0,0,0,0
14.821090,-0.012602,-0.000339,-0.034797,-0.005645,-0.000030,0.037326,0.000000,0.000732,0.000244,-0.000170,0.234080,-0.000077,0,0,0,0
14.830860,-0.012610,-0.000339,-0.034797,-0.005645,-0.000030,0.037326,0.000000,0.000732,0.000244,-0.000170,0.234080,-0.000077,0,0,0,0
14.840630,-0.012619,-0.000339,-0.034797,-0.005645,-0.000030,0.037326,0.000000,0.000732,0.000244,-0.000170,0.234080,-0.000077,0,0,0,0
14.850400,-0.012627,-0.000339,-0.034797,-0.005645,-0.000030,0.037326,0.000000,0.000732,0.000244,-0.000170,0.234080,-0.000077,0,0,0,0
14.860170,-0.012635,-0.000339,-0.034797,-0.005645,-0.000030,0.037326,0.000000,0.000732,0.000244,-0.000170,0.234080,-0.000077,0,0,0,0
14.869940,-0.012644,-0.000340,-0.034797,-0.005645,-0.000030,0.037326,0.000000,0.000732,0.000244,-0.000170,0.234080,-0.000077,0,0,0,0
14.879710,-0.012652,-0.000340,-0.034797,-0.005645,-0.000030,0.037326,0.000000,0.000732,0.000244,-0.000170,0.234080,-0.000077,0,0,0,0
14.889480,-0.012660,-0.000340,-0.034797,-0.005645,-0.000030,0.037326,0.000000,0.000732,0.000244,-0.000170,0.234080,-0.000077,0,0,0,0
14.899250,-0.012669,-0.000340,-0.034797,-0.005645,-0.000030,0.037326,0.000000,0.000732,0.000244,-0.000170,0.234080,-0.000077,0,0,0,0
14.909020,-0.012677,-0.000341,-0.034797,-0.005645,-0.000030,0.037326,0.000000,0.000732,0.000244,-0.000170,0.234080,-0.000077,0,0,0,0
14.918790,-0.012686,-0.000341,-0.034797,-0.005645,-0.000030,0.037326,0.000000,0.000732,0.000244,-0.000170,0.234080,-0.000077,0,0,0,0
14.928560,-0.012694,-0.000341,-0.034797,-0.005645,-0.000030,0.037326,0.000000,0.000732,0.000244,-0.000170,0.234080,-0.000077,0,0,0,0
14.938330,-0.012702,-0.000341,-0.034797,-0.005645,-0.000030,0.037326,0.000000,0.000732,0.000244,-0.000170,0.234080,-0.000077,0,0,0,0
14.948100,-0.012711,-0.000342,-0.034797,-0.005645,-0.000030,0.037326,0.000000,0.000732,0.000244,-0.000170,0.234080,-0.000077,0,0,0,0
14.957870,-0.012719,-0.000342,-0.034797,-0.005645,-0.000030,0.037326,0.000000,0.000732,0.000244,-0.000170,0.234080,-0.000077,0,0,0,0
14.967640,-0.012727,-0.000342,-0.034797,-0.005645,-0.000030,0.037326,0.000000,0.000732,0.000244,-0.000170,0.234080,-0.000077,0,0,0,0
14.977410,-0.012736,-0.000342,-0.034797,-0.005645,-0.000030,0.037326,0.000000,0.000732,0.000244,-0.000170,0.234080,-0.000077,0,0,0,0
14.987180,-0.012744,-0.000342,-0.034797,-0.005645,-0.000030,0.037326,0.000000,0.000732,0.000244,-0.000170,0.234080,-0.000077,0,0,0,0
14.996950,-0.012753,-0.000343,-0.034797,-0.005645,-0.000030,0.037326,0.000000,0.000732,0.000244,-0.000170,0.234080,-0.000077,0,0,0,0
15.006720,-0.012761,-0.000343,-0.034797,-0.005645,-0.000030,0.037326,0.000000,0.000732,0.000244,-0.000170,0.234080,-0.000077,0,0,0,0
15.016490,-0.012769,-0.000343,-0.034797,-0.005645,-0.000030,0.037326,0.000000,0.000732,0.000244,-0.000170,0.234080,-0.000077,0,0,0,0
15.026260,-0.012778,-0.000343,-0.034797,-0.005645,-0.000030,0.037326,0.000000,0.000732,0.000244,-0.000170,0.234080,-0.000077,0,0,0,0
15.036030,-0.012786,-0.000344,-0.034797,-0.005645,-0.000030,0.037326,0.000000,0.000732,0.000244,-0.000170,0.234080,-0.000077,0,0,0,0
15.045800,-0.012794,-0.000344,-0.034797,-0.005645,-0.000030,0.037326,0.000000,0.000732,0.000244,-0.000170,0.234080,-0.000077,0,0,0,0
15.055570,-0.012803,-0.000344,-0.034797,-0.005645,-0.000030,0.037326,0.000000,0.000732,0.000244,-0.000170,0.234080,-0.000077,0,0,0,0
15.065340,-0.012811,-0.000344,-0.034797,-0.005645,-0.000030,0.037326,0.000000,0.000732,0.000244,-0.000170,0.234080,-0.000077,0,0,0,0
15.075110,-0.012819,-0.000345,-0.034797,-0.005645,-0.000030,0.037326,0.000000,0.000732,0.000244,-0.000170,0.234080,-0.000077,0,0,0,0
15.084880,-0.012828,-0.000345,-0.034797,-0.005645,-0.000030,0.037326,0.000000,0.000732,0.000244,-0.000170,0.234080,-0.000077,0,0,0,0
15.094650,-0.012836,-0.000345,-0.034797,-0.005645,-0.000030,0.037326,0.000000,0.000732,0.000244,-0.000170,0.234080,-0.000077,0,0,0,0
15.104420,-0.012845,-0.000345,-0.034797,-0.005645,-0.000030,0.037326,0.000000,0.000732,0.000244,-0.000170,0.234080,-0.000077,0,0,0,0
15.114190,-0.012853,-0.000345,-0.034797,-0.005645,-0.000030,0.037326,0.000000,0.000732,0.000244,-0.000170,0.234080,-0.000077,0,0,0,0
15.123960,-0.012861,-0.000346,-0.034797,-0.005645,-0.000030,0.037326,0.000000,0.000732,0.000244,-0.000170,0.234080,-0.000077,0,0,0,0
15.133730,-0.012870,-0.000346,-0.034797,-0.005645,-0.000030,0.037326,0.000000,0.000732,0.000244,-0.000170,0.234080,-0.000077,0,0,0,0
15.143500,-0.012878,-0.000346,-0.034797,-0.005645,-0.000030,0.037326,0.000000,0.000732,0.000244,-0.000170,0.234080,-0.000077,0,0,0,0
15.153270,-0.012886,-0.000346,-0.034797,-0.005645,-0.000030,0.037326,0.000000,0.000732,0.000244,-0.000170,0.234080,-0.000077,0,0,0,0
15.163040,-0.012895,-0.000347,-0.034797,-0.005645,-0.000030,0.037326,0.000000,0.000732,0.000244,-0.000170,0.234080,-0.000077,0,0,0,0
15.172810,-0.012903,-0.000347,-0.034797,-0.005645,-0.000030,0.037326,0.000000,0.000732,0.000244,-0.000170,0.234080,-0.000077,0,0,0,0
15.182580,-0.012912,-0.000347,-0.034797,-0.005645,-0.000030,0.037326,0.000000,0.000732,0.000244,-0.000170,0.234080,-0.000077,0,0,0,0
15.192350,-0.012920,-0.000347,-0.034797,-0.005645,-0.000030,0.037326,0.000000,0.000732,0.000244,-0.000170,0.234080,-0.000077,0,0,0,0
15.202120,-0.012928,-0.000347,-0.034797,-0.005645,-0.000030,0.037326,0.000000,0.000732,0.000244,-0.000170,0.234080,-0.000077,0,0,0,0
15.211890,-0.012937,-0.000348,-0.034797,-0.005645,-0.000030,0.037326,0.000000,0.000732,0.000244,-0.000170,0.234080,-0.000077,0,0,0,0
15.221660,-0.012945,-0.000348,-0.034797,-0.005645,-0.000030,0.037326,0.000000,0.000732,0.000244,-0.000170,0.234080,-0.000077,0,0,0,0
15.231430,-0.012953,-0.000348,-0.034797,-0.005645,-0.000030,0.037326,0.000000,0.000732,0.000244,-0.000170,0.234080,-0.000077,0,0,0,0
15.241200,-0.012962,-0.000348,-0.034797,-0.005645,-0.000030,0.037326,0.000000,0.000732,0.000244,-0.000170,0.234080,-0.000077,0,0,0,0
15.250970,-0.012970,-0.000349,-0.034797,-0.005645,-0.000030,0.037326,0.000000,0.000732,0.000244,-0.000170,0.234080,-0.000077,0,0,0,0
15.260740,-0.012979,-0.000349,-0.034797,-0.005645,-0.000030,0.037326,0.000000,0.000732,0.000244,-0.000170,0.234080,-0.000077,0,0,0,0
15.270510,-0.012987,-0.000349,-0.034797,-0.005645,-0.000030,0.037326,0.000000,0.000732,0.000244,-0.000170,0.234080,-0.000077,0,0,0,0
15.280280,-0.012995,-0.000349,-0.034797,-0.005645,-0.000030,0.037326,0.000000,0.000732,0.000244,-0.000170,0.234080,-0.000077,0,0,0,0
15.290050,-0.013004,-0.000350,-0.034797,-0.005645,-0.000030,0.037326,0.000000,0.000732,0.000244,-0.000170,0.234080,-0.000077,0,0,0,0
15.299820,-0.013012,-0.000350,-0.034797,-0.005645,-0.000030,0.037326,0.000000,0.000732,0.000244,-0.000170,0.234080,-0.000077,0,0,0,0
15.309590,-0.013020,-0.000350,-0.034797,-0.005645,-0.000030,0.037326,0.000000,0.000732,0.000244,-0.000170,0.234080,-0.000077,0,0,0,0
15.319360,-0.013029,-0.000350,-0.034797,-0.005645,-0.000030,0.037326,0.000000,0.000732,0.000244,-0.000170,0.234080,-0.000077,0,0,0,0
15.329130,-0.013037,-0.000350,-0.034797,-0.005645,-0.000030,0.037326,0.000000,0.000732,0.000244,-0.000170,0.234080,-0.000077,0,0,0,0
15.338900,-0.013046,-0.000351,-0.034797,-0.005645,-0.000030,0.037326,0.000000,0.000732,0.000244,-0.000170,0.234080,-0.000077,0,0,0,0
15.348670,-0.013054,-0.000351,-0.034797,-0.005645,-0.000030,0.037326,0.000000,0.000732,0.000244,-0.000170,0.234080,-0.000077,0,0,0,0
15.358440,-0.013062,-0.000351,-0.034797,-0.005645,-0.000030,0.037326,0.000000,0.000732,0.000244,-0.000170,0.234080,-0.000077,0,0,0,0
15.368210,-0.013071,-0.000351,-0.034797,-0.005645,-0.000030,0.037326,0.000000,0.000732,0.000244,-0.000170,0.234080,-0.000077,0,0,0,0
15.377980,-0.013079,-0.000352,-0.034797,-0.005645,-0.000030,0.037326,0.000000,0.000732,0.000244,-0.000170,0.234080,-0.000077,0,0,0,0
15.387750,-0.013087,-0.000352,-0.034797,-0.005645,-0.000030,0.037326,0.000000,0.000732,0.000244,-0.000170,0.234080,-0.000077,0,0,0,0
15.397520,-0.013096,-0.000352,-0.034797,-0.005645,-0.000030,0.037326,0.000000,0.000732,0.000244,-0.000170,0.234080,-0.000077,0,0,0,0
15.407290,-0.013104,-0.000352,-0.034797,-0.005645,-0.000030,0.037326,0.000000,0.000732,0.000244,-0.000170,0.234080,-0.000077,0,0,0,0
15.417060,-0.013113,-0.000353,-0.034797,-0.005645,-0.000030,0.037326,0.000000,0.000732,0.000244,-0.000170,0.234080,-0.000077,0,0,0,0
15.426830,-0.013121,-0.000353,-0.034797,-0.005645,-0.000030,0.037326,0.000000,0.000732,0.000244,-0.000170,0.234080,-0.000077,0,0,0,0
15.436600,-0.013129,-0.000353,-0.034797,-0.005645,-0.000030,0.037326,0.000000,0.000732,0.000244,-0.000170,0.234080,-0.000077,0,0,0,0
15.446370,-0.013138,-0.000353,-0.034797,-0.005645,-0.000030,0.037326,0.000000,0.000732,0.000244,-0.000170,0.234080,-0.000077,0,0,0,0
15.456140,-0.013146,-0.000353,-0.034797,-0.005645,-0.000030,0.037326,0.000000,0.000732,0.000244,-0.000170,0.234080,-0.000077,0,0,0,0
15.465910,-0.013154,-0.000354,-0.034797,-0.005645,-0.000030,0.037326,0.000000,0.000732,0.000244,-0.000170,0.234080,-0.000077,0,0,0,0
15.475680,-0.013163,-0.000354,-0.034797,-0.005645,-0.000030,0.037326,0.000000,0.000732,0.000244,-0.000170,0.234080,-0.000077,0,0,0,0
15.485450,-0.013171,-0.000354,-0.034797,-0.005645,-0.000030,0.037326,0.000000,0.000732,0.000244,-0.000170,0.234080,-0.000077,0,0,0,0
15.495220,-0.013180,-0.000354,-0.034797,-0.005645,-0.000030,0.037326,0.000000,0.000732,0.000244,-0.000170,0.234080,-0.000077,0,0,0,0
15.504990,-0.013188,-0.000355,-0.034797,-0.005645,-0.000030,0.037326,0.000000,0.000732,0.000244,-0.000170,0.234080,-0.000076,0,0,0,0
15.514760,-0.013196,-0.000355,-0.034797,-0.005645,-0.000030,0.037326,0.000000,0.000732,0.000244,-0.000170,0.234080,-0.000076,0,0,0,0
15.524530,-0.013205,-0.000355,-0.034797,-0.005645,-0.000030,0.037326,0.000000,0.000732,0.000244,-0.000170,0.234080,-0.000076,0,0,0,0
15.534300,-0.013213,-0.000355,-0.034797,-0.005645,-0.000030,0.037326,0.000000,0.000732,0.000244,-0.000170,0.234080,-0.000076,0,0,0,0
15.544070,-0.013221,-0.000355,-0.034797,-0.005645,-0.000030,0.037326,0.000000,0.000732,0.000244,-0.000170,0.234080,-0.000076,0,0,0,0
15.553840,-0.013230,-0.000356,-0.034797,-0.005645,-0.000030,0.037326,0.000000,0.000732,0.000244,-0.000170,0.234080,-0.000076,0,0,0,0
15.563610,-0.013238,-0.000356,-0.034797,-0.005645,-0.000030,0.037326,0.000000,0.000732,0.000244,-0.000170,0.234080,-0.000076,0,0,0,0
15.573380,-0.013247,-0.000356,-0.034797,-0.005645,-0.000030,0.037326,0.000000,0.000732,0.000244,-0.000170,0.234080,-0.000076,0,0,0,0
15.583150,-0.013255,-0.000356,-0.034797,-0.005645,-0.000030,0.037326,0.000000,0.000732,0.000244,-0.000170,0.234080,-0.000076,0,0,0,0
15.592920,-0.013263,-0.000357,-0.034797,-0.005645,-0.000030,0.037326,0.000000,0.000732,0.000244,-0.000170,0.234080,-0.000076,0,0,0,0
15.602690,-0.013272,-0.000357,-0.034797,-0.005645,-0.000030,0.037326,0.000000,0.000732,0.000244,-0.000170,0.234080,-0.000076,0,0,0,0
15.612460,-0.013280,-0.000357,-0.034797,-0.005645,-0.000030,0.037326,0.000000,0.000732,0.000244,-0.000170,0.234080,-0.000076,0,0,0,0
15.622230,-0.013288,-0.000357,-0.034797,-0.005645,-0.000030,0.037326,0.000000,0.000732,0.000244,-0.000170,0.234080,-0.000076,0,0,0,0
15.632000,-0.013297,-0.000358,-0.034797,-0.005645,-0.000030,0.037326,0.000000,0.000732,0.000244,-0.000170,0.234080,-0.000076,0,0,0,0
15.641770,-0.013305,-0.000358,-0.034797,-0.005645,-0.000030,0.037326,0.000000,0.000732,0.000244,-0.000170,0.234080,-0.000076,0,0,0,0
15.651540,-0.013314,-0.000358,-0.034797,-0.005645,-0.000030,0.037326,0.000000,0.000732,0.000244,-0.000170,0.234080,-0.000076,0,0,0,0
15.661310,-0.013322,-0.000358,-0.034797,-0.005645,-0.000030,0.037326,0.000000,0.000732,0.000244,-0.000170,0.234080,-0.000076,0,0,0,0
15.671080,-0.013330,-0.000358,-0.034797,-0.005645,-0.000030,0.037326,0.000000,0.000732,0.000244,-0.000170,0.234080,-0.000076,0,0,0,0
15.680850,-0.013339,-0.000359,-0.034797,-0.005645,-0.000030,0.037326,0.000000,0.000732,0.000244,-0.000170,0.234080,-0.000076,0,0,0,0
15.690620,-0.013347,-0.000359,-0.034797,-0.005645,-0.000030,0.037326,0.000000,0.000732,0.000244,-0.000170,0.234080,-0.000076,0,0,0,0
15.700390,-0.013355,-0.000359,-0.034797,-0.005645,-0.000030,0.037326,0.000000,0.000732,0.000244,-0.000170,0.234080,-0.000076,0,0,0,0
15.710160,-0.013364,-0.000359,-0.034797,-0.005645,-0.000030,0.037326,0.000000,0.000732,0.000244,-0.000170,0.234080,-0.000076,0,0,0,0
15.719930,-0.013372,-0.000360,-0.034797,-0.005645,-0.000030,0.037326,0.000000,0.000732,0.000244,-0.000170,0.234080,-0.000076,0,0,0,0
15.729700,-0.013381,-0.000360,-0.034797,-0.005645,-0.000030,0.037326,0.000000,0.000732,0.000244,-0.000170,0.234080,-0.000076,0,0,0,0
15.739470,-0.013389,-0.000360,-0.034797,-0.005645,-0.000030,0.037326,0.000000,0.000732,0.000244,-0.000170,0.234080,-0.000076,0,0,0,0
15.749240,-0.013397,-0.000360,-0.034797,-0.005645,-0.000030,0.037326,0.000000,0.000732,0.000244,-0.000170,0.234080,-0.000076,0,0,0,0
15.759010,-0.013406,-0.000361,-0.034797,-0.005645,-0.000030,0.037326,0.000000,0.000732,0.000244,-0.000170,0.234080,-0.000076,0,0,0,0
15.768780,-0.013414,-0.000361,-0.034797,-0.005645,-0.000030,0.037326,0.000000,0.000732,0.000244,-0.000170,0.234080,-0.000076,0,0,0,0
15.778550,-0.013422,-0.000361,-0.034797,-0.005645,-0.000030,0.037326,0.000000,0.000732,0.000244,-0.000170,0.234080,-0.000076,0,0,0,0
15.788320,-0.013431,-0.000361,-0.034797,-0.005645,-0.000030,0.037326,0.000000,0.000732,0.000244,-0.000170,0.234080,-0.000076,0,0,0,0
15.798090,-0.013439,-0.000361,-0.034797,-0.005645,-0.000030,0.037326,0.000000,0.000732,0.000244,-0.000170,0.234080,-0.000076,0,0,0,0
15.807860,-0.013448,-0.000362,-0.034797,-0.005645,-0.000030,0.037326,0.000000,0.000732,0.000244,-0.000170,0.234080,-0.000076,0,0,0,0
15.817630,-0.013456,-0.000362,-0.034797,-0.005645,-0.000030,0.037326,0.000000,0.000732,0.000244,-0.000170,0.234080,-0.000076,0,0,0,0
15.827400,-0.013464,-0.000362,-0.034797,-0.005645,-0.000030,0.037326,0.000000,0.000732,0.000244,-0.000170,0.234080,-0.000076,0,0,0,0
15.837170,-0.013473,-0.000362,-0.034797,-0.005645,-0.000030,0.037326,0.000000,0.000732,0.000244,-0.000170,0.234080,-0.000076,0,0,0,0
15.846940,-0.013481,-0.000363,-0.034797,-0.005645,-0.000030,0.037326,0.000000,0.000732,0.000244,-0.000170,0.234080,-0.000076,0,0,0,0
15.856710,-0.013489,-0.000363,-0.034797,-0.005645,-0.000030,0.037326,0.000000,0.000732,0.000244,-0.000170,0.234080,-0.000076,0,0,0,0
15.866480,-0.013498,-0.000363,-0.034797,-0.005645,-0.000030,0.037326,0.000000,0.000732,0.000244,-0.000170,0.234080,-0.000076,0,0,0,0
15.876250,-0.013506,-0.000363,-0.034797,-0.005645,-0.000030,0.037326,0.000000,0.000732,0.000244,-0.000170,0.234080,-0.000076,0,0,0,0
15.886020,-0.013515,-0.000363,-0.034797,-0.005645,-0.000030,0.037326,0.000000,0.000732,0.000244,-0.000170,0.234080,-0.000076,0,0,0,0
15.895790,-0.013523,-0.000364,-0.034797,-0.005645,-0.000030,0.037326,0.000000,0.000732,0.000244,-0.000170,0.234080,-0.000076,0,0,0,0
15.905560,-0.013531,-0.000364,-0.034797,-0.005645,-0.000030,0.037326,0.000000,0.000732,0.000244,-0.000170,0.234080,-0.000076,0,0,0,0
15.915330,-0.013540,-0.000364,-0.034797,-0.005645,-0.000030,0.037326,0.000000,0.000732,0.000244,-0.000170,0.234080,-0.000076,0,0,0,0
15.925100,-0.013548,-0.000364,-0.034797,-0.005645,-0.000030,0.037326,0.000000,0.000732,0.000244,-0.000170,0.234080,-0.000076,0,0,0,0
15.934870,-0.013556,-0.000365,-0.034797,-0.005645,-0.000030,0.037326,0.000000,0.000732,0.000244,-0.000170,0.234080,-0.000076,0,0,0,0
15.944640,-0.013565,-0.000365,-0.034797,-0.005645,-0.000030,0.037326,0.000000,0.000732,0.000244,-0.000170,0.234080,-0.000076,0,0,0,0
15.954410,-0.013573,-0.000365,-0.034797,-0.005645,-0.000030,0.037326,0.000000,0.000732,0.000244,-0.000170,0.234080,-0.000076,0,0,0,0
15.964180,-0.013581,-0.000365,-0.034797,-0.005645,-0.000030,0.037326,0.000000,0.000732,0.000244,-0.000170,0.234080,-0.000076,0,0,0,0
15.973950,-0.013590,-0.000366,-0.034797,-0.005645,-0.000030,0.037326,0.000000,0.000732,0.000244,-0.000170,0.234080,-0.000076,0,0,0,0
15.983720,-0.013598,-0.000366,-0.034797,-0.005645,-0.000030,0.037326,0.000000,0.000732,0.000244,-0.000170,0.234080,-0.000076,0,0,0,0
15.993490,-0.013607,-0.000366,-0.034797,-0.005645,-0.000030,0.037326,0.000000,0.000732,0.000244,-0.000170,0.234080,-0.000076,0,0,0,0
16.003260,-0.013615,-0.000366,-0.034797,-0.005645,-0.000030,0.037326,0.000000,0.000732,0.000244,-0.000170,0.234080,-0.000076,0,0,0,0
16.013029,-0.013623,-0.000366,-0.034797,-0.005645,-0.000030,0.037326,0.000000,0.000732,0.000244,-0.000170,0.234080,-0.000076,0,0,0,0
16.022800,-0.013632,-0.000367,-0.034797,-0.005645,-0.000030,0.037326,0.000000,0.000732,0.000244,-0.000170,0.234080,-0.000076,0,0,0,0
16.032570,-0.013640,-0.000367,-0.034797,-0.005645,-0.000030,0.037326,0.000000,0.000732,0.000244,-0.000170,0.234080,-0.000076,0,0,0,0
16.042339,-0.013648,-0.000367,-0.034797,-0.005645,-0.000030,0.037326,0.000000,0.000732,0.000244,-0.000170,0.234080,-0.000076,0,0,0,0
16.052111,-0.013657,-0.000367,-0.034797,-0.005645,-0.000030,0.037326,0.000000,0.000732,0.000244,-0.000170,0.234080,-0.000076,0,0,0,0
16.061880,-0.013665,-0.000368,-0.034797,-0.005645,-0.000030,0.037326,0.000000,0.000732,0.000244,-0.000170,0.234080,-0.000076,0,0,0,0
16.071650,-0.013674,-0.000368,-0.034797,-0.005645,-0.000030,0.037326,0.000000,0.000732,0.000244,-0.000170,0.234080,-0.000076,0,0,0,0
16.081421,-0.013682,-0.000368,-0.034797,-0.005645,-0.000030,0.037326,0.000000,0.000732,0.000244,-0.000170,0.234080,-0.000076,0,0,0,0
16.091190,-0.013690,-0.000368,-0.034797,-0.005645,-0.000030,0.037326,0.000000,0.000732,0.000244,-0.000170,0.234080,-0.000076,0,0,0,0
16.100960,-0.013699,-0.000369,-0.034797,-0.005645,-0.000030,0.037326,0.000000,0.000732,0.000244,-0.000170,0.234080,-0.000076,0,0,0,0
16.110729,-0.013707,-0.000369,-0.034797,-0.005645,-0.000030,0.037326,0.000000,0.000732,0.000244,-0.000170,0.234080,-0.000076,0,0,0,0
16.120501,-0.013715,-0.000369,-0.034797,-0.005645,-0.000030,0.037326,0.000000,0.000732,0.000244,-0.000170,0.234080,-0.000076,0,0,0,0
16.130270,-0.013724,-0.000369,-0.034797,-0.005645,-0.000030,0.037326,0.000000,0.000732,0.000244,-0.000170,0.234080,-0.000076,0,0,0,0
16.140039,-0.013732,-0.000369,-0.034797,-0.005645,-0.000030,0.037326,0.000000,0.000732,0.000244,-0.000170,0.234080,-0.000076,0,0,0,0
16.149811,-0.013741,-0.000370,-0.034797,-0.005645,-0.000030,0.037326,0.000000,0.000732,0.000244,-0.000170,0.234080,-0.000076,0,0,0,0
16.159580,-0.013749,-0.000370,-0.034797,-0.005645,-0.000030,0.037326,0.000000,0.000732,0.000244,-0.000170,0.234080,-0.000076,0,0,0,0
16.169350,-0.013757,-0.000370,-0.034797,-0.005645,-0.000030,0.037326,0.000000,0.000732,0.000244,-0.000170,0.234080,-0.000076,0,0,0,0
16.179119,-0.013766,-0.000370,-0.034797,-0.005645,-0.000030,0.037326,0.000000,0.000732,0.000244,-0.000170,0.234080,-0.000076,0,0,0,0
16.188890,-0.013774,-0.000371,-0.034797,-0.005645,-0.000030,0.037326,0.000000,0.000732,0.000244,-0.000170,0.234080,-0.000076,0,0,0,0
16.198660,-0.013782,-0.000371,-0.034797,-0.005645,-0.000030,0.037326,0.000000,0.000732,0.000244,-0.000170,0.234080,-0.000076,0,0,0,0
16.208429,-0.013791,-0.000371,-0.034797,-0.005645,-0.000030,0.037326,0.000000,0.000732,0.000244,-0.000170,0.234080,-0.000076,0,0,0,0
16.218201,-0.013799,-0.000371,-0.034797,-0.005645,-0.000030,0.037326,0.000000,0.000732,0.000244,-0.000170,0.234080,-0.000076,0,0,0,0
16.227970,-0.013808,-0.000371,-0.034797,-0.005645,-0.000030,0.037326,0.000000,0.000732,0.000244,-0.000170,0.234080,-0.000076,0,0,0,0
16.237740,-0.013816,-0.000372,-0.034797,-0.005645,-0.000030,0.037326,0.000000,0.000732,0.000244,-0.000170,0.234080,-0.000076,0,0,0,0
16.247511,-0.013824,-0.000372,-0.034797,-0.005645,-0.000030,0.037326,0.000000,0.000732,0.000244,-0.000170,0.234080,-0.000076,0,0,0,0
16.257280,-0.013833,-0.000372,-0.034797,-0.005645,-0.000030,0.037326,0.000000,0.000732,0.000244,-0.000171,0.234080,-0.000076,0,0,0,0
16.267050,-0.013841,-0.000372,-0.034797,-0.005645,-0.000030,0.037326,0.000000,0.000732,0.000244,-0.000171,0.234080,-0.000076,0,0,0,0
16.276819,-0.013849,-0.000373,-0.034797,-0.005645,-0.000030,0.037326,0.000000,0.000732,0.000244,-0.000171,0.234080,-0.000076,0,0,0,0
16.286591,-0.013858,-0.000373,-0.034797,-0.005645,-0.000030,0.037326,0.000000,0.000732,0.000244,-0.000171,0.234080,-0.000076,0,0,0,0
16.296360,-0.013866,-0.000373,-0.034797,-0.005645,-0.000030,0.037326,0.000000,0.000732,0.000244,-0.000171,0.234080,-0.000076,0,0,0,0
16.306129,-0.013875,-0.000373,-0.034797,-0.005645,-0.000030,0.037326,0.000000,0.000732,0.000244,-0.000171,0.234080,-0.000076,0,0,0,0
16.315901,-0.013883,-0.000374,-0.034797,-0.005645,-0.000030,0.037326,0.000000,0.000732,0.000244,-0.000171,0.234080,-0.000076,0,0,0,0
16.325670,-0.013891,-0.000374,-0.034797,-0.005645,-0.000030,0.037326,0.000000,0.000732,0.000244,-0.000171,0.234080,-0.000076,0,0,0,0
16.335440,-0.013900,-0.000374,-0.034797,-0.005645,-0.000030,0.037326,0.000000,0.000732,0.000244,-0.000171,0.234080,-0.000076,0,0,0,0
16.345209,-0.013908,-0.000374,-0.034797,-0.005645,-0.000030,0.037326,0.000000,0.000732,0.000244,-0.000171,0.234080,-0.000076,0,0,0,0
16.354980,-0.013916,-0.000374,-0.034797,-0.005645,-0.000030,0.037326,0.000000,0.000732,0.000244,-0.000171,0.234080,-0.000076,0,0,0,0
16.364750,-0.013925,-0.000375,-0.034797,-0.005645,-0.000030,0.037326,0.000000,0.000732,0.000244,-0.000171,0.234080,-0.000076,0,0,0,0
16.374519,-0.013933,-0.000375,-0.034797,-0.005645,-0.000030,0.037326,0.000000,0.000732,0.000244,-0.000171,0.234080,-0.000076,0,0,0,0
16.384291,-0.013942,-0.000375,-0.034797,-0.005645,-0.000030,0.037326,0.000000,0.000732,0.000244,-0.000171,0.234080,-0.000076,0,0,0,0
16.394060,-0.013950,-0.000375,-0.034797,-0.005645,-0.000030,0.037326,0.000000,0.000732,0.000244,-0.000171,0.234080,-0.000076,0,0,0,0
16.403830,-0.013958,-0.000376,-0.034797,-0.005645,-0.000030,0.037326,0.000000,0.000732,0.000244,-0.000171,0.234080,-0.000076,0,0,0,0
16.413601,-0.013967,-0.000376,-0.034797,-0.005645,-0.000030,0.037326,0.000000,0.000732,0.000244,-0.000171,0.234080,-0.000076,0,0,0,0
16.423370,-0.013975,-0.000376,-0.034797,-0.005645,-0.000030,0.037326,0.000000,0.000732,0.000244,-0.000171,0.234080,-0.000076,0,0,0,0
16.433140,-0.013983,-0.000376,-0.034797,-0.005645,-0.000030,0.037326,0.000000,0.000732,0.000244,-0.000171,0.234080,-0.000076,0,0,0,0
16.442909,-0.013992,-0.000377,-0.034797,-0.005645,-0.000030,0.037326,0.000000,0.000732,0.000244,-0.000171,0.234080,-0.000076,0,0,0,0
16.452681,-0.014000,-0.000377,-0.034797,-0.005645,-0.000030,0.037326,0.000000,0.000732,0.000244,-0.000171,0.234080,-0.000076,0,0,0,0
16.462450,-0.014009,-0.000377,-0.034797,-0.005645,-0.000030,0.037326,0.000000,0.000732,0.000244,-0.000171,0.234080,-0.000076,0,0,0,0
16.472219,-0.014017,-0.000377,-0.034797,-0.005645,-0.000030,0.037326,0.000000,0.000732,0.000244,-0.000171,0.234080,-0.000076,0,0,0,0
16.481991,-0.014025,-0.000377,-0.034797,-0.005645,-0.000030,0.037326,0.000000,0.000732,0.000244,-0.000171,0.234080,-0.000076,0,0,0,0
16.491760,-0.014034,-0.000378,-0.034797,-0.005645,-0.000030,0.037326,0.000000,0.000732,0.000244,-0.000171,0.234080,-0.000076,0,0,0,0
16.501530,-0.014042,-0.000378,-0.034797,-0.005645,-0.000030,0.037326,0.000000,0.000732,0.000244,-0.000171,0.234080,-0.000076,0,0,0,0
16.511299,-0.014050,-0.000378,-0.034797,-0.005645,-0.000030,0.037326,0.000000,0.000732,0.000244,-0.000171,0.234080,-0.000076,0,0,0,0
16.521070,-0.014059,-0.000378,-0.034797,-0.005645,-0.000030,0.037326,0.000000,0.000732,0.000244,-0.000171,0.234080,-0.000076,0,0,0,0
16.530840,-0.014067,-0.000379,-0.034797,-0.005645,-0.000030,0.037326,0.000000,0.000732,0.000244,-0.000171,0.234080,-0.000076,0,0,0,0
16.540609,-0.014076,-0.000379,-0.034797,-0.005645,-0.000030,0.037326,0.000000,0.000732,0.000244,-0.000171,0.234080,-0.000076,0,0,0,0
16.550381,-0.014084,-0.000379,-0.034797,-0.005645,-0.000030,0.037326,0.000000,0.000732,0.000244,-0.000171,0.234080,-0.000076,0,0,0,0
16.560150,-0.014092,-0.000379,-0.034797,-0.005645,-0.000030,0.037326,0.000000,0.000732,0.000244,-0.000171,0.234080,-0.000076,0,0,0,0
16.569920,-0.014101,-0.000379,-0.034797,-0.005645,-0.000030,0.037326,0.000000,0.000732,0.000244,-0.000171,0.234080,-0.000076,0,0,0,0
16.579689,-0.014109,-0.000380,-0.034797,-0.005645,-0.000030,0.037326,0.000000,0.000732,0.000244,-0.000171,0.234080,-0.000076,0,0,0,0
16.589460,-0.014117,-0.000380,-0.034797,-0.005645,-0.000030,0.037326,0.000000,0.000732,0.000244,-0.000171,0.234080,-0.000076,0,0,0,0
16.599230,-0.014126,-0.000380,-0.034797,-0.005645,-0.000030,0.037326,0.000000,0.000732,0.000244,-0.000171,0.234080,-0.000076,0,0,0,0
16.608999,-0.014134,-0.000380,-0.034797,-0.005645,-0.000030,0.037326,0.000000,0.000732,0.000244,-0.000171,0.234080,-0.000076,0,0,0,0
16.618771,-0.014143,-0.000381,-0.034797,-0.005645,-0.000030,0.037326,0.000000,0.000732,0.000244,-0.000171,0.234080,-0.000076,0,0,0,0
16.628540,-0.014151,-0.000381,-0.034797,-0.005645,-0.000030,0.037326,0.000000,0.000732,0.000244,-0.000171,0.234080,-0.000076,0,0,0,0
16.638309,-0.014159,-0.000381,-0.034797,-0.005645,-0.000030,0.037326,0.000000,0.000732,0.000244,-0.000171,0.234080,-0.000076,0,0,0,0
16.648081,-0.014168,-0.000381,-0.034797,-0.005645,-0.000030,0.037326,0.000000,0.000732,0.000244,-0.000171,0.234080,-0.000076,0,0,0,0
16.657850,-0.014176,-0.000382,-0.034797,-0.005645,-0.000030,0.037326,0.000000,0.000732,0.000244,-0.000171,0.234080,-0.000076,0,0,0,0
16.667620,-0.014184,-0.000382,-0.034797,-0.005645,-0.000030,0.037326,0.000000,0.000732,0.000244,-0.000171,0.234080,-0.000076,0,0,0,0
16.677389,-0.014193,-0.000382,-0.034797,-0.005645,-0.000030,0.037326,0.000000,0.000732,0.000244,-0.000171,0.234080,-0.000076,0,0,0,0
16.687160,-0.014201,-0.000382,-0.034797,-0.005645,-0.000030,0.037326,0.000000,0.000732,0.000244,-0.000171,0.234080,-0.000076,0,0,0,0
16.696930,-0.014210,-0.000382,-0.034797,-0.005645,-0.000030,0.037326,0.000000,0.000732,0.000244,-0.000171,0.234080,-0.000076,0,0,0,0
16.706699,-0.014218,-0.000383,-0.034797,-0.005645,-0.000030,0.037326,0.000000,0.000732,0.000244,-0.000171,0.234080,-0.000076,0,0,0,0
16.716471,-0.014226,-0.000383,-0.034797,-0.005645,-0.000030,0.037326,0.000000,0.000732,0.000244,-0.000171,0.234080,-0.000076,0,0,0,0
16.726240,-0.014235,-0.000383,-0.034797,-0.005645,-0.000030,0.037326,0.000000,0.000732,0.000244,-0.000171,0.234080,-0.000076,0,0,0,0
16.736010,-0.014243,-0.000383,-0.034797,-0.005645,-0.000030,0.037326,0.000000,0.000732,0.000244,-0.000171,0.234080,-0.000076,0,0,0,0
16.745781,-0.014251,-0.000384,-0.034797,-0.005645,-0.000030,0.037326,0.000000,0.000732,0.000244,-0.000171,0.234080,-0.000076,0,0,0,0
16.755550,-0.014260,-0.000384,-0.034797,-0.005645,-0.000030,0.037326,0.000000,0.000732,0.000244,-0.000171,0.234080,-0.000076,0,0,0,0
16.765320,-0.014268,-0.000384,-0.034797,-0.005645,-0.000030,0.037326,0.000000,0.000732,0.000244,-0.000171,0.234080,-0.000076,0,0,0,0
16.775089,-0.014277,-0.000384,-0.034797,-0.005645,-0.000030,0.037326,0.000000,0.000732,0.000244,-0.000171,0.234080,-0.000076,0,0,0,0
16.784861,-0.014285,-0.000385,-0.034797,-0.005645,-0.000030,0.037326,0.000000,0.000732,0.000244,-0.000171,0.234080,-0.000076,0,0,0,0
16.794630,-0.014293,-0.000385,-0.034797,-0.005645,-0.000030,0.037326,0.000000,0.000732,0.000244,-0.000171,0.234080,-0.000076,0,0,0,0
16.804399,-0.014302,-0.000385,-0.034797,-0.005645,-0.000030,0.037326,0.000000,0.000732,0.000244,-0.000171,0.234080,-0.000076,0,0,0,0
16.814171,-0.014310,-0.000385,-0.034797,-0.005645,-0.000030,0.037326,0.000000,0.000732,0.000244,-0.000171,0.234080,-0.000076,0,0,0,0
16.823940,-0.014318,-0.000385,-0.034797,-0.005645,-0.000030,0.037326,0.000000,0.000732,0.000244,-0.000171,0.234080,-0.000076,0,0,0,0
16.833710,-0.014327,-0.000386,-0.034797,-0.005645,-0.000030,0.037326,0.000000,0.000732,0.000244,-0.000171,0.234080,-0.000076,0,0,0,0
16.843479,-0.014335,-0.000386,-0.034797,-0.005645,-0.000030,0.037326,0.000000,0.000732,0.000244,-0.000171,0.234080,-0.000076,0,0,0,0
16.853251,-0.014343,-0.000386,-0.034797,-0.005645,-0.000030,0.037326,0.000000,0.000732,0.000244,-0.000171,0.234080,-0.000076,0,0,0,0
16.863020,-0.014352,-0.000386,-0.034797,-0.005645,-0.000030,0.037326,0.000000,0.000732,0.000244,-0.000171,0.234080,-0.000076,0,0,0,0
16.872789,-0.014360,-0.000387,-0.034797,-0.005645,-0.000030,0.037326,0.000000,0.000732,0.000244,-0.000171,0.234080,-0.000076,0,0,0,0
16.882561,-0.014369,-0.000387,-0.034797,-0.005645,-0.000030,0.037326,0.000000,0.000732,0.000244,-0.000171,0.234080,-0.000076,0,0,0,0
16.892330,-0.014377,-0.000387,-0.034797,-0.005645,-0.000030,0.037326,0.000000,0.000732,0.000244,-0.000171,0.234080,-0.000076,0,0,0,0
16.902100,-0.014385,-0.000387,-0.034797,-0.005645,-0.000030,0.037326,0.000000,0.000732,0.000244,-0.000171,0.234080,-0.000076,0,0,0,0
16.911869,-0.014394,-0.000387,-0.034797,-0.005645,-0.000030,0.037326,0.000000,0.000732,0.000244,-0.000171,0.234080,-0.000076,0,0,0,0
16.921640,-0.014402,-0.000388,-0.034797,-0.005645,-0.000030,0.037326,0.000000,0.000732,0.000244,-0.000171,0.234080,-0.000076,0,0,0,0
16.931410,-0.014410,-0.000388,-0.034797,-0.005645,-0.000030,0.037326,0.000000,0.000732,0.000244,-0.000171,0.234080,-0.000076,0,0,0,0
16.941179,-0.014419,-0.000388,-0.034797,-0.005645,-0.000030,0.037326,0.000000,0.000732,0.000244,-0.000171,0.234080,-0.000076,0,0,0,0
16.950951,-0.014427,-0.000388,-0.034797,-0.005645,-0.000030,0.037326,0.000000,0.000732,0.000244,-0.000171,0.234080,-0.000076,0,0,0,0
16.960720,-0.014436,-0.000389,-0.034797,-0.005645,-0.000030,0.037326,0.000000,0.000732,0.000244,-0.000171,0.234080,-0.000076,0,0,0,0
16.970490,-0.014444,-0.000389,-0.034797,-0.005645,-0.000030,0.037326,0.000000,0.000732,0.000244,-0.000171,0.234080,-0.000076,0,0,0,0
16.980261,-0.014452,-0.000389,-0.034797,-0.005645,-0.000030,0.037326,0.000000,0.000732,0.000244,-0.000171,0.234080,-0.000076,0,0,0,0
16.990030,-0.014461,-0.000389,-0.034797,-0.005645,-0.000030,0.037326,0.000000,0.000732,0.000244,-0.000171,0.234080,-0.000076,0,0,0,0
16.999800,-0.014469,-0.000390,-0.034797,-0.005645,-0.000030,0.037326,0.000000,0.000732,0.000244,-0.000171,0.234080,-0.000076,0,0,0,0
17.009569,-0.014477,-0.000390,-0.034797,-0.005645,-0.000030,0.037326,0.000000,0.000732,0.000244,-0.000171,0.234080,-0.000076,0,0,0,0
17.019341,-0.014486,-0.000390,-0.034797,-0.005645,-0.000030,0.037326,0.000000,0.000732,0.000244,-0.000171,0.234080,-0.000076,0,0,0,0
17.029110,-0.014494,-0.000390,-0.034797,-0.005645,-0.000030,0.037326,0.000000,0.000732,0.000244,-0.000171,0.234080,-0.000076,0,0,0,0
17.038879,-0.014503,-0.000390,-0.034797,-0.005645,-0.000030,0.037326,0.000000,0.000732,0.000244,-0.000171,0.234080,-0.000076,0,0,0,0
17.048651,-0.014511,-0.000391,-0.034797,-0.005645,-0.000030,0.037326,0.000000,0.000732,0.000244,-0.000171,0.234080,-0.000076,0,0,0,0
17.058420,-0.014519,-0.000391,-0.034797,-0.005645,-0.000030,0.037326,0.000000,0.000732,0.000244,-0.000171,0.234080,-0.000076,0,0,0,0
17.068190,-0.014528,-0.000391,-0.034797,-0.005645,-0.000030,0.037326,0.000000,0.000732,0.000244,-0.000171,0.234080,-0.000076,0,0,0,0
17.077959,-0.014536,-0.000391,-0.034797,-0.005645,-0.000030,0.037326,0.000000,0.000732,0.000244,-0.000171,0.234080,-0.000076,0,0,0,0
17.087730,-0.014544,-0.000392,-0.034797,-0.005645,-0.000030,0.037326,0.000000,0.000732,0.000244,-0.000171,0.234080,-0.000076,0,0,0,0
17.097500,-0.014553,-0.000392,-0.034797,-0.005645,-0.000030,0.037326,0.000000,0.000732,0.000244,-0.000171,0.234080,-0.000076,0,0,0,0
17.107269,-0.014561,-0.000392,-0.034797,-0.005645,-0.000030,0.037326,0.000000,0.000732,0.000244,-0.000171,0.234080,-0.000076,0,0,0,0
17.117041,-0.014570,-0.000392,-0.034797,-0.005645,-0.000030,0.037326,0.000000,0.000732,0.000244,-0.000171,0.234080,-0.000076,0,0,0,0
17.126810,-0.014578,-0.000393,-0.034797,-0.005645,-0.000030,0.037326,0.000000,0.000732,0.000244,-0.000171,0.234080,-0.000076,0,0,0,0
17.136580,-0.014586,-0.000393,-0.034797,-0.005645,-0.000030,0.037326,0.000000,0.000732,0.000244,-0.000171,0.234080,-0.000076,0,0,0,0
17.146351,-0.014595,-0.000393,-0.034797,-0.005645,-0.000030,0.037326,0.000000,0.000732,0.000244,-0.000171,0.234080,-0.000076,0,0,0,0
17.156120,-0.014603,-0.000393,-0.034797,-0.005645,-0.000030,0.037326,0.000000,0.000732,0.000244,-0.000171,0.234080,-0.000076,0,0,0,0
17.165890,-0.014611,-0.000393,-0.034797,-0.005645,-0.000030,0.037326,0.000000,0.000732,0.000244,-0.000171,0.234080,-0.000076,0,0,0,0
17.175659,-0.014620,-0.000394,-0.034797,-0.005645,-0.000030,0.037326,0.000000,0.000732,0.000244,-0.000171,0.234080,-0.000076,0,0,0,0
17.185431,-0.014628,-0.000394,-0.034797,-0.005645,-0.000030,0.037326,0.000000,0.000732,0.000244,-0.000171,0.234080,-0.000076,0,0,0,0
17.195200,-0.014637,-0.000394,-0.034797,-0.005645,-0.000030,0.037326,0.000000,0.000732,0.000244,-0.000171,0.234080,-0.000076,0,0,0,0
17.204969,-0.014645,-0.000394,-0.034797,-0.005645,-0.000030,0.037326,0.000000,0.000732,0.000244,-0.000171,0.234080,-0.000076,0,0,0,0
17.214741,-0.014653,-0.000395,-0.034797,-0.005645,-0.000030,0.037326,0.000000,0.000732,0.000244,-0.000171,0.234080,-0.000076,0,0,0,0
17.224510,-0.014662,-0.000395,-0.034797,-0.005645,-0.000030,0.037326,0.000000,0.000732,0.000244,-0.000171,0.234080,-0.000076,0,0,0,0
17.234280,-0.014670,-0.000395,-0.034797,-0.005645,-0.000030,0.037326,0.000000,0.000732,0.000244,-0.000171,0.234080,-0.000076,0,0,0,0
17.244049,-0.014678,-0.000395,-0.034797,-0.005645,-0.000030,0.037326,0.000000,0.000732,0.000244,-0.000171,0.234080,-0.000076,0,0,0,0
17.253820,-0.014687,-0.000395,-0.034797,-0.005645,-0.000030,0.037326,0.000000,0.000732,0.000244,-0.000171,0.234080,-0.000076,0,0,0,0
17.263590,-0.014695,-0.000396,-0.034797,-0.005645,-0.000030,0.037326,0.000000,0.000732,0.000244,-0.000171,0.234080,-0.000076,0,0,0,0
17.273359,-0.014704,-0.000396,-0.034797,-0.005645,-0.000030,0.037326,0.000000,0.000732,0.000244,-0.000171,0.234080,-0.000076,0,0,0,0
17.283131,-0.014712,-0.000396,-0.034797,-0.005645,-0.000030,0.037326,0.000000,0.000732,0.000244,-0.000171,0.234080,-0.000076,0,0,0,0
17.292900,-0.014720,-0.000396,-0.034797,-0.005645,-0.000030,0.037326,0.000000,0.000732,0.000244,-0.000171,0.234080,-0.000076,0,0,0,0
17.302670,-0.014729,-0.000397,-0.034797,-0.005645,-0.000030,0.037326,0.000000,0.000732,0.000244,-0.000171,0.234080,-0.000076,0,0,0,0
17.312441,-0.014737,-0.000397,-0.034797,-0.005645,-0.000030,0.037326,0.000000,0.000732,0.000244,-0.000171,0.234080,-0.000076,0,0,0,0
17.322210,-0.014745,-0.000397,-0.034797,-0.005645,-0.000030,0.037326,0.000000,0.000732,0.000244,-0.000171,0.234080,-0.000076,0,0,0,0
17.331980,-0.014754,-0.000397,-0.034797,-0.005645,-0.000030,0.037326,0.000000,0.000732,0.000244,-0.000171,0.234080,-0.000076,0,0,0,0
17.341749,-0.014762,-0.000398,-0.034797,-0.005645,-0.000030,0.037326,0.000000,0.000732,0.000244,-0.000171,0.234080,-0.000076,0,0,0,0
17.351521,-0.014771,-0.000398,-0.034797,-0.005645,-0.000030,0.037326,0.000000,0.000732,0.000244,-0.000171,0.234080,-0.000076,0,0,0,0
17.361290,-0.014779,-0.000398,-0.034797,-0.005645,-0.000030,0.037326,0.000000,0.000732,0.000244,-0.000171,0.234080,-0.000076,0,0,0,0
17.371059,-0.014787,-0.000398,-0.034797,-0.005645,-0.000030,0.037326,0.000000,0.000732,0.000244,-0.000171,0.234080,-0.000076,0,0,0,0
17.380831,-0.014796,-0.000398,-0.034797,-0.005645,-0.000030,0.037326,0.000000,0.000732,0.000244,-0.000171,0.234080,-0.000076,0,0,0,0
17.390600,-0.014804,-0.000399,-0.034797,-0.005645,-0.000030,0.037326,0.000000,0.000732,0.000244,-0.000171,0.234080,-0.000076,0,0,0,0
17.400370,-0.014812,-0.000399,-0.034797,-0.005645,-0.000030,0.037326,0.000000,0.000732,0.000244,-0.000171,0.234080,-0.000076,0,0,0,0
17.410139,-0.014821,-0.000399,-0.034797,-0.005645,-0.000030,0.037326,0.000000,0.000732,0.000244,-0.000171,0.234080,-0.000076,0,0,0,0
17.419910,-0.014829,-0.000399,-0.034797,-0.005645,-0.000030,0.037326,0.000000,0.000732,0.000244,-0.000171,0.234080,-0.000076,0,0,0,0
17.429680,-0.014838,-0.000400,-0.034797,-0.005645,-0.000030,0.037326,0.000000,0.000732,0.000244,-0.000171,0.234080,-0.000076,0,0,0,0
17.439449,-0.014846,-0.000400,-0.034797,-0.005645,-0.000030,0.037326,0.000000,0.000732,0.000244,-0.000171,0.234080,-0.000076,0,0,0,0
17.449221,-0.014854,-0.000400,-0.034797,-0.005645,-0.000030,0.037326,0.000000,0.000732,0.000244,-0.000171,0.234080,-0.000076,0,0,0,0
17.458990,-0.014863,-0.000400,-0.034797,-0.005645,-0.000030,0.037326,0.000000,0.000732,0.000244,-0.000171,0.234080,-0.000076,0,0,0,0
17.468760,-0.014871,-0.000401,-0.034797,-0.005645,-0.000030,0.037326,0.000000,0.000732,0.000244,-0.000171,0.234080,-0.000076,0,0,0,0
17.478531,-0.014879,-0.000401,-0.034797,-0.005645,-0.000030,0.037326,0.000000,0.000732,0.000244,-0.000171,0.234080,-0.000076,0,0,0,0
17.488300,-0.014888,-0.000401,-0.034797,-0.005645,-0.000030,0.037326,0.000000,0.000732,0.000244,-0.000171,0.234080,-0.000076,0,0,0,0
17.498070,-0.014896,-0.000401,-0.034797,-0.005645,-0.000030,0.037326,0.000000,0.000732,0.000244,-0.000171,0.234080,-0.000076,0,0,0,0
17.507839,-0.014905,-0.000401,-0.034797,-0.005645,-0.000030,0.037326,0.000000,0.000732,0.000244,-0.000171,0.234080,-0.000076,0,0,0,0
17.517611,-0.014913,-0.000402,-0.034797,-0.005645,-0.000030,0.037326,0.000000,0.000732,0.000244,-0.000171,0.234080,-0.000076,0,0,0,0
17.527380,-0.014921,-0.000402,-0.034797,-0.005645,-0.000030,0.037326,0.000000,0.000732,0.000244,-0.000171,0.234080,-0.000076,0,0,0,0
17.537149,-0.014930,-0.000402,-0.034797,-0.005645,-0.000030,0.037326,0.000000,0.000732,0.000244,-0.000171,0.234080,-0.000076,0,0,0,0
17.546921,-0.014938,-0.000402,-0.034797,-0.005645,-0.000030,0.037326,0.000000,0.000732,0.000244,-0.000171,0.234080,-0.000076,0,0,0,0
17.556690,-0.014946,-0.000403,-0.034797,-0.005645,-0.000030,0.037326,0.000000,0.000732,0.000244,-0.000171,0.234080,-0.000076,0,0,0,0
17.566460,-0.014955,-0.000403,-0.034797,-0.005645,-0.000030,0.037326,0.000000,0.000732,0.000244,-0.000171,0.234080,-0.000076,0,0,0,0
17.576229,-0.014963,-0.000403,-0.034797,-0.005645,-0.000030,0.037326,0.000000,0.000732,0.000244,-0.000171,0.234080,-0.000076,0,0,0,0
17.586000,-0.014972,-0.000403,-0.034797,-0.005645,-0.000030,0.037326,0.000000,0.000732,0.000244,-0.000171,0.234080,-0.000076,0,0,0,0
17.595770,-0.014980,-0.000404,-0.034797,-0.005645,-0.000030,0.037326,0.000000,0.000732,0.000244,-0.000171,0.234080,-0.000076,0,0,0,0
17.605539,-0.014988,-0.000404,-0.034797,-0.005645,-0.000030,0.037326,0.000000,0.000732,0.000244,-0.000171,0.234080,-0.000076,0,0,0,0
17.615311,-0.014997,-0.000404,-0.034797,-0.005645,-0.000030,0.037326,0.000000,0.000732,0.000244,-0.000171,0.234080,-0.000076,0,0,0,0
17.625080,-0.015005,-0.000404,-0.034797,-0.005645,-0.000030,0.037326,0.000000,0.000732,0.000244,-0.000171,0.234080,-0.000076,0,0,0,0
17.634850,-0.015013,-0.000404,-0.034797,-0.005645,-0.000030,0.037326,0.000000,0.000732,0.000244,-0.000171,0.234080,-0.000076,0,0,0,0
17.644621,-0.015022,-0.000405,-0.034797,-0.005645,-0.000030,0.037326,0.000000,0.000732,0.000244,-0.000171,0.234080,-0.000076,0,0,0,0
17.654390,-0.015030,-0.000405,-0.034797,-0.005645,-0.000030,0.037326,0.000000,0.000732,0.000244,-0.000171,0.234080,-0.000076,0,0,0,0
17.664160,-0.015039,-0.000405,-0.034797,-0.005645,-0.000030,0.037326,0.000000,0.000732,0.000244,-0.000171,0.234080,-0.000076,0,0,0,0
17.673929,-0.015047,-0.000405,-0.034797,-0.005645,-0.000030,0.037326,0.000000,0.000732,0.000244,-0.000171,0.234080,-0.000076,0,0,0,0
17.683701,-0.015055,-0.000406,-0.034797,-0.005645,-0.000030,0.037326,0.000000,0.000732,0.000244,-0.000171,0.234080,-0.000076,0,0,0,0
17.693470,-0.015064,-0.000406,-0.034797,-0.005645,-0.000030,0.037326,0.000000,0.000732,0.000244,-0.000171,0.234080,-0.000076,0,0,0,0
17.703239,-0.015072,-0.000406,-0.034797,-0.005645,-0.000030,0.037326,0.000000,0.000732,0.000244,-0.000171,0.234080,-0.000076,0,0,0,0
17.713011,-0.015080,-0.000406,-0.034797,-0.005645,-0.000030,0.037326,0.000000,0.000732,0.000244,-0.000171,0.234080,-0.000076,0,0,0,0
17.722780,-0.015089,-0.000406,-0.034797,-0.005645,-0.000030,0.037326,0.000000,0.000732,0.000244,-0.000171,0.234080,-0.000076,0,0,0,0
17.732550,-0.015097,-0.000407,-0.034797,-0.005645,-0.000030,0.037326,0.000000,0.000732,0.000244,-0.000171,0.234080,-0.000076,0,0,0,0
17.742319,-0.015105,-0.000407,-0.034797,-0.005645,-0.000030,0.037326,0.000000,0.000732,0.000244,-0.000171,0.234080,-0.000076,0,0,0,0
17.752090,-0.015114,-0.000407,-0.034797,-0.005645,-0.000030,0.037326,0.000000,0.000732,0.000244,-0.000171,0.234080,-0.000076,0,0,0,0
17.761860,-0.015122,-0.000407,-0.034797,-0.005645,-0.000030,0.037326,0.000000,0.000732,0.000244,-0.000171,0.234080,-0.000076,0,0,0,0
17.771629,-0.015131,-0.000408,-0.034797,-0.005645,-0.000030,0.037326,0.000000,0.000732,0.000244,-0.000171,0.234080,-0.000076,0,0,0,0
17.781401,-0.015139,-0.000408,-0.034797,-0.005645,-0.000030,0.037326,0.000000,0.000732,0.000244,-0.000171,0.234080,-0.000076,0,0,0,0
17.791170,-0.015147,-0.000408,-0.034797,-0.005645,-0.000030,0.037326,0.000000,0.000732,0.000244,-0.000171,0.234080,-0.000076,0,0,0,0
17.800940,-0.015156,-0.000408,-0.034797,-0.005645,-0.000030,0.037326,0.000000,0.000732,0.000244,-0.000171,0.234080,-0.000076,0,0,0,0
17.810711,-0.015164,-0.000409,-0.034797,-0.005645,-0.000030,0.037326,0.000000,0.000732,0.000244,-0.000171,0.234080,-0.000076,0,0,0,0
17.820480,-0.015172,-0.000409,-0.034797,-0.005645,-0.000030,0.037326,0.000000,0.000732,0.000244,-0.000171,0.234080,-0.000076,0,0,0,0
17.830250,-0.015181,-0.000409,-0.034797,-0.005645,-0.000030,0.037326,0.000000,0.000732,0.000244,-0.000171,0.234080,-0.000076,0,0,0,0
17.840019,-0.015189,-0.000409,-0.034797,-0.005645,-0.000030,0.037326,0.000000,0.000732,0.000244,-0.000171,0.234080,-0.000076,0,0,0,0
17.849791,-0.015198,-0.000409,-0.034797,-0.005645,-0.000030,0.037326,0.000000,0.000732,0.000244,-0.000171,0.234080,-0.000076,0,0,0,0
17.859560,-0.015206,-0.000410,-0.034797,-0.005645,-0.000030,0.037326,0.000000,0.000732,0.000244,-0.000171,0.234080,-0.000076,0,0,0,0
17.869329,-0.015214,-0.000410,-0.034797,-0.005645,-0.000030,0.037326,0.000000,0.000732,0.000244,-0.000171,0.234080,-0.000076,0,0,0,0
17.879101,-0.015223,-0.000410,-0.034797,-0.005645,-0.000030,0.037326,0.000000,0.000732,0.000244,-0.000171,0.234080,-0.000076,0,0,0,0
17.888870,-0.015231,-0.000410,-0.034797,-0.005645,-0.000030,0.037326,0.000000,0.000732,0.000244,-0.000171,0.234080,-0.000076,0,0,0,0
17.898640,-0.015239,-0.000411,-0.034797,-0.005645,-0.000030,0.037326,0.000000,0.000732,0.000244,-0.000171,0.234080,-0.000076,0,0,0,0
17.908409,-0.015248,-0.000411,-0.034797,-0.005645,-0.000030,0.037326,0.000000,0.000732,0.000244,-0.000171,0.234080,-0.000076,0,0,0,0
17.918180,-0.015256,-0.000411,-0.034797,-0.005645,-0.000030,0.037326,0.000000,0.000732,0.000244,-0.000171,0.234080,-0.000076,0,0,0,0
17.927950,-0.015265,-0.000411,-0.034797,-0.005645,-0.000030,0.037326,0.000000,0.000732,0.000244,-0.000171,0.234080,-0.000076,0,0,0,0
17.937719,-0.015273,-0.000412,-0.034797,-0.005645,-0.000030,0.037326,0.000000,0.000732,0.000244,-0.000171,0.234080,-0.000076,0,0,0,0
17.947491,-0.015281,-0.000412,-0.034797,-0.005645,-0.000030,0.037326,0.000000,0.000732,0.000244,-0.000171,0.234080,-0.000076,0,0,0,0
17.957260,-0.015290,-0.000412,-0.034797,-0.005645,-0.000030,0.037326,0.000000,0.000732,0.000244,-0.000171,0.234080,-0.000076,0,0,0,0
17.967030,-0.015298,-0.000412,-0.034797,-0.005645,-0.000030,0.037326,0.000000,0.000732,0.000244,-0.000171,0.234080,-0.000076,0,0,0,0
17.976801,-0.015306,-0.000412,-0.034797,-0.005645,-0.000030,0.037326,0.000000,0.000732,0.000244,-0.000171,0.234080,-0.000076,0,0,0,0
17.986570,-0.015315,-0.000413,-0.034797,-0.005645,-0.000030,0.037326,0.000000,0.000732,0.000244,-0.000171,0.234080,-0.000076,0,0,0,0
17.996340,-0.015323,-0.000413,-0.034797,-0.005645,-0.000030,0.037326,0.000000,0.000732,0.000244,-0.000171,0.234080,-0.000076,0,0,0,0
18.006109,-0.015332,-0.000413,-0.034797,-0.005645,-0.000030,0.037326,0.000000,0.000732,0.000244,-0.000171,0.234080,-0.000076,0,0,0,0
18.015881,-0.015340,-0.000413,-0.034797,-0.005645,-0.000030,0.037326,0.000000,0.000732,0.000244,-0.000171,0.234080,-0.000076,0,0,0,0
18.025650,-0.015348,-0.000414,-0.034797,-0.005645,-0.000030,0.037326,0.000000,0.000732,0.000244,-0.000171,0.234080,-0.000076,0,0,0,0
18.035419,-0.015357,-0.000414,-0.034797,-0.005645,-0.000030,0.037326,0.000000,0.000732,0.000244,-0.000171,0.234080,-0.000076,0,0,0,0
18.045191,-0.015365,-0.000414,-0.034797,-0.005645,-0.000030,0.037326,0.000000,0.000732,0.000244,-0.000171,0.234080,-0.000076,0,0,0,0
18.054960,-0.015373,-0.000414,-0.034797,-0.005645,-0.000030,0.037326,0.000000,0.000732,0.000244,-0.000171,0.234080,-0.000076,0,0,0,0
18.064730,-0.015382,-0.000415,-0.034797,-0.005645,-0.000030,0.037326,0.000000,0.000732,0.000244,-0.000171,0.234080,-0.000076,0,0,0,0
18.074499,-0.015390,-0.000415,-0.034797,-0.005645,-0.000030,0.037326,0.000000,0.000732,0.000244,-0.000171,0.234080,-0.000076,0,0,0,0
18.084270,-0.015399,-0.000415,-0.034797,-0.005645,-0.000030,0.037326,0.000000,0.000732,0.000244,-0.000171,0.234080,-0.000076,0,0,0,0
18.094040,-0.015407,-0.000415,-0.034797,-0.005645,-0.000030,0.037326,0.000000,0.000732,0.000244,-0.000171,0.234080,-0.000076,0,0,0,0
