time,pos_x,pos_y,pos_z,vel_x,vel_y,vel_z,att_phi,att_theta,att_psi,rate_p,rate_q,rate_r,cmd_thrust,cmd_roll,cmd_pitch,cmd_yaw
73.758347,-1.628906,-1.046875,-0.007812,0.000000,0.000000,-0.000032,-0.019775,-0.011475,0.344482,-0.004150,-0.001709,-0.000488,0,0,0,0
73.768112,-1.628906,-1.046875,-0.007812,0.000000,0.000000,0.000200,-0.019775,-0.011475,0.344482,-0.002197,-0.001709,0.000244,0,0,0,0
73.777878,-1.628906,-1.046875,-0.007812,0.000000,0.000000,-0.000235,-0.019775,-0.011475,0.344482,-0.002686,0.000244,0.000244,0,0,0,0
73.787636,-1.628906,-1.046875,-0.007812,0.000000,0.000000,-0.000063,-0.019775,-0.011475,0.344482,0.001709,-0.001709,0.001709,0,0,0,0
73.797409,-1.628906,-1.046875,-0.007812,0.000000,0.000000,-0.000309,-0.019742,-0.011619,0.344739,-0.002686,-0.000244,-0.000977,0,0,0,0
73.807175,-1.628906,-1.046875,-0.007812,0.000000,0.000000,-0.000479,-0.019775,-0.011475,0.344482,-0.000977,0.000244,0.001709,0,0,0,0
73.816933,-1.628906,-1.046875,-0.007812,0.000000,0.000000,-0.000990,-0.019775,-0.011475,0.344482,-0.002197,-0.000732,0.001709,0,0,0,0
73.826698,-1.628906,-1.046875,-0.007812,0.000000,0.000000,-0.001503,-0.019775,-0.011475,0.344482,0.000488,-0.000244,0.001221,0,0,0,0
73.836472,-1.628906,-1.046875,-0.007812,0.000000,0.000000,-0.001619,-0.019775,-0.011475,0.344482,-0.004883,-0.004883,0.003418,0,0,0,0
73.846237,-1.628906,-1.046875,-0.007812,0.000000,0.000000,-0.001701,-0.019775,-0.011475,0.344482,0.002686,-0.003174,0.001709,0,0,0,0
73.855995,-1.628906,-1.046875,-0.007812,0.000000,0.000000,-0.001341,-0.019775,-0.011475,0.344482,-0.002197,-0.000732,0.001709,0,0,0,0
73.865768,-1.628906,-1.046875,-0.007812,0.000000,0.000000,-0.001137,-0.019775,-0.011475,0.344482,-0.000977,-0.001709,-0.000488,0,0,0,0
73.875526,-1.628906,-1.046875,-0.007812,0.000000,0.000000,-0.001200,-0.019775,-0.011475,0.344482,-0.000488,-0.002686,0.001221,0,0,0,0
73.885292,-1.628906,-1.046875,-0.007812,0.000000,0.000000,-0.001295,-0.019775,-0.011475,0.344482,0.000488,-0.001221,0.001709,0,0,0,0
73.895058,-1.628906,-1.046875,-0.007812,0.000000,0.000000,-0.001411,-0.019775,-0.011475,0.344482,-0.005371,0.001221,-0.000488,0,0,0,0
73.904831,-1.628906,-1.046875,-0.007812,0.000000,0.000000,-0.001637,-0.019775,-0.011475,0.344482,0.000488,-0.000244,-0.000488,0,0,0,0
73.914589,-1.628906,-1.046875,-0.007812,0.000000,0.000000,-0.001463,-0.019775,-0.011475,0.344482,-0.002686,0.000244,-0.000977,0,0,0,0
73.924362,-1.628906,-1.046875,-0.007812,0.000000,0.000000,-0.001301,-0.019775,-0.011475,0.344482,0.000000,-0.001221,0.002930,0,0,0,0
73.934120,-1.628906,-1.046875,-0.007812,0.000000,0.000000,-0.001640,-0.019775,-0.011475,0.344482,0.000000,-0.000244,0.001709,0,0,0,0
73.943893,-1.628906,-1.046875,-0.007812,0.000000,0.000000,-0.001448,-0.019775,-0.011475,0.344482,-0.000488,0.002441,-0.001953,0,0,0,0
73.953659,-1.628906,-1.046875,-0.007812,0.000000,0.000000,-0.001390,-0.019775,-0.011475,0.344482,-0.002197,-0.003174,0.000244,0,0,0,0
73.963425,-1.628906,-1.046875,-0.007812,0.000000,0.000000,-0.001520,-0.019775,-0.011475,0.344482,0.000000,-0.000244,0.000244,0,0,0,0
73.973190,-1.628906,-1.046875,-0.007812,0.000000,0.000000,-0.001329,-0.019775,-0.011475,0.344482,-0.004883,0.000244,0.000244,0,0,0,0
73.982956,-1.628906,-1.046875,-0.007812,0.000000,0.000000,-0.002195,-0.019775,-0.011475,0.344482,0.000000,0.000732,-0.004150,0,0,0,0
73.992722,-1.628906,-1.046875,-0.007812,0.000000,0.000000,-0.002537,-0.019775,-0.011475,0.344482,-0.000977,-0.000732,-0.001953,0,0,0,0
74.002487,-1.628906,-1.046875,-0.007812,0.000000,0.000000,-0.002769,-0.019775,-0.011475,0.344482,-0.002686,-0.002197,-0.000488,0,0,0,0
74.012253,-1.628906,-1.046875,-0.007812,0.000000,0.000000,-0.002209,-0.019775,-0.011475,0.344482,-0.004883,0.000244,-0.000488,0,0,0,0
74.022018,-1.628906,-1.046875,-0.007812,0.000000,0.000000,-0.002472,-0.019775,-0.011475,0.344482,-0.003174,0.000244,0.000732,0,0,0,0
74.031784,-1.628906,-1.046875,-0.007812,0.000000,0.000000,-0.002569,-0.019775,-0.011475,0.344482,-0.005371,-0.001221,0.000244,0,0,0,0
74.041550,-1.628906,-1.046875,-0.007812,0.000000,0.000000,-0.002319,-0.019775,-0.011475,0.344482,0.000488,-0.000244,-0.000488,0,0,0,0
74.051308,-1.628906,-1.046875,-0.007812,0.000000,0.000000,-0.001478,-0.019775,-0.011475,0.344482,-0.005859,-0.003174,-0.001465,0,0,0,0
74.061081,-1.628906,-1.046875,-0.007812,0.000000,0.000000,-0.002832,-0.019775,-0.011475,0.344482,-0.000488,-0.000732,-0.000977,0,0,0,0
74.070839,-1.628906,-1.046875,-0.007812,0.000000,0.000000,-0.002480,-0.019775,-0.011475,0.344482,-0.003662,0.000244,0.000244,0,0,0,0
74.080612,-1.628906,-1.046875,-0.007812,0.000000,0.000000,-0.001478,-0.019775,-0.011475,0.344482,-0.002197,0.001709,0.000732,0,0,0,0
74.090370,-1.628906,-1.046875,-0.007812,0.000000,0.000000,-0.001596,-0.019775,-0.011475,0.344482,-0.002197,-0.001221,-0.000488,0,0,0,0
74.100143,-1.628906,-1.046875,-0.007812,0.000000,0.000000,-0.001480,-0.019791,-0.011549,0.344675,-0.003662,-0.001709,-0.000488,0,0,0,0
74.109901,-1.628906,-1.046875,-0.007812,0.000000,0.000000,-0.001244,-0.019775,-0.011475,0.344482,-0.002686,-0.001221,-0.001465,0,0,0,0
74.119675,-1.628906,-1.046875,-0.007812,0.000000,0.000000,-0.001019,-0.019775,-0.011475,0.344482,-0.003662,0.000244,0.000244,0,0,0,0
74.129433,-1.628906,-1.046875,-0.007812,0.000000,0.000000,-0.001080,-0.019775,-0.011475,0.344482,-0.003174,0.000732,0.001709,0,0,0,0
74.139206,-1.628906,-1.046875,-0.007812,0.000000,0.000000,-0.002733,-0.019775,-0.011475,0.344482,-0.003662,-0.003906,0.000732,0,0,0,0
74.148972,-1.628906,-1.046875,-0.007812,0.000000,0.000000,-0.001810,-0.019775,-0.011475,0.344482,-0.000977,0.000244,-0.000488,0,0,0,0
74.158730,-1.628906,-1.046875,-0.007812,0.000000,0.000000,-0.001648,-0.019775,-0.011475,0.344482,-0.002197,0.000244,-0.001465,0,0,0,0
74.168503,-1.628906,-1.046875,-0.007812,0.000000,0.000000,-0.002331,-0.019775,-0.011475,0.344482,-0.002686,-0.000244,0.000732,0,0,0,0
74.178268,-1.628906,-1.046875,-0.007812,0.000000,0.000000,-0.001669,-0.019775,-0.011475,0.344482,-0.005859,-0.001709,-0.000488,0,0,0,0
74.188034,-1.628906,-1.046875,-0.007812,0.000000,0.000000,-0.001764,-0.019775,-0.011475,0.344482,0.000000,-0.004883,-0.000488,0,0,0,0
74.197800,-1.628906,-1.046875,-0.007812,0.000000,0.000000,-0.001955,-0.019775,-0.011475,0.344482,-0.001465,-0.000732,0.000732,0,0,0,0
74.207558,-1.628906,-1.046875,-0.007812,0.000000,0.000000,-0.001663,-0.019775,-0.011475,0.344482,-0.002197,-0.002686,-0.000488,0,0,0,0
74.217323,-1.628906,-1.046875,-0.007812,0.000000,0.000000,-0.002918,-0.019775,-0.011475,0.344482,-0.000977,-0.000732,-0.000488,0,0,0,0
74.227089,-1.628906,-1.046875,-0.007812,0.000000,0.000000,-0.003139,-0.019775,-0.011475,0.344482,-0.004883,-0.000732,0.001221,0,0,0,0
74.236855,-1.628906,-1.046875,-0.007812,0.000000,0.000000,-0.003344,-0.019775,-0.011475,0.344482,-0.002197,-0.000244,-0.001953,0,0,0,0
74.246620,-1.628906,-1.046875,-0.007812,0.000000,0.000000,-0.002581,-0.019775,-0.011475,0.344482,-0.002197,-0.004150,0.001221,0,0,0,0
74.256393,-1.628906,-1.046875,-0.007812,0.000000,0.000000,-0.002600,-0.019775,-0.011475,0.344482,-0.000977,0.000488,0.001221,0,0,0,0
74.266159,-1.628906,-1.046875,-0.007812,0.000000,0.000000,-0.002636,-0.019775,-0.011475,0.344482,-0.000977,0.001465,-0.000977,0,0,0,0
74.275925,-1.628906,-1.046875,-0.007812,0.000000,0.000000,-0.002989,-0.019775,-0.011475,0.344482,-0.003662,0.000488,0.002197,0,0,0,0
74.285690,-1.628906,-1.046875,-0.007812,0.000000,0.000000,-0.002136,-0.019775,-0.011475,0.344482,-0.000977,-0.000977,0.000244,0,0,0,0
74.295456,-1.628906,-1.046875,-0.007812,0.000000,0.000000,-0.002899,-0.019775,-0.011475,0.344482,0.000977,-0.000977,-0.000488,0,0,0,0
74.305214,-1.628906,-1.046875,-0.007812,0.000000,0.000000,-0.002802,-0.019775,-0.011475,0.344482,-0.003174,-0.000488,-0.001465,0,0,0,0
74.314987,-1.628906,-1.046875,-0.007812,0.000000,0.000000,-0.002337,-0.019775,-0.011475,0.344482,-0.002197,-0.001953,0.000244,0,0,0,0
74.324753,-1.628906,-1.046875,-0.007812,0.000000,0.000000,-0.002424,-0.019775,-0.011475,0.344482,-0.000977,0.000488,-0.001465,0,0,0,0
74.334511,-1.628906,-1.046875,-0.007812,0.000000,0.000000,-0.002342,-0.019775,-0.011475,0.344482,-0.004883,0.000488,0.001709,0,0,0,0
74.344284,-1.628906,-1.046875,-0.007812,0.000000,0.000000,-0.001179,-0.019775,-0.011475,0.344482,-0.001465,0.000000,-0.001953,0,0,0,0
74.354050,-1.628906,-1.046875,-0.007812,0.000000,0.000000,-0.001059,-0.019775,-0.011475,0.344482,-0.002686,-0.000977,-0.000977,0,0,0,0
74.363815,-1.628906,-1.046875,-0.007812,0.000000,0.000000,-0.001095,-0.019775,-0.011475,0.344482,-0.002686,-0.001953,-0.001465,0,0,0,0
74.373581,-1.628906,-1.046875,-0.007812,0.000000,0.000000,-0.001186,-0.019775,-0.011475,0.344482,-0.002197,0.000488,-0.000977,0,0,0,0
74.383347,-1.628906,-1.046875,-0.007812,0.000000,0.000000,-0.001055,-0.019775,-0.011475,0.344482,-0.000977,-0.000977,0.002197,0,0,0,0
74.393105,-1.628906,-1.046875,-0.007812,0.000000,0.000000,-0.001348,-0.019775,-0.011475,0.344482,-0.002197,0.000977,0.002197,0,0,0,0
74.402885,-1.628906,-1.046875,-0.007812,0.000000,0.000000,-0.001307,-0.019851,-0.011539,0.344612,-0.000488,0.000977,-0.002441,0,0,0,0
74.412643,-1.628906,-1.046875,-0.007812,0.000000,0.000000,-0.001017,-0.019775,-0.011475,0.344482,-0.002686,-0.000977,-0.000977,0,0,0,0
74.422401,-1.628906,-1.046875,-0.007812,0.000000,0.000000,-0.000921,-0.019775,-0.011475,0.344482,-0.003662,-0.000488,0.002930,0,0,0,0
74.432175,-1.628906,-1.046875,-0.007812,0.000000,0.000000,-0.001295,-0.019775,-0.011475,0.344482,-0.000977,0.000000,0.000732,0,0,0,0
74.441933,-1.628906,-1.046875,-0.007812,0.000000,0.000000,-0.001266,-0.019775,-0.011475,0.344482,-0.002686,-0.001465,0.000732,0,0,0,0
74.451698,-1.628906,-1.046875,-0.007812,0.000000,0.000000,-0.001585,-0.019775,-0.011475,0.344482,-0.000488,0.000000,0.002197,0,0,0,0
74.461472,-1.628906,-1.046875,-0.007812,0.000000,0.000000,-0.001486,-0.019775,-0.011475,0.344482,0.000488,0.000000,-0.000488,0,0,0,0
74.471237,-1.628906,-1.046875,-0.007812,0.000000,0.000000,-0.001463,-0.019775,-0.011475,0.344482,-0.002686,0.000488,0.001221,0,0,0,0
74.481003,-1.628906,-1.046875,-0.007812,0.000000,0.000000,-0.001133,-0.019775,-0.011475,0.344482,-0.001465,-0.000488,0.002197,0,0,0,0
74.490768,-1.628906,-1.046875,-0.007812,0.000000,0.000000,-0.000788,-0.019775,-0.011475,0.344482,-0.002686,0.001465,0.000244,0,0,0,0
74.500526,-1.628906,-1.046875,-0.007812,0.000000,0.000000,-0.000875,-0.019775,-0.011475,0.344482,-0.002686,0.000000,0.001221,0,0,0,0
74.510300,-1.628906,-1.046875,-0.007812,0.000000,0.000000,-0.000801,-0.019775,-0.011475,0.344482,-0.002197,0.000977,0.000244,0,0,0,0
74.520065,-1.628906,-1.046875,-0.007812,0.000000,0.000000,-0.000267,-0.019775,-0.011475,0.344482,-0.003174,-0.000488,0.003906,0,0,0,0
74.529831,-1.628906,-1.046875,-0.007812,0.000000,0.000000,-0.000586,-0.019775,-0.011475,0.344482,-0.002197,-0.001465,0.000732,0,0,0,0
74.539597,-1.628906,-1.046875,-0.007812,0.000000,0.000000,-0.000109,-0.019775,-0.011475,0.344482,-0.001465,0.001953,-0.000488,0,0,0,0
74.549362,-1.628906,-1.046875,-0.007812,0.000000,0.000000,0.000235,-0.019775,-0.011475,0.344482,-0.000488,0.000488,0.000732,0,0,0,0
74.559128,-1.628906,-1.046875,-0.007812,0.000000,0.000000,0.000269,-0.019775,-0.011475,0.344482,0.000000,-0.000977,-0.000488,0,0,0,0
74.568893,-1.628906,-1.046875,-0.007812,0.000000,0.000000,0.000332,-0.019775,-0.011475,0.344482,-0.004150,-0.001465,0.003906,0,0,0,0
74.578659,-1.628906,-1.046875,-0.007812,0.000000,0.000000,0.000416,-0.019775,-0.011475,0.344482,0.001709,0.001465,-0.000977,0,0,0,0
74.588425,-1.628906,-1.046875,-0.007812,0.000000,0.000000,0.000038,-0.019775,-0.011475,0.344482,-0.002197,-0.000488,0.000244,0,0,0,0
74.598190,-1.628906,-1.046875,-0.007812,0.000000,0.000000,0.000151,-0.019775,-0.011475,0.344482,-0.003662,-0.001465,0.000732,0,0,0,0
74.607956,-1.628906,-1.046875,-0.007812,0.000000,0.000000,-0.000784,-0.019775,-0.011475,0.344482,-0.002197,0.000977,0.000732,0,0,0,0
74.617722,-1.628906,-1.046875,-0.007812,0.000000,0.000000,-0.000891,-0.019775,-0.011475,0.344482,-0.000977,-0.000977,0.001709,0,0,0,0
74.627487,-1.628906,-1.046875,-0.007812,0.000000,0.000000,-0.000650,-0.019775,-0.011475,0.344482,-0.003174,-0.000977,0.000732,0,0,0,0
74.637253,-1.628906,-1.046875,-0.007812,0.000000,0.000000,-0.000973,-0.019775,-0.011475,0.344482,-0.000977,-0.001465,0.003418,0,0,0,0
74.647018,-1.628906,-1.046875,-0.007812,0.000000,0.000000,-0.000614,-0.019775,-0.011475,0.344482,-0.001465,0.000977,0.000244,0,0,0,0
74.656776,-1.628906,-1.046875,-0.007812,0.000000,0.000000,-0.000992,-0.019775,-0.011475,0.344482,-0.004150,-0.001465,0.000244,0,0,0,0
74.666550,-1.628906,-1.046875,-0.007812,0.000000,0.000000,-0.001072,-0.019775,-0.011475,0.344482,-0.003174,-0.000977,0.000732,0,0,0,0
74.676315,-1.628906,-1.046875,-0.007812,0.000000,0.000000,-0.001427,-0.019775,-0.011475,0.344482,-0.003662,0.000488,0.001709,0,0,0,0
74.686073,-1.628906,-1.046875,-0.007812,0.000000,0.000000,-0.001999,-0.019775,-0.011475,0.344482,-0.002686,-0.000977,0.000732,0,0,0,0
74.695839,-1.628906,-1.046875,-0.007812,0.000000,0.000000,-0.002399,-0.019775,-0.011475,0.344482,-0.000488,0.000977,-0.000977,0,0,0,0
74.705605,-1.628906,-1.046875,-0.007812,0.000000,0.000000,-0.002516,-0.019775,-0.011475,0.344482,-0.002686,-0.001465,0.000244,0,0,0,0
74.715378,-1.628906,-1.046875,-0.007812,0.000000,0.000000,-0.001913,-0.019775,-0.011475,0.344482,-0.003174,-0.000977,0.001221,0,0,0,0
74.725136,-1.628906,-1.046875,-0.007812,0.000000,0.000000,-0.001867,-0.020020,-0.011475,0.344482,-0.004150,0.001953,0.000732,0,0,0,0
74.734901,-1.628906,-1.046875,-0.007812,0.000000,0.000000,-0.001772,-0.020020,-0.011230,0.344482,-0.003662,0.001953,0.000732,0,0,0,0
74.744675,-1.628906,-1.046875,-0.007812,0.000000,0.000000,-0.001720,-0.020020,-0.011230,0.344482,-0.000977,0.001465,-0.000977,0,0,0,0
74.754433,-1.628906,-1.046875,-0.007812,0.000000,0.000000,-0.001863,-0.020020,-0.011230,0.344482,-0.000977,0.000977,-0.001465,0,0,0,0
74.764198,-1.628906,-1.046875,-0.007812,0.000000,0.000000,-0.002998,-0.020020,-0.011230,0.344482,-0.005371,-0.001465,-0.002441,0,0,0,0
74.773972,-1.628906,-1.046875,-0.007812,0.000000,0.000000,-0.002983,-0.019950,-0.011397,0.344611,-0.004150,0.001953,0.000732,0,0,0,0
74.783730,-1.628906,-1.046875,-0.007812,0.000000,0.000000,-0.002783,-0.020020,-0.011230,0.344482,0.000000,0.000000,-0.001953,0,0,0,0
74.793495,-1.628906,-1.046875,-0.007812,0.000000,0.000000,-0.002615,-0.020020,-0.011230,0.344482,-0.004150,0.002686,0.001221,0,0,0,0
74.803261,-1.628906,-1.046875,-0.007812,0.000000,0.000000,-0.003126,-0.020020,-0.011230,0.344482,-0.003174,0.001953,-0.000488,0,0,0,0
74.813026,-1.628906,-1.046875,-0.007812,0.000000,0.000000,-0.002474,-0.020020,-0.011230,0.344482,-0.002686,0.001465,0.002930,0,0,0,0
74.822792,-1.628906,-1.046875,-0.007812,0.000000,0.000000,-0.002447,-0.020020,-0.011230,0.344482,-0.003662,-0.001953,0.000732,0,0,0,0
74.832558,-1.628906,-1.046875,-0.007812,0.000000,0.000000,-0.002575,-0.020020,-0.011230,0.344482,-0.002197,0.000000,0.002930,0,0,0,0
74.842323,-1.628906,-1.046875,-0.007812,0.000000,0.000000,-0.003637,-0.020020,-0.011230,0.344482,-0.000977,0.000000,0.001221,0,0,0,0
74.852089,-1.628906,-1.046875,-0.007812,0.000000,0.000000,-0.002636,-0.020020,-0.011230,0.344482,-0.000488,-0.000488,-0.002441,0,0,0,0
74.861862,-1.628906,-1.046875,-0.007812,0.000000,0.000000,-0.002565,-0.020020,-0.011230,0.344482,-0.004883,-0.001465,-0.000488,0,0,0,0
74.871628,-1.628906,-1.046875,-0.007812,0.000000,0.000000,-0.002131,-0.019775,-0.011230,0.344482,0.000000,0.000000,0.001709,0,0,0,0
74.881386,-1.628906,-1.046875,-0.007812,0.000000,0.000000,-0.001345,-0.019775,-0.011230,0.344482,-0.000488,0.002686,0.000732,0,0,0,0
74.891151,-1.628906,-1.046875,-0.007812,0.000000,0.000000,-0.001379,-0.019775,-0.011230,0.344482,-0.001953,-0.000488,0.000732,0,0,0,0
74.900917,-1.628906,-1.046875,-0.007812,0.000000,0.000000,-0.001085,-0.019775,-0.011230,0.344482,-0.002930,-0.001465,0.001221,0,0,0,0
74.910683,-1.628906,-1.046875,-0.007812,0.000000,0.000000,-0.000969,-0.019775,-0.011230,0.344482,0.001221,0.004150,0.000244,0,0,0,0
74.920448,-1.628906,-1.046875,-0.007812,0.000000,0.000000,-0.000811,-0.019775,-0.011230,0.344482,-0.002930,0.001953,-0.000977,0,0,0,0
74.930214,-1.628906,-1.046875,-0.007812,0.000000,0.000000,-0.001030,-0.019775,-0.011230,0.344482,-0.002441,-0.000977,-0.001465,0,0,0,0
74.939980,-1.628906,-1.046875,-0.007812,0.000000,0.000000,-0.001560,-0.019775,-0.011230,0.344482,-0.001953,-0.000977,0.000244,0,0,0,0
74.949753,-1.628906,-1.046875,-0.007812,0.000000,0.000000,-0.001120,-0.019775,-0.011230,0.344482,-0.003418,-0.000977,-0.000488,0,0,0,0
74.959511,-1.628906,-1.046875,-0.007812,0.000000,0.000000,-0.001112,-0.019775,-0.011230,0.344482,-0.001221,-0.000977,0.001221,0,0,0,0
74.969276,-1.628906,-1.046875,-0.007812,0.000000,0.000000,-0.001179,-0.019775,-0.011230,0.344482,-0.000732,0.000000,-0.001953,0,0,0,0
74.980026,-1.628906,-1.046875,-0.007812,0.000000,0.000000,-0.001471,-0.019775,-0.011230,0.344482,-0.000244,-0.001465,-0.001465,0,0,0,0
74.988815,-1.628906,-1.046875,-0.007812,0.000000,0.000000,-0.000942,-0.019775,-0.011230,0.344482,-0.002441,0.000488,-0.000977,0,0,0,0
74.998581,-1.628906,-1.046875,-0.007812,0.000000,0.000000,-0.001402,-0.019775,-0.011230,0.344482,-0.003906,0.000488,-0.000977,0,0,0,0
75.008347,-1.628906,-1.046875,-0.007812,0.000000,0.000000,-0.001572,-0.019775,-0.011230,0.344482,-0.000244,0.001465,0.001709,0,0,0,0
75.018112,-1.628906,-1.046875,-0.007812,0.000000,0.000000,-0.001072,-0.019775,-0.011230,0.344482,-0.001953,0.000000,-0.000488,0,0,0,0
75.027878,-1.628906,-1.046875,-0.007812,0.000000,0.000000,-0.001173,-0.019775,-0.011230,0.344482,0.001953,0.001953,0.002197,0,0,0,0
75.037643,-1.628906,-1.046875,-0.007812,0.000000,0.000000,-0.001490,-0.019775,-0.011230,0.344482,-0.000244,-0.000488,0.002197,0,0,0,0
75.047409,-1.628906,-1.046875,-0.007812,0.000000,0.000000,-0.001272,-0.019775,-0.011230,0.344482,-0.000732,-0.000977,0.000244,0,0,0,0
75.057190,-1.628906,-1.046875,-0.007812,0.000000,0.000000,-0.000658,-0.019775,-0.011230,0.344482,-0.001953,0.000977,0.000244,0,0,0,0
75.066963,-1.628906,-1.046875,-0.007812,0.000000,0.000000,-0.000551,-0.019775,-0.011230,0.344482,-0.001953,0.001953,0.000244,0,0,0,0
75.076706,-1.628906,-1.046875,-0.007812,0.000000,0.000000,-0.000349,-0.019919,-0.011217,0.344609,-0.001221,-0.001465,0.000244,0,0,0,0
75.086472,-1.628906,-1.046875,-0.007812,0.000000,0.000000,0.000038,-0.019775,-0.011230,0.344482,-0.000732,0.000000,-0.000977,0,0,0,0
75.096230,-1.628906,-1.046875,-0.007812,0.000000,0.000000,-0.000053,-0.019775,-0.011230,0.344482,-0.000244,0.000488,0.001221,0,0,0,0
75.106003,-1.628906,-1.046875,-0.007812,0.000000,0.000000,0.000216,-0.019775,-0.011230,0.344482,0.000244,0.000488,0.001709,0,0,0,0
75.115768,-1.628906,-1.046875,-0.007812,0.000000,0.000000,0.000477,-0.019775,-0.011230,0.344482,-0.001221,0.000000,0.001221,0,0,0,0
75.125526,-1.628906,-1.046875,-0.007812,0.000000,0.000000,0.000486,-0.019775,-0.011230,0.344482,-0.002441,0.000488,-0.000977,0,0,0,0
75.135315,-1.628906,-1.046875,-0.007812,0.000000,0.000000,0.000427,-0.019775,-0.011230,0.344482,-0.003418,-0.000488,0.001709,0,0,0,0
75.145065,-1.628906,-1.046875,-0.007812,0.000000,0.000000,0.000299,-0.019775,-0.011230,0.344482,-0.002930,-0.001465,0.002197,0,0,0,0
75.154823,-1.628906,-1.046875,-0.007812,0.000000,0.000000,0.000450,-0.019775,-0.011230,0.344482,-0.001221,0.001953,0.000244,0,0,0,0
75.164589,-1.628906,-1.046875,-0.007812,0.000000,0.000000,0.000340,-0.019775,-0.011230,0.344482,-0.002930,0.000488,0.001709,0,0,0,0
75.174355,-1.628906,-1.046875,-0.007812,0.000000,0.000000,0.000227,-0.019775,-0.010986,0.344482,-0.000244,0.000488,0.001221,0,0,0,0
75.184128,-1.628906,-1.046875,-0.007812,0.000000,0.000000,0.000248,-0.019775,-0.010986,0.344482,-0.003418,0.000977,0.001709,0,0,0,0
75.193893,-1.628906,-1.046875,-0.007812,0.000000,0.000000,0.000175,-0.019775,-0.010986,0.344482,0.000244,-0.000977,-0.000488,0,0,0,0
75.203651,-1.628906,-1.046875,-0.007812,0.000000,0.000000,0.000252,-0.019775,-0.010986,0.344482,-0.004639,-0.002441,0.001221,0,0,0,0
75.213425,-1.628906,-1.046875,-0.007812,0.000000,0.000000,0.000383,-0.019775,-0.010986,0.344482,-0.001221,0.000488,0.000732,0,0,0,0
75.223183,-1.628906,-1.046875,-0.007812,0.000000,0.000000,0.000723,-0.019775,-0.010986,0.344482,-0.000244,-0.000488,0.001221,0,0,0,0
75.232948,-1.628906,-1.046875,-0.007812,0.000000,0.000000,0.001627,-0.019775,-0.010986,0.344482,0.000244,-0.000977,-0.000977,0,0,0,0
75.242714,-1.628906,-1.046875,-0.007812,0.000000,0.000000,0.001568,-0.019775,-0.010986,0.344482,0.000244,0.000488,0.001221,0,0,0,0
75.252487,-1.628906,-1.046875,-0.007812,0.000000,0.000000,0.001558,-0.019775,-0.010986,0.344482,-0.001221,-0.000977,0.001221,0,0,0,0
75.262253,-1.628906,-1.046875,-0.007812,0.000000,0.000000,0.001385,-0.019775,-0.010986,0.344482,-0.002930,0.000000,0.000732,0,0,0,0
75.272018,-1.628906,-1.046875,-0.007812,0.000000,0.000000,0.001467,-0.019775,-0.010986,0.344482,-0.001953,0.002686,0.000732,0,0,0,0
75.281784,-1.628906,-1.046875,-0.007812,0.000000,0.000000,0.001650,-0.019775,-0.010986,0.344482,0.000732,-0.000488,-0.000977,0,0,0,0
75.291542,-1.628906,-1.046875,-0.007812,0.000000,0.000000,0.001606,-0.019775,-0.010986,0.344482,-0.001953,0.002686,0.003906,0,0,0,0
75.301315,-1.628906,-1.046875,-0.007812,0.000000,0.000000,0.001665,-0.019775,-0.010986,0.344482,-0.002441,-0.000488,0.001709,0,0,0,0
75.311073,-1.628906,-1.046875,-0.007812,0.000000,0.000000,0.001108,-0.019775,-0.010986,0.344482,-0.001221,-0.000488,0.000732,0,0,0,0
75.320839,-1.628906,-1.046875,-0.007812,0.000000,0.000000,0.001373,-0.019775,-0.010986,0.344482,-0.001221,-0.000488,-0.000488,0,0,0,0
75.330605,-1.628906,-1.046875,-0.007812,0.000000,0.000000,0.001476,-0.019775,-0.010986,0.344482,0.000244,-0.000977,0.002197,0,0,0,0
75.340370,-1.628906,-1.046875,-0.007812,0.000000,0.000000,0.000978,-0.019775,-0.010986,0.344482,-0.003906,0.000488,-0.000977,0,0,0,0
75.350136,-1.628906,-1.046875,-0.007812,0.000000,0.000000,0.000860,-0.019775,-0.010986,0.344482,-0.000732,0.000000,0.000732,0,0,0,0
75.359901,-1.628906,-1.046875,-0.007812,0.000000,0.000000,0.000999,-0.019775,-0.010986,0.344482,0.000244,-0.001465,0.000732,0,0,0,0
75.369690,-1.628906,-1.046875,-0.007812,0.000000,0.000000,0.000879,-0.019775,-0.010986,0.344482,-0.002441,0.000977,-0.002441,0,0,0,0
75.379433,-1.628906,-1.046875,-0.007812,0.000000,0.000000,0.001036,-0.019775,-0.010986,0.344482,-0.001221,0.000000,0.001221,0,0,0,0
75.389198,-1.628906,-1.046875,-0.007812,0.000000,0.000000,0.001823,-0.019775,-0.010986,0.344482,-0.002930,0.000488,0.001709,0,0,0,0
75.398979,-1.628906,-1.046875,-0.007812,0.000000,0.000000,0.001957,-0.019775,-0.010986,0.344482,-0.001953,0.000488,0.001221,0,0,0,0
75.408730,-1.628906,-1.046875,-0.007812,0.000000,0.000000,0.001837,-0.019775,-0.010986,0.344482,-0.003906,-0.000977,0.003906,0,0,0,0
75.418503,-1.628906,-1.046875,-0.007812,0.000000,0.000000,0.001179,-0.019775,-0.010986,0.344482,-0.002930,0.000000,-0.001465,0,0,0,0
75.428268,-1.628906,-1.046875,-0.007812,0.000000,0.000000,0.001528,-0.019775,-0.010986,0.344482,-0.003418,-0.000488,-0.003662,0,0,0,0
75.438034,-1.628906,-1.046875,-0.007812,0.000000,0.000000,0.001335,-0.019775,-0.010986,0.344482,-0.000244,0.000977,-0.000977,0,0,0,0
75.447800,-1.628906,-1.046875,-0.007812,0.000000,0.000000,0.001244,-0.019775,-0.010986,0.344482,-0.002441,0.003174,-0.000977,0,0,0,0
75.457558,-1.628906,-1.046875,-0.007812,0.000000,0.000000,0.000914,-0.019775,-0.010986,0.344482,-0.000244,0.002686,-0.000977,0,0,0,0
75.467323,-1.628906,-1.046875,-0.007812,0.000000,0.000000,0.000111,-0.019775,-0.010986,0.344482,-0.001953,0.000488,-0.001953,0,0,0,0
75.477089,-1.628906,-1.046875,-0.007812,0.000000,0.000000,-0.000191,-0.019775,-0.010986,0.344482,-0.000732,0.000977,-0.000488,0,0,0,0
75.486855,-1.628906,-1.046875,-0.007812,0.000000,0.000000,0.000015,-0.019775,-0.010986,0.344482,-0.003906,-0.000488,-0.000488,0,0,0,0
75.496620,-1.628906,-1.046875,-0.007812,0.000000,0.000000,-0.000069,-0.019775,-0.010986,0.344482,-0.001221,-0.001953,0.001221,0,0,0,0
75.506393,-1.628906,-1.046875,-0.007812,0.000000,0.000000,0.000147,-0.019775,-0.010986,0.344482,-0.005127,0.000977,0.002197,0,0,0,0
75.516151,-1.628906,-1.046875,-0.007812,0.000000,0.000000,0.000196,-0.019775,-0.010986,0.344482,-0.002441,-0.000977,-0.001465,0,0,0,0
75.525917,-1.628906,-1.046875,-0.007812,0.000000,0.000000,0.000242,-0.019775,-0.010986,0.344482,-0.002930,-0.000488,-0.000488,0,0,0,0
75.535683,-1.628906,-1.046875,-0.007812,0.000000,0.000000,0.000145,-0.019775,-0.010986,0.344482,-0.001953,-0.000977,0.000244,0,0,0,0
75.545448,-1.628906,-1.046875,-0.007812,0.000000,0.000000,-0.001007,-0.019775,-0.010986,0.344482,-0.003906,-0.001953,0.000732,0,0,0,0
75.555222,-1.628906,-1.046875,-0.007812,0.000000,0.000000,-0.000574,-0.019775,-0.010986,0.344482,-0.000732,-0.001953,-0.001953,0,0,0,0
75.564980,-1.628906,-1.046875,-0.007812,0.000000,0.000000,-0.000851,-0.019775,-0.010986,0.344482,-0.001221,-0.000488,0.001709,0,0,0,0
75.574745,-1.628906,-1.046875,-0.007812,0.000000,0.000000,-0.000618,-0.019775,-0.010986,0.344482,-0.001953,0.000977,0.000732,0,0,0,0
75.584511,-1.628906,-1.046875,-0.007812,0.000000,0.000000,0.000334,-0.019775,-0.010986,0.344482,0.000244,-0.002930,-0.002441,0,0,0,0
75.594276,-1.628906,-1.046875,-0.007812,0.000000,0.000000,0.000299,-0.019775,-0.010986,0.344482,-0.003906,0.000000,-0.000488,0,0,0,0
75.604050,-1.628906,-1.046875,-0.007812,0.000000,0.000000,0.000410,-0.019775,-0.010986,0.344482,-0.000244,0.000000,0.000732,0,0,0,0
75.613808,-1.628906,-1.046875,-0.007812,0.000000,0.000000,0.000462,-0.019775,-0.010986,0.344482,-0.001953,0.000000,0.001709,0,0,0,0
75.623573,-1.628906,-1.046875,-0.007812,0.000000,0.000000,-0.000315,-0.019775,-0.010986,0.344482,-0.001953,0.000488,0.000244,0,0,0,0
75.633339,-1.628906,-1.046875,-0.007812,0.000000,0.000000,-0.000460,-0.019775,-0.010986,0.344482,-0.002930,0.001953,-0.001465,0,0,0,0
75.643105,-1.628906,-1.046875,-0.007812,0.000000,0.000000,-0.000586,-0.019775,-0.010986,0.344482,-0.001953,0.000488,0.001221,0,0,0,0
75.652878,-1.628906,-1.046875,-0.007812,0.000000,0.000000,-0.000031,-0.019775,-0.010986,0.344482,-0.000244,0.000977,-0.000488,0,0,0,0
75.662643,-1.628906,-1.046875,-0.007812,0.000000,0.000000,-0.000229,-0.019775,-0.010986,0.344482,-0.001953,0.000488,-0.002441,0,0,0,0
75.672401,-1.628906,-1.046875,-0.007812,0.000000,0.000000,-0.000092,-0.019775,-0.010986,0.344482,0.000244,0.001953,-0.001465,0,0,0,0
75.682167,-1.628906,-1.046875,-0.007812,0.000000,0.000000,0.000368,-0.019775,-0.010986,0.344482,-0.001221,0.001953,0.000732,0,0,0,0
75.691933,-1.628906,-1.046875,-0.007812,0.000000,0.000000,0.000481,-0.019775,-0.010986,0.344482,-0.001221,-0.002441,0.000732,0,0,0,0
75.701698,-1.628906,-1.046875,-0.007812,0.000000,0.000000,-0.000378,-0.019775,-0.010986,0.344482,-0.001221,-0.001953,-0.000488,0,0,0,0
75.711472,-1.628906,-1.046875,-0.007812,0.000000,0.000000,-0.000475,-0.019775,-0.010986,0.344482,0.000732,-0.004150,0.000244,0,0,0,0
75.721230,-1.628906,-1.046875,-0.007812,0.000000,0.000000,0.000113,-0.019775,-0.010986,0.344482,-0.000244,-0.001465,-0.000488,0,0,0,0
75.730995,-1.628906,-1.046875,-0.007812,0.000000,0.000000,0.000244,-0.019775,-0.010986,0.344482,0.000244,-0.002930,0.000244,0,0,0,0
75.740761,-1.628906,-1.046875,-0.007812,0.000000,0.000000,0.000057,-0.019775,-0.010986,0.344482,-0.000244,-0.001465,0.001221,0,0,0,0
75.750534,-1.628906,-1.046875,-0.007812,0.000000,0.000000,0.000706,-0.019816,-0.010987,0.344541,0.001953,0.001953,-0.000977,0,0,0,0
75.760300,-1.628906,-1.046875,-0.007812,0.000000,0.000000,0.000355,-0.019775,-0.010986,0.344482,-0.001221,-0.001465,0.001709,0,0,0,0
75.770058,-1.628906,-1.046875,-0.007812,0.000000,0.000000,0.000347,-0.019775,-0.010986,0.344482,0.001953,0.000488,0.000732,0,0,0,0
75.779823,-1.628906,-1.046875,-0.007812,0.000000,0.000000,-0.001492,-0.019775,-0.010986,0.344482,-0.000244,-0.001465,0.000732,0,0,0,0
75.789589,-1.628906,-1.046875,-0.007812,0.000000,0.000000,-0.000767,-0.019775,-0.010986,0.344482,-0.003418,0.000977,-0.000977,0,0,0,0
75.799362,-1.628906,-1.046875,-0.007812,0.000000,0.000000,-0.000608,-0.019775,-0.010986,0.344482,-0.000732,0.000488,0.001709,0,0,0,0
75.809128,-1.628906,-1.046875,-0.007812,0.000000,0.000000,-0.000463,-0.019775,-0.010986,0.344482,-0.002930,0.000977,0.001221,0,0,0,0
75.818886,-1.628906,-1.046875,-0.007812,0.000000,0.000000,0.000244,-0.019775,-0.010986,0.344482,-0.001953,-0.000977,0.000244,0,0,0,0
75.828651,-1.628906,-1.046875,-0.007812,0.000000,0.000000,0.000610,-0.019775,-0.010986,0.344482,-0.000732,-0.000488,0.000244,0,0,0,0
75.838440,-1.628906,-1.046875,-0.007812,0.000000,0.000000,0.000776,-0.019775,-0.010986,0.344482,-0.002930,0.000000,0.001709,0,0,0,0
75.848190,-1.628906,-1.046875,-0.007812,0.000000,0.000000,0.000818,-0.019775,-0.010742,0.344482,-0.001221,0.002686,0.001221,0,0,0,0
75.857948,-1.628906,-1.046875,-0.007812,0.000000,0.000000,0.001854,-0.019775,-0.010742,0.344482,0.001953,0.000977,0.000732,0,0,0,0
75.867722,-1.628906,-1.046875,-0.007812,0.000000,0.000000,0.001505,-0.019775,-0.010742,0.344482,0.000732,0.001953,0.000244,0,0,0,0
75.877480,-1.628906,-1.046875,-0.007812,0.000000,0.000000,0.001381,-0.019775,-0.010742,0.344482,-0.000732,0.001465,0.000732,0,0,0,0
75.887245,-1.628906,-1.046875,-0.007812,0.000000,0.000000,0.001757,-0.019775,-0.010742,0.344482,-0.003418,0.000000,0.001221,0,0,0,0
75.897011,-1.628906,-1.046875,-0.007812,0.000000,0.000000,0.001947,-0.019775,-0.010742,0.344482,-0.002930,-0.000488,-0.000488,0,0,0,0
75.906776,-1.628906,-1.046875,-0.007812,0.000000,0.000000,0.001806,-0.019775,-0.010742,0.344482,-0.001221,-0.001465,-0.000488,0,0,0,0
75.916542,-1.628906,-1.046875,-0.007812,0.000000,0.000000,0.001642,-0.019775,-0.010742,0.344482,-0.000244,-0.000977,0.000732,0,0,0,0
75.926308,-1.628906,-1.046875,-0.007812,0.000000,0.000000,0.001560,-0.019775,-0.010742,0.344482,-0.001953,0.000000,-0.000488,0,0,0,0
75.936073,-1.628906,-1.046875,-0.007812,0.000000,0.000000,0.002214,-0.019775,-0.010742,0.344482,0.000244,0.000977,-0.000488,0,0,0,0
75.945839,-1.628906,-1.046875,-0.007812,0.000000,0.000000,0.002554,-0.019775,-0.010742,0.344482,-0.001221,0.000488,0.000732,0,0,0,0
75.955605,-1.628906,-1.046875,-0.007812,0.000000,0.000000,0.002146,-0.019775,-0.010742,0.344482,-0.001953,0.001465,0.001709,0,0,0,0
75.965370,-1.628906,-1.046875,-0.007812,0.000000,0.000000,0.002111,-0.019775,-0.010742,0.344482,-0.000244,-0.001465,0.001221,0,0,0,0
75.975143,-1.628906,-1.046875,-0.007812,0.000000,0.000000,0.002077,-0.019775,-0.010742,0.344482,0.000732,-0.004639,0.002197,0,0,0,0
75.984901,-1.628906,-1.046875,-0.007812,0.000000,0.000000,0.002014,-0.019775,-0.010742,0.344482,-0.002441,-0.001465,-0.000977,0,0,0,0
75.994667,-1.628906,-1.046875,-0.007812,0.000000,0.000000,0.002005,-0.019775,-0.010742,0.344482,-0.001953,0.000977,0.001709,0,0,0,0
76.004433,-1.628906,-1.046875,-0.007812,0.000000,0.000000,0.001986,-0.019775,-0.010742,0.344482,-0.002441,-0.001465,0.002930,0,0,0,0
76.014198,-1.628906,-1.046875,-0.007812,0.000000,0.000000,0.001135,-0.019775,-0.010742,0.344482,-0.001221,-0.000488,0.000732,0,0,0,0
76.023964,-1.628906,-1.046875,-0.007812,0.000000,0.000000,0.001045,-0.019775,-0.010742,0.344482,-0.003418,-0.001465,-0.000488,0,0,0,0
76.033730,-1.628906,-1.046875,-0.007812,0.000000,0.000000,0.000929,-0.019775,-0.010742,0.344482,-0.002441,-0.000977,0.002197,0,0,0,0
76.043495,-1.628906,-1.046875,-0.007812,0.000000,0.000000,0.000805,-0.019775,-0.010742,0.344482,-0.001221,-0.001953,0.001709,0,0,0,0
76.053268,-1.628906,-1.046875,-0.007812,0.000000,0.000000,0.000828,-0.019735,-0.010878,0.344539,-0.003418,-0.001465,0.001221,0,0,0,0
76.063026,-1.628906,-1.046875,-0.007812,0.000000,0.000000,0.000679,-0.019775,-0.010742,0.344482,-0.002930,-0.001465,0.002197,0,0,0,0
76.072792,-1.628906,-1.046875,-0.007812,0.000000,0.000000,0.000931,-0.019775,-0.010742,0.344482,-0.005127,-0.000977,0.000244,0,0,0,0
76.082558,-1.628906,-1.046875,-0.007812,0.000000,0.000000,0.000971,-0.019775,-0.010742,0.344482,-0.005615,0.000488,0.002197,0,0,0,0
76.092339,-1.628906,-1.046875,-0.007812,0.000000,0.000000,0.001446,-0.019735,-0.010878,0.344539,-0.003418,-0.000488,-0.001953,0,0,0,0
76.102089,-1.628906,-1.046875,-0.007812,0.000000,0.000000,0.001175,-0.019775,-0.010742,0.344482,-0.005615,-0.001465,-0.000977,0,0,0,0
76.111862,-1.628906,-1.046875,-0.007812,0.000000,0.000000,0.001312,-0.019775,-0.010742,0.344482,-0.000244,-0.001465,-0.000977,0,0,0,0
76.121628,-1.628906,-1.046875,-0.007812,0.000000,0.000000,0.001278,-0.019775,-0.010742,0.344238,-0.003906,0.000977,0.000244,0,0,0,0
76.131386,-1.628906,-1.046875,-0.007812,0.000000,0.000000,0.001547,-0.019775,-0.010742,0.344238,0.000244,0.001465,0.001709,0,0,0,0
76.141151,-1.628906,-1.046875,-0.007812,0.000000,0.000000,0.001507,-0.019775,-0.010742,0.344238,-0.003906,0.000488,0.000244,0,0,0,0
76.150917,-1.628906,-1.046875,-0.007812,0.000000,0.000000,0.001120,-0.019775,-0.010742,0.344238,-0.003418,-0.001953,0.000244,0,0,0,0
76.160683,-1.628906,-1.046875,-0.007812,0.000000,0.000000,0.000666,-0.019775,-0.010742,0.344238,-0.005615,0.000488,-0.000488,0,0,0,0
76.170456,-1.628906,-1.046875,-0.007812,0.000000,0.000000,0.001226,-0.019775,-0.010742,0.344238,-0.003906,-0.002441,0.000244,0,0,0,0
76.180214,-1.628906,-1.046875,-0.007812,0.000000,0.000000,0.001337,-0.019775,-0.010742,0.344238,-0.003418,-0.002441,-0.000488,0,0,0,0
76.189980,-1.628906,-1.046875,-0.007812,0.000000,0.000000,0.000959,-0.019775,-0.010742,0.344238,-0.002441,-0.004639,-0.000977,0,0,0,0
76.199753,-1.628906,-1.046875,-0.007812,0.000000,0.000000,0.000664,-0.019775,-0.010742,0.344238,-0.003906,0.000488,-0.000977,0,0,0,0
76.209511,-1.628906,-1.046875,-0.007812,0.000000,0.000000,0.000364,-0.019775,-0.010742,0.344238,-0.000732,-0.001953,0.001221,0,0,0,0
76.219284,-1.628906,-1.046875,-0.007812,0.000000,0.000000,0.000282,-0.019775,-0.010742,0.344238,-0.001221,-0.000977,0.001221,0,0,0,0
76.229042,-1.628906,-1.046875,-0.007812,0.000000,0.000000,-0.000029,-0.019775,-0.010742,0.344238,-0.003906,0.000488,0.001709,0,0,0,0
76.238808,-1.628906,-1.046875,-0.007812,0.000000,0.000000,-0.000265,-0.019775,-0.010742,0.344238,-0.000732,0.000488,0.000732,0,0,0,0
76.248581,-1.628906,-1.046875,-0.007812,0.000000,0.000000,0.000731,-0.019775,-0.010742,0.344238,-0.003906,0.001953,0.000244,0,0,0,0
76.258347,-1.628906,-1.046875,-0.007812,0.000000,0.000000,0.000570,-0.019775,-0.010742,0.344238,-0.006104,-0.000977,-0.001953,0,0,0,0
76.268112,-1.628906,-1.046875,-0.007812,0.000000,0.000000,0.000744,-0.019775,-0.010742,0.344238,-0.003418,0.000488,-0.000977,0,0,0,0
76.277878,-1.628906,-1.046875,-0.007812,0.000000,0.000000,0.000889,-0.019775,-0.010742,0.344238,-0.005127,-0.000488,-0.001465,0,0,0,0
76.287636,-1.628906,-1.046875,-0.007812,0.000000,0.000000,0.000948,-0.019775,-0.010742,0.344238,-0.002441,0.000977,0.001221,0,0,0,0
76.297409,-1.628906,-1.046875,-0.007812,0.000000,0.000000,0.000608,-0.019775,-0.010742,0.344238,-0.001221,0.003174,0.000244,0,0,0,0
76.307167,-1.628906,-1.046875,-0.007812,0.000000,0.000000,0.000357,-0.019775,-0.010742,0.344238,-0.002930,0.000000,0.000732,0,0,0,0
76.316933,-1.628906,-1.046875,-0.007812,0.000000,0.000000,0.000341,-0.019775,-0.010742,0.344238,-0.002930,-0.000977,-0.000488,0,0,0,0
76.326698,-1.628906,-1.046875,-0.007812,0.000000,0.000000,0.000393,-0.019775,-0.010742,0.344238,-0.001953,-0.002441,0.000244,0,0,0,0
76.336464,-1.628906,-1.046875,-0.007812,0.000000,0.000000,0.000679,-0.019775,-0.010742,0.344238,-0.002441,-0.001953,0.001221,0,0,0,0
76.346237,-1.628906,-1.046875,-0.007812,0.000000,0.000000,0.000963,-0.019775,-0.010742,0.344238,-0.003906,0.000488,-0.001465,0,0,0,0
76.355995,-1.628906,-1.046875,-0.007812,0.000000,0.000000,0.001049,-0.019775,-0.010742,0.344238,-0.002441,0.001465,0.000732,0,0,0,0
76.365761,-1.628906,-1.046875,-0.007812,0.000000,0.000000,0.000771,-0.019775,-0.010742,0.344238,-0.002441,-0.002930,-0.001465,0,0,0,0
76.375526,-1.628906,-1.046875,-0.007812,0.000000,0.000000,0.000597,-0.019775,-0.010742,0.344238,-0.002441,-0.002441,0.001221,0,0,0,0
76.385292,-1.628906,-1.046875,-0.007812,0.000000,0.000000,0.000517,-0.019775,-0.010742,0.344238,-0.001221,-0.001953,-0.000488,0,0,0,0
76.395058,-1.628906,-1.046875,-0.007812,0.000000,0.000000,0.000616,-0.019775,-0.010742,0.344238,-0.003418,-0.002930,-0.001465,0,0,0,0
76.404823,-1.628906,-1.046875,-0.007812,0.000000,0.000000,0.001003,-0.019775,-0.010742,0.344238,-0.002441,0.000977,0.003418,0,0,0,0
76.414589,-1.628906,-1.046875,-0.007812,0.000000,0.000000,0.001186,-0.019775,-0.010742,0.344238,0.000244,-0.000488,0.001709,0,0,0,0
76.424355,-1.628906,-1.046875,-0.007812,0.000000,0.000000,0.001114,-0.019775,-0.010742,0.344238,0.000244,0.000977,0.000732,0,0,0,0
76.434120,-1.628906,-1.046875,-0.007812,0.000000,0.000000,0.001244,-0.019775,-0.010742,0.344238,-0.001221,-0.000488,-0.000977,0,0,0,0
76.443886,-1.628906,-1.046875,-0.007812,0.000000,0.000000,0.001108,-0.019775,-0.010742,0.344238,-0.002930,-0.000488,0.001709,0,0,0,0
76.453651,-1.628906,-1.046875,-0.007812,0.000000,0.000000,0.000872,-0.019775,-0.010742,0.344238,-0.001221,0.000000,0.003418,0,0,0,0
76.463425,-1.628906,-1.046875,-0.007812,0.000000,0.000000,0.000830,-0.019775,-0.010498,0.344238,-0.002930,-0.003662,-0.000977,0,0,0,0
76.473206,-1.628906,-1.046875,-0.007812,0.000000,0.000000,0.000826,-0.019775,-0.010498,0.344238,-0.002441,0.000488,-0.002441,0,0,0,0
76.482948,-1.628906,-1.046875,-0.007812,0.000000,0.000000,0.001579,-0.019775,-0.010498,0.344238,-0.001221,-0.000977,-0.001465,0,0,0,0
76.492722,-1.628906,-1.046875,-0.007812,0.000000,0.000000,0.000971,-0.019775,-0.010498,0.344238,-0.001953,-0.000488,0.002197,0,0,0,0
76.502480,-1.628906,-1.046875,-0.007812,0.000000,0.000000,0.000999,-0.019775,-0.010498,0.344238,0.000244,0.000000,-0.002441,0,0,0,0
76.512245,-1.628906,-1.046875,-0.007812,0.000000,0.000000,0.001179,-0.019775,-0.010498,0.344238,-0.003418,-0.000488,0.000244,0,0,0,0
76.522011,-1.628906,-1.046875,-0.007812,0.000000,0.000000,0.001255,-0.019775,-0.010498,0.344238,0.000732,0.001953,0.002930,0,0,0,0
76.531776,-1.628906,-1.046875,-0.007812,0.000000,0.000000,0.000858,-0.019775,-0.010498,0.344238,-0.002930,0.000488,-0.000977,0,0,0,0
76.541542,-1.628906,-1.046875,-0.007812,0.000000,0.000000,0.000816,-0.019775,-0.010498,0.344238,-0.000244,-0.003662,0.001709,0,0,0,0
76.551308,-1.628906,-1.046875,-0.007812,0.000000,0.000000,0.000742,-0.019775,-0.010498,0.344238,-0.003418,0.001465,-0.000977,0,0,0,0
76.561073,-1.628906,-1.046875,-0.007812,0.000000,0.000000,0.001005,-0.019775,-0.010498,0.344238,-0.000244,0.000000,0.001709,0,0,0,0
76.570839,-1.628906,-1.046875,-0.007812,0.000000,0.000000,0.001223,-0.019775,-0.010498,0.344238,-0.002441,0.000000,0.001221,0,0,0,0
76.580605,-1.628906,-1.046875,-0.007812,0.000000,0.000000,0.001158,-0.019775,-0.010498,0.344238,-0.001221,-0.001465,-0.000977,0,0,0,0
76.590370,-1.628906,-1.046875,-0.007812,0.000000,0.000000,0.000364,-0.019775,-0.010498,0.344238,-0.000244,0.001465,0.000732,0,0,0,0
76.600143,-1.628906,-1.046875,-0.007812,0.000000,0.000000,0.000656,-0.019775,-0.010498,0.344238,0.000732,-0.001465,0.002197,0,0,0,0
76.609901,-1.628906,-1.046875,-0.007812,0.000000,0.000000,0.000666,-0.019775,-0.010498,0.344238,-0.000244,0.001953,0.002930,0,0,0,0
76.619667,-1.628906,-1.046875,-0.007812,0.000000,0.000000,0.000769,-0.019775,-0.010498,0.344238,0.001221,-0.000488,-0.001465,0,0,0,0
76.629440,-1.628906,-1.046875,-0.007812,0.000000,0.000000,0.000383,-0.019775,-0.010498,0.344238,-0.003418,-0.000488,-0.000488,0,0,0,0
76.639198,-1.628906,-1.046875,-0.007812,0.000000,0.000000,0.000793,-0.019775,-0.010498,0.344238,-0.001221,0.004639,-0.001953,0,0,0,0
76.648972,-1.628906,-1.046875,-0.007812,0.000000,0.000000,0.000851,-0.019775,-0.010498,0.344238,-0.001221,-0.000488,0.000244,0,0,0,0
76.658737,-1.628906,-1.046875,-0.007812,0.000000,0.000000,0.000898,-0.019775,-0.010498,0.344238,-0.000732,-0.000977,0.000732,0,0,0,0
76.668503,-1.628906,-1.046875,-0.007812,0.000000,0.000000,0.001286,-0.019775,-0.010498,0.344238,-0.000732,0.000977,0.001221,0,0,0,0
76.678268,-1.628906,-1.046875,-0.007812,0.000000,0.000000,0.001152,-0.019775,-0.010498,0.344238,-0.003418,0.000000,-0.002930,0,0,0,0
76.688026,-1.628906,-1.046875,-0.007812,0.000000,0.000000,0.001202,-0.019775,-0.010498,0.344238,-0.000244,-0.000488,-0.000488,0,0,0,0
76.697800,-1.628906,-1.046875,-0.007812,0.000000,0.000000,0.001284,-0.019775,-0.010498,0.344238,-0.001221,-0.000977,0.000244,0,0,0,0
76.707581,-1.628906,-1.046875,-0.007812,0.000000,0.000000,0.000984,-0.019775,-0.010498,0.344238,-0.002930,0.000488,-0.000488,0,0,0,0
76.717323,-1.628906,-1.046875,-0.007812,0.000000,0.000000,0.000853,-0.019775,-0.010498,0.344238,-0.003418,-0.001465,-0.000488,0,0,0,0
76.727097,-1.628906,-1.046875,-0.007812,0.000000,0.000000,0.000963,-0.019753,-0.010628,0.344419,-0.001953,0.000977,0.001221,0,0,0,0
76.736855,-1.628906,-1.046875,-0.007812,0.000000,0.000000,0.000748,-0.019775,-0.010498,0.344238,-0.001221,-0.002441,0.000732,0,0,0,0
76.746620,-1.628906,-1.046875,-0.007812,0.000000,0.000000,0.000340,-0.019775,-0.010498,0.344238,-0.000244,0.000977,0.003418,0,0,0,0
76.756393,-1.628906,-1.046875,-0.007812,0.000000,0.000000,0.000483,-0.019775,-0.010498,0.344238,-0.004639,0.000977,0.000244,0,0,0,0
76.766151,-1.628906,-1.046875,-0.007812,0.000000,0.000000,0.000778,-0.019775,-0.010498,0.344238,-0.001953,-0.000977,0.000244,0,0,0,0
76.775917,-1.628906,-1.046875,-0.007812,0.000000,0.000000,0.000628,-0.019775,-0.010498,0.344238,-0.001221,0.000977,-0.000488,0,0,0,0
76.785683,-1.628906,-1.046875,-0.007812,0.000000,0.000000,0.000597,-0.019775,-0.010498,0.344238,-0.002441,-0.002441,0.000244,0,0,0,0
76.795448,-1.628906,-1.046875,-0.007812,0.000000,0.000000,-0.000477,-0.019775,-0.010498,0.344238,0.000732,0.000000,-0.001465,0,0,0,0
76.805214,-1.628906,-1.046875,-0.007812,0.000000,0.000000,-0.000477,-0.019775,-0.010498,0.344238,-0.000732,0.000000,0.001221,0,0,0,0
76.814980,-1.628906,-1.046875,-0.007812,0.000000,0.000000,-0.000746,-0.019775,-0.010498,0.344238,-0.001953,0.000488,0.000244,0,0,0,0
76.824745,-1.628906,-1.046875,-0.007812,0.000000,0.000000,-0.000216,-0.019775,-0.010498,0.344238,-0.002441,0.000488,-0.000488,0,0,0,0
76.834511,-1.628906,-1.046875,-0.007812,0.000000,0.000000,-0.000093,-0.019775,-0.010498,0.344238,-0.001221,-0.002441,-0.000977,0,0,0,0
76.844284,-1.628906,-1.046875,-0.007812,0.000000,0.000000,-0.000433,-0.019775,-0.010498,0.344238,-0.003418,-0.001465,-0.000488,0,0,0,0
76.854042,-1.628906,-1.046875,-0.007812,0.000000,0.000000,-0.000565,-0.019775,-0.010498,0.344238,-0.003906,-0.001465,-0.001953,0,0,0,0
76.863815,-1.628906,-1.046875,-0.007812,0.000000,0.000000,-0.000200,-0.019775,-0.010498,0.344238,-0.001221,0.001953,0.000244,0,0,0,0
76.873581,-1.628906,-1.046875,-0.007812,0.000000,0.000000,-0.001377,-0.019775,-0.010498,0.344238,-0.002930,-0.000488,0.000244,0,0,0,0
76.883339,-1.628906,-1.046875,-0.007812,0.000000,0.000000,-0.000975,-0.019775,-0.010498,0.344238,-0.000244,0.000000,-0.001465,0,0,0,0
76.893105,-1.628906,-1.046875,-0.007812,0.000000,0.000000,-0.000357,-0.019775,-0.010498,0.344238,-0.000732,0.001465,-0.002441,0,0,0,0
76.902870,-1.628906,-1.046875,-0.007812,0.000000,0.000000,-0.000259,-0.019775,-0.010498,0.344238,-0.002930,-0.002930,0.000732,0,0,0,0
76.912636,-1.628906,-1.046875,-0.007812,0.000000,0.000000,-0.000452,-0.019775,-0.010498,0.344238,0.001221,-0.002930,-0.000977,0,0,0,0
76.922409,-1.628906,-1.046875,-0.007812,0.000000,0.000000,-0.000816,-0.019775,-0.010498,0.344238,-0.001221,-0.000977,0.001709,0,0,0,0
76.932167,-1.628906,-1.046875,-0.007812,0.000000,0.000000,-0.000599,-0.019775,-0.010498,0.344238,-0.003906,-0.001953,0.001221,0,0,0,0
76.941933,-1.628906,-1.046875,-0.007812,0.000000,0.000000,-0.000507,-0.019775,-0.010498,0.344238,-0.000244,-0.000488,-0.000977,0,0,0,0
76.951698,-1.628906,-1.046875,-0.007812,0.000000,0.000000,-0.001324,-0.019775,-0.010498,0.344238,-0.003906,0.000000,0.000244,0,0,0,0
76.961464,-1.628906,-1.046875,-0.007812,0.000000,0.000000,-0.000656,-0.019775,-0.010498,0.344238,-0.003418,0.000977,0.000244,0,0,0,0
76.971230,-1.628906,-1.046875,-0.007812,0.000000,0.000000,-0.000668,-0.019775,-0.010498,0.344238,-0.002441,0.000000,0.000244,0,0,0,0
76.980995,-1.628906,-1.046875,-0.007812,0.000000,0.000000,-0.000603,-0.019775,-0.010498,0.344238,-0.003418,0.000488,0.001709,0,0,0,0
76.990761,-1.628906,-1.046875,-0.007812,0.000000,0.000000,-0.000357,-0.019775,-0.010498,0.344238,-0.003418,0.000488,0.001709,0,0,0,0
77.000526,-1.628906,-1.046875,-0.007812,0.000000,0.000000,-0.000536,-0.019775,-0.010498,0.344238,-0.000244,-0.001465,-0.000488,0,0,0,0
77.010292,-1.628906,-1.046875,-0.007812,0.000000,0.000000,-0.000229,-0.019775,-0.010498,0.344238,-0.001221,-0.000488,0.002197,0,0,0,0
77.020058,-1.628906,-1.046875,-0.007812,0.000000,0.000000,0.000143,-0.019775,-0.010498,0.344238,0.001221,0.001953,-0.000488,0,0,0,0
77.029823,-1.628906,-1.046875,-0.007812,0.000000,0.000000,-0.000395,-0.019775,-0.010498,0.344238,-0.003906,-0.001465,0.001221,0,0,0,0
77.039589,-1.628906,-1.046875,-0.007812,0.000000,0.000000,-0.000336,-0.019775,-0.010498,0.344238,-0.002441,0.000000,0.002197,0,0,0,0
77.049362,-1.628906,-1.046875,-0.007812,0.000000,0.000000,-0.000647,-0.019775,-0.010498,0.344238,0.000244,-0.001465,0.000732,0,0,0,0
77.059120,-1.628906,-1.046875,-0.007812,0.000000,0.000000,-0.000395,-0.019775,-0.010498,0.344238,-0.003418,-0.000488,0.002930,0,0,0,0
77.068886,-1.628906,-1.046875,-0.007812,0.000000,0.000000,-0.000105,-0.019775,-0.010498,0.344238,0.000244,0.001953,0.002197,0,0,0,0
77.078659,-1.628906,-1.046875,-0.007812,0.000000,0.000000,-0.000439,-0.019775,-0.010498,0.344238,-0.001221,-0.001953,0.001221,0,0,0,0
77.088425,-1.628906,-1.046875,-0.007812,0.000000,0.000000,-0.001141,-0.019775,-0.010010,0.343994,-0.068848,0.036621,-0.027344,0,0,0,0
77.098183,-1.628906,-1.046875,-0.007812,0.000000,0.000000,0.001312,-0.019287,-0.010498,0.343994,0.199463,-0.115234,0.021484,0,0,0,0
77.107948,-1.628906,-1.046875,-0.007812,0.000000,0.000000,0.001154,-0.018555,-0.011230,0.344727,-0.044922,0.001465,0.096436,0,0,0,0
77.117729,-1.628906,-1.046875,-0.007812,0.000000,0.000000,-0.000591,-0.019775,-0.009766,0.344971,-0.148193,0.188232,-0.060303,0,0,0,0
77.127480,-1.628906,-1.046875,-0.007812,0.000000,0.000000,-0.000275,-0.019531,-0.009277,0.343262,0.139893,-0.046631,-0.187012,0,0,0,0
77.137245,-1.628906,-1.046875,-0.007812,0.000000,0.000000,-0.001421,-0.018555,-0.010742,0.343018,0.078369,-0.149902,0.144287,0,0,0,0
77.147026,-1.628906,-1.046875,-0.007812,0.000000,0.000000,-0.000305,-0.017578,-0.010986,0.345703,0.057617,0.103760,0.267334,0,0,0,0
77.156776,-1.628906,-1.046875,-0.007812,0.000000,0.000000,0.002508,-0.018799,-0.009521,0.345459,-0.213135,0.125000,-0.244385,0,0,0,0
77.166542,-1.628906,-1.046875,-0.007812,0.000000,0.000000,0.001520,-0.019287,-0.009766,0.342041,0.097900,-0.120117,-0.282227,0,0,0,0
77.176308,-1.628906,-1.046875,-0.007812,0.000000,0.000000,-0.001280,-0.017334,-0.010742,0.342529,0.155518,-0.069580,0.299805,0,0,0,0
77.186081,-1.628906,-1.046875,-0.007812,0.000000,0.000000,0.000931,-0.017578,-0.010498,0.346191,-0.079590,0.084961,0.273193,0,0,0,0
77.195839,-1.628906,-1.046875,-0.007812,0.000000,0.000000,0.003304,-0.019043,-0.009521,0.345215,-0.189209,0.063721,-0.338135,0,0,0,0
77.205605,-1.628906,-1.046875,-0.007812,0.000000,0.000000,0.002701,-0.017822,-0.010010,0.342041,0.310303,-0.092529,-0.210205,0,0,0,0
77.215378,-1.628906,-1.046875,-0.007812,0.000000,0.000000,0.000389,-0.016602,-0.010742,0.343262,-0.052490,-0.057373,0.350830,0,0,0,0
77.225136,-1.628906,-1.046875,-0.007812,0.000000,0.000000,0.002275,-0.017578,-0.010498,0.345947,-0.120605,0.073242,0.112305,0,0,0,0
77.234901,-1.628906,-1.046875,-0.007812,0.000000,0.000000,0.004011,-0.018066,-0.009521,0.344238,0.068604,0.057861,-0.319336,0,0,0,0
77.244675,-1.628906,-1.046875,-0.007812,0.000000,0.000000,0.002029,-0.016113,-0.010010,0.342529,0.189453,-0.093018,0.006104,0,0,0,0
77.254433,-1.628906,-1.046875,-0.007812,0.000000,0.000000,0.000643,-0.016357,-0.010742,0.344727,-0.132812,-0.045166,0.264160,0,0,0,0
77.264206,-1.628906,-1.046875,-0.007812,0.000000,0.000000,0.003454,-0.017334,-0.010254,0.344971,-0.088623,0.120117,-0.148682,0,0,0,0
77.273972,-1.628906,-1.046875,-0.007812,0.000000,0.000000,0.005093,-0.017090,-0.009766,0.343018,0.178711,0.003662,-0.157227,0,0,0,0
77.283745,-1.628906,-1.046875,-0.007812,0.000000,0.000000,0.001362,-0.015137,-0.010254,0.343750,0.088867,-0.085449,0.243408,0,0,0,0
77.293495,-1.628906,-1.046875,-0.007812,0.000000,0.000000,-0.000572,-0.015869,-0.010498,0.345459,-0.148193,0.010498,0.036865,0,0,0,0
77.303261,-1.628906,-1.046875,-0.007812,0.000000,0.000000,0.002645,-0.017334,-0.009766,0.343506,-0.089111,0.097900,-0.290771,0,0,0,0
77.313026,-1.628906,-1.046875,-0.007812,0.000000,0.000000,0.003155,-0.015869,-0.009766,0.342529,0.277832,-0.049316,0.098145,0,0,0,0
77.322792,-1.628906,-1.046875,-0.007812,0.000000,0.000000,0.000587,-0.014648,-0.010254,0.345215,-0.004639,-0.069092,0.306641,0,0,0,0
77.332558,-1.628906,-1.046875,-0.007812,0.000000,0.000000,0.000101,-0.015381,-0.010498,0.345703,-0.117432,0.020264,-0.212402,0,0,0,0
77.342323,-1.628906,-1.046875,-0.007812,0.000000,0.000000,0.001944,-0.016357,-0.010010,0.342285,-0.038086,0.066895,-0.279541,0,0,0,0
77.352089,-1.628906,-1.046875,-0.007812,0.000000,0.000000,0.002497,-0.014893,-0.010010,0.342529,0.233154,-0.005615,0.282227,0,0,0,0
77.361855,-1.628906,-1.046875,-0.007812,0.000000,0.000000,0.001348,-0.014160,-0.010254,0.346191,-0.047119,-0.064697,0.257080,0,0,0,0
77.371620,-1.628906,-1.046875,-0.007812,0.000000,0.000000,0.000969,-0.014648,-0.010498,0.345215,-0.073242,0.015869,-0.328369,0,0,0,0
77.381386,-1.628906,-1.046875,-0.007812,0.000000,0.000000,0.001154,-0.015137,-0.010010,0.341797,-0.005615,0.055908,-0.202393,0,0,0,0
77.391151,-1.628906,-1.046875,-0.007812,0.000000,0.000000,0.002317,-0.014160,-0.010010,0.343262,0.119873,-0.011475,0.337402,0,0,0,0
77.400925,-1.628906,-1.046875,-0.007812,0.000000,0.000000,0.004753,-0.013916,-0.010498,0.346436,0.026855,-0.071777,0.187500,0,0,0,0
77.410683,-1.628906,-1.046875,-0.007812,0.000000,0.000000,0.004137,-0.013428,-0.010742,0.344971,-0.050293,0.033936,-0.345947,0,0,0,0
77.420448,-1.628906,-1.046875,-0.007812,0.000000,0.000000,0.002182,-0.014404,-0.010010,0.342041,-0.032227,0.080322,-0.150635,0,0,0,0
77.430214,-1.628906,-1.046875,-0.007812,0.000000,0.000000,0.001949,-0.013672,-0.009766,0.343506,0.082031,-0.056885,0.331543,0,0,0,0
77.439980,-1.628906,-1.046875,-0.007812,0.000000,0.000000,0.006918,-0.012939,-0.010498,0.346191,0.120361,-0.090820,0.135742,0,0,0,0
77.449753,-1.628906,-1.046875,-0.007812,0.000000,0.000000,0.008032,-0.012939,-0.010742,0.344971,-0.157715,0.087158,-0.291748,0,0,0,0
77.459511,-1.628906,-1.046875,-0.007812,0.000000,0.000000,0.001642,-0.014648,-0.009766,0.342529,-0.101318,0.064941,-0.101807,0,0,0,0
77.469276,-1.628906,-1.046875,-0.007812,0.000000,0.000000,-0.000763,-0.013184,-0.010254,0.343750,0.276611,-0.147217,0.210938,0,0,0,0
77.479042,-1.628906,-1.046875,-0.007812,0.000000,0.000000,0.003197,-0.012695,-0.010742,0.344971,-0.177002,0.075439,0.064453,0,0,0,0
77.488808,-1.628906,-1.046875,-0.007812,0.000000,0.000000,0.006205,-0.013672,-0.009766,0.344727,0.090576,0.038818,-0.077881,0,0,0,0
77.498581,-1.628906,-1.046875,-0.007812,0.000000,0.000000,0.007532,-0.012207,-0.010498,0.343994,-0.013672,-0.104736,-0.082031,0,0,0,0
77.509315,-1.628906,-1.046875,-0.007812,0.000000,0.000000,0.005289,-0.014160,-0.010498,0.343506,-0.002441,0.084473,0.030029,0,0,0,0
77.519081,-1.628906,-1.046875,-0.007812,0.000000,0.000000,0.006336,-0.012695,-0.010254,0.343994,-0.003418,-0.023193,0.046875,0,0,0,0
77.528847,-1.628906,-1.046875,-0.007812,0.000000,0.000000,0.008709,-0.013184,-0.010254,0.344482,0.203857,0.001953,0.046387,0,0,0,0
77.538620,-1.628906,-1.046875,-0.007812,0.000000,0.000000,0.007448,-0.011719,-0.010498,0.344482,-0.220459,-0.022705,-0.053467,0,0,0,0
77.548386,-1.628906,-1.046875,-0.007812,0.000000,0.000000,0.007435,-0.013916,-0.010010,0.343750,0.150635,0.074951,-0.061279,0,0,0,0
77.558144,-1.628906,-1.046875,-0.007812,0.000000,0.000000,0.005840,-0.012207,-0.010254,0.343750,-0.109375,-0.070557,0.035889,0,0,0,0
77.567917,-1.628906,-1.046875,-0.007812,0.000000,0.000000,0.006216,-0.013184,-0.010254,0.344238,0.148438,0.028564,0.069336,0,0,0,0
77.577698,-1.628906,-1.046875,-0.007812,0.000000,0.000000,0.009262,-0.012451,-0.010498,0.344727,-0.135498,-0.022705,-0.020264,0,0,0,0
77.587440,-1.628906,-1.046875,-0.007812,0.000000,0.000000,0.010826,-0.013184,-0.010010,0.343994,0.146240,0.046631,-0.056641,0,0,0,0
77.597206,-1.628906,-1.046875,-0.007812,0.000000,0.000000,0.008736,-0.011963,-0.010498,0.343994,-0.113525,-0.051514,0.002930,0,0,0,0
77.606972,-1.628906,-1.046875,-0.007812,0.000000,0.000000,0.008005,-0.013428,-0.010010,0.343994,0.085693,0.055176,0.039062,0,0,0,0
77.616737,-1.628906,-1.046875,-0.007812,0.000000,0.000000,0.007927,-0.011719,-0.010254,0.344238,0.008301,-0.061523,0.025146,0,0,0,0
77.626503,-1.628906,-1.046875,-0.007812,0.000000,0.000000,0.007246,-0.013184,-0.010010,0.343994,-0.015137,0.050537,-0.042236,0,0,0,0
77.636269,-1.628906,-1.046875,-0.007812,0.000000,0.000000,0.007328,-0.011719,-0.010498,0.343994,0.011963,-0.066895,-0.002441,0,0,0,0
77.646034,-1.628906,-1.046875,-0.007812,0.000000,0.000000,0.005960,-0.013428,-0.010254,0.343750,-0.031006,0.067383,-0.003662,0,0,0,0
77.655807,-1.628906,-1.046875,-0.007812,0.000000,0.000000,0.009100,-0.011475,-0.010498,0.344238,0.083008,-0.074219,0.052246,0,0,0,0
77.665565,-1.628906,-1.046875,-0.007812,-0.009998,0.000000,0.006407,-0.013184,-0.010254,0.343994,-0.131592,0.080322,-0.030029,0,0,0,0
77.675331,-1.628906,-1.046875,-0.007812,-0.009998,0.000000,0.008177,-0.011719,-0.010254,0.343994,0.137939,-0.063232,0.007080,0,0,0,0
77.685097,-1.628906,-1.046875,-0.007812,-0.009998,0.000000,0.006664,-0.013428,-0.010254,0.343750,-0.196045,0.069092,-0.043701,0,0,0,0
77.694862,-1.628906,-1.046875,-0.007812,0.000000,0.000000,0.005955,-0.011719,-0.010254,0.343994,0.212891,-0.070068,0.053955,0,0,0,0
77.704636,-1.628906,-1.046875,-0.007812,0.000000,0.000000,0.004463,-0.012939,-0.010254,0.343994,-0.221191,0.066895,-0.026855,0,0,0,0
77.714401,-1.628906,-1.046875,-0.007812,0.000000,0.000000,0.006084,-0.011719,-0.010254,0.344238,0.228271,-0.066406,0.035156,0,0,0,0
77.724159,-1.628906,-1.046875,-0.007812,0.000000,0.000000,0.004227,-0.012939,-0.010498,0.343994,-0.271729,0.056396,-0.064941,0,0,0,0
77.733932,-1.628906,-1.046875,-0.007812,0.000000,0.000000,0.007740,-0.011963,-0.010254,0.343994,0.245361,-0.045654,0.049561,0,0,0,0
77.743690,-1.628906,-1.046875,-0.007812,0.000000,0.000000,0.006584,-0.012939,-0.010498,0.343994,-0.254639,0.042969,-0.021484,0,0,0,0
77.753464,-1.628906,-1.046875,-0.007812,0.000000,0.000000,0.007919,-0.011963,-0.010254,0.344238,0.273438,-0.052490,0.041748,0,0,0,0
77.763222,-1.628906,-1.046875,-0.007812,-0.009998,0.000000,0.005276,-0.012939,-0.010498,0.343994,-0.297607,0.027100,-0.058594,0,0,0,0
77.772987,-1.628906,-1.046875,-0.007812,-0.009998,0.000000,0.006752,-0.012451,-0.010010,0.343994,0.269287,-0.009521,0.040527,0,0,0,0
77.782761,-1.628906,-1.046875,-0.007812,-0.009998,0.000000,0.005175,-0.012695,-0.010498,0.343994,-0.244385,-0.000488,-0.033691,0,0,0,0
77.792526,-1.628906,-1.046875,-0.007812,0.000000,0.000000,0.005753,-0.012451,-0.010254,0.343994,0.260254,-0.009521,0.041748,0,0,0,0
77.802284,-1.628906,-1.046875,-0.007812,0.000000,0.000000,0.003246,-0.012451,-0.010498,0.343994,-0.249268,0.015869,-0.028320,0,0,0,0
77.812057,-1.628906,-1.046875,-0.007812,0.000000,0.000000,0.009077,-0.012939,-0.010010,0.343994,0.241699,-0.020020,0.020264,0,0,0,0
77.821823,-1.628906,-1.046875,-0.007812,0.000000,0.000000,0.007706,-0.012695,-0.010498,0.343994,-0.289795,0.005859,-0.031006,0,0,0,0
77.831589,-1.628906,-1.046875,-0.007812,0.000000,0.000000,0.006668,-0.013428,-0.010010,0.343994,0.231934,0.003662,0.035156,0,0,0,0
77.841354,-1.628906,-1.046875,-0.007812,0.000000,0.000000,0.005560,-0.012939,-0.010498,0.344238,-0.230225,-0.014648,-0.017822,0,0,0,0
77.851120,-1.628906,-1.046875,-0.007812,0.000000,0.000000,0.006411,-0.013672,-0.010010,0.343994,0.212891,-0.006104,-0.001953,0,0,0,0
77.860878,-1.628906,-1.046875,-0.007812,0.000000,0.000000,0.004154,-0.012939,-0.010498,0.343994,-0.206787,0.003174,-0.018311,0,0,0,0
77.870644,-1.628906,-1.046875,-0.007812,0.000000,0.000000,0.004997,-0.013672,-0.010010,0.343750,0.212402,0.012207,0.022461,0,0,0,0
77.880409,-1.628906,-1.046875,-0.007812,0.000000,0.000000,0.004713,-0.012451,-0.010498,0.343994,-0.173828,-0.024902,0.003418,0,0,0,0
77.890175,-1.628906,-1.046875,-0.007812,0.000000,0.000000,0.008476,-0.013916,-0.010010,0.343994,0.130371,0.032471,-0.008301,0,0,0,0
77.899940,-1.628906,-1.046875,-0.007812,0.000000,0.000000,0.006145,-0.012451,-0.010254,0.343994,-0.132324,-0.037109,-0.004150,0,0,0,0
77.909706,-1.628906,-1.046875,-0.007812,0.000000,0.000000,0.006569,-0.014160,-0.010010,0.343750,0.080811,0.031250,-0.005615,0,0,0,0
77.919472,-1.628906,-1.046875,-0.007812,0.000000,0.000000,0.006332,-0.012695,-0.010254,0.343994,-0.103027,-0.039307,0.023682,0,0,0,0
77.929237,-1.628906,-1.046875,-0.007812,0.000000,0.000000,0.003204,-0.014648,-0.010010,0.343994,0.043945,0.049316,-0.008789,0,0,0,0
77.939003,-1.628906,-1.046875,-0.007812,0.000000,0.000000,0.004770,-0.012939,-0.010254,0.343994,-0.052979,-0.063721,0.007568,0,0,0,0
77.948792,-1.628906,-1.046875,-0.007812,0.000000,0.000000,0.003309,-0.014648,-0.010010,0.343750,0.002930,0.069580,-0.021484,0,0,0,0
77.958534,-1.628906,-1.046875,-0.007812,0.000000,0.000000,0.003185,-0.012939,-0.010254,0.343994,0.009766,-0.060059,0.030518,0,0,0,0
77.968307,-1.628906,-1.046875,-0.007812,0.000000,0.000000,0.004534,-0.014648,-0.010010,0.343750,-0.028564,0.068604,-0.034180,0,0,0,0
77.978073,-1.628906,-1.046875,-0.007812,0.000000,0.000000,0.006342,-0.012695,-0.010010,0.343994,0.071289,-0.051514,0.024658,0,0,0,0
77.987839,-1.628906,-1.046875,-0.007812,0.000000,0.000000,0.004555,-0.014404,-0.009766,0.343750,-0.061523,0.063721,-0.027344,0,0,0,0
77.997597,-1.628906,-1.046875,-0.007812,0.000000,0.000000,0.003805,-0.012695,-0.010010,0.343994,0.108643,-0.074219,0.041748,0,0,0,0
78.007370,-1.628906,-1.046875,-0.007812,0.000000,0.000000,0.002556,-0.014404,-0.010010,0.343750,-0.122070,0.057861,-0.039062,0,0,0,0
78.017128,-1.628906,-1.046875,-0.007812,0.000000,0.000000,0.004025,-0.012695,-0.009766,0.343750,0.140625,-0.054199,0.047607,0,0,0,0
78.026901,-1.628906,-1.046875,-0.007812,0.000000,0.000000,0.002979,-0.014648,-0.009766,0.343750,-0.150391,0.062256,-0.038574,0,0,0,0
78.036659,-1.628906,-1.046875,-0.007812,0.000000,0.000000,0.002287,-0.012695,-0.009766,0.343750,0.178711,-0.067871,0.031982,0,0,0,0
78.046425,-1.628906,-1.046875,-0.007812,0.000000,0.000000,0.003994,-0.014648,-0.009766,0.343750,-0.191406,0.062744,-0.035156,0,0,0,0
78.056198,-1.628906,-1.046875,-0.007812,0.000000,0.000000,0.005079,-0.012695,-0.009521,0.343750,0.257568,-0.054688,0.049072,0,0,0,0
78.065956,-1.628906,-1.046875,-0.007812,0.000000,0.000000,0.002094,-0.014160,-0.009766,0.343750,-0.223145,0.045166,-0.058105,0,0,0,0
78.075722,-1.628906,-1.046875,-0.007812,0.000000,0.000000,0.003408,-0.012518,-0.009659,0.343864,0.249023,-0.045654,0.051758,0,0,0,0
78.085487,-1.628906,-1.046875,-0.007812,0.000000,0.000000,0.001797,-0.014160,-0.009766,0.343750,-0.267334,0.044678,-0.046875,0,0,0,0
78.095253,-1.628906,-1.046875,-0.007812,0.000000,0.000000,0.001791,-0.012451,-0.009521,0.343750,0.275146,-0.049316,0.036865,0,0,0,0
78.105019,-1.628906,-1.046875,-0.007812,0.000000,0.000000,0.000555,-0.014160,-0.009766,0.343750,-0.316895,0.041504,-0.034668,0,0,0,0
78.114784,-1.628906,-1.046875,-0.007812,0.000000,0.000000,0.002718,-0.012695,-0.009521,0.343750,0.323486,-0.030762,0.049561,0,0,0,0
78.124550,-1.628906,-1.046875,-0.007812,0.000000,0.000000,0.002151,-0.013428,-0.009766,0.343750,-0.313721,0.036621,-0.055420,0,0,0,0
78.134315,-1.628906,-1.046875,-0.007812,0.000000,0.000000,0.004162,-0.012695,-0.009521,0.343750,0.292236,-0.038086,0.035156,0,0,0,0
