time,pos_x,pos_y,pos_z,vel_x,vel_y,vel_z,att_phi,att_theta,att_psi,rate_p,rate_q,rate_r,cmd_thrust,cmd_roll,cmd_pitch,cmd_yaw
240.586426,-2.648438,-1.296875,0.000000,0.000000,0.000000,-0.004951,0.015881,0.038706,-0.038306,0.000732,-0.000977,0.000488,0,0,0,0
240.596191,-2.648438,-1.296875,0.000000,0.000000,0.000000,-0.005093,0.015881,0.038706,-0.038306,-0.001465,0.001709,0.002686,0,0,0,0
240.605957,-2.648438,-1.296875,0.000000,0.000000,0.000000,-0.005411,0.015881,0.038706,-0.038306,-0.000977,-0.000488,0.002197,0,0,0,0
240.615723,-2.648438,-1.296875,0.000000,0.000000,0.000000,-0.005348,0.015881,0.038645,-0.038306,-0.001465,0.000000,-0.001709,0,0,0,0
240.625488,-2.648438,-1.296875,0.000000,0.000000,0.000000,-0.004255,0.015881,0.038645,-0.038367,-0.001953,-0.000488,-0.001221,0,0,0,0
240.635254,-2.648438,-1.296875,0.000000,0.000000,0.000000,-0.004606,0.015881,0.038645,-0.038367,-0.001465,0.001709,0.000488,0,0,0,0
240.645020,-2.648438,-1.296875,0.000000,0.000000,0.000000,-0.004745,0.015820,0.038645,-0.038367,-0.001953,0.000000,-0.002686,0,0,0,0
240.654785,-2.648438,-1.296875,0.000000,0.000000,0.000000,-0.004999,0.015820,0.038645,-0.038367,-0.001465,0.000000,-0.003662,0,0,0,0
240.664551,-2.648438,-1.296875,0.000000,0.000000,0.000000,-0.005068,0.015820,0.038645,-0.038367,0.001709,-0.000977,0.000488,0,0,0,0
240.674316,-2.648438,-1.296875,0.000000,0.000000,0.000000,-0.005308,0.015820,0.038645,-0.038367,-0.004150,-0.000488,0.000488,0,0,0,0
240.684082,-2.648438,-1.296875,0.000000,0.000000,0.000000,-0.005316,0.015820,0.038645,-0.038367,-0.000244,-0.000977,-0.000488,0,0,0,0
240.693848,-2.648438,-1.296875,0.000000,0.000000,0.000000,-0.005404,0.015820,0.038645,-0.038367,-0.004150,-0.001953,-0.000488,0,0,0,0
240.703613,-2.648438,-1.296875,0.000000,0.000000,0.000000,-0.004660,0.015820,0.038645,-0.038367,-0.000977,-0.001465,0.001465,0,0,0,0
240.713379,-2.648438,-1.296875,0.000000,0.000000,0.000000,-0.004925,0.015820,0.038645,-0.038367,-0.001465,0.000000,-0.001221,0,0,0,0
240.723145,-2.648438,-1.296875,0.000000,0.000000,0.000000,-0.004944,0.015820,0.038645,-0.038367,0.000732,-0.000488,-0.001709,0,0,0,0
240.732910,-2.648438,-1.296875,0.000000,0.000000,0.000000,-0.005272,0.015820,0.038645,-0.038367,-0.000244,0.000488,-0.002197,0,0,0,0
240.742676,-2.648438,-1.296875,0.000000,0.000000,0.000000,-0.005478,0.015820,0.038645,-0.038367,-0.002441,0.000977,-0.001221,0,0,0,0
240.752441,-2.648438,-1.296875,0.000000,0.000000,0.000000,-0.005936,0.015820,0.038645,-0.038367,0.000244,-0.000488,0.000977,0,0,0,0
240.762207,-2.648438,-1.296875,0.000000,0.000000,0.000000,-0.006056,0.015820,0.038645,-0.038367,0.000732,0.000488,-0.001709,0,0,0,0
240.771973,-2.648438,-1.296875,0.000000,0.000000,0.000000,-0.005880,0.015759,0.038645,-0.038367,-0.000977,0.003662,0.000977,0,0,0,0
240.781738,-2.648438,-1.296875,0.000000,0.000000,0.000000,-0.006973,0.015759,0.038645,-0.038367,0.000244,0.000977,-0.002197,0,0,0,0
240.791504,-2.648438,-1.296875,0.000000,0.000000,0.000000,-0.006908,0.015759,0.038645,-0.038367,0.001709,-0.002441,-0.004883,0,0,0,0
240.801270,-2.648438,-1.296875,0.000000,0.000000,0.000000,-0.007145,0.015759,0.038645,-0.038367,-0.001465,-0.000488,0.000977,0,0,0,0
240.811035,-2.648438,-1.296875,0.000000,0.000000,0.000000,-0.006746,0.015759,0.038645,-0.038367,-0.001953,0.000000,0.001465,0,0,0,0
240.820801,-2.648438,-1.296875,0.000000,0.000000,0.000000,-0.006971,0.015759,0.038645,-0.038367,0.002930,-0.001953,0.000000,0,0,0,0
240.830566,-2.648438,-1.296875,0.000000,0.000000,0.000000,-0.006922,0.015759,0.038645,-0.038367,-0.000977,0.000000,0.000488,0,0,0,0
240.840332,-2.648438,-1.296875,0.000000,0.000000,0.000000,-0.006449,0.015759,0.038584,-0.038367,0.001221,0.000977,-0.001709,0,0,0,0
240.850113,-2.648438,-1.296875,0.000000,0.000000,0.000000,-0.006380,0.015625,0.038574,-0.038330,0.000244,-0.002441,0.000000,0,0,0,0
240.859863,-2.648438,-1.296875,0.000000,0.000000,0.000000,-0.005594,0.015759,0.038584,-0.038367,-0.000977,0.000000,0.001465,0,0,0,0
240.869629,-2.648438,-1.296875,0.000000,0.000000,0.000000,-0.005646,0.015698,0.038584,-0.038367,0.001709,-0.000977,-0.000488,0,0,0,0
240.879395,-2.648438,-1.296875,0.000000,0.000000,0.000000,-0.006231,0.015698,0.038584,-0.038367,0.001221,-0.003418,0.000488,0,0,0,0
240.889160,-2.648438,-1.296875,0.000000,0.000000,0.000000,-0.006460,0.015698,0.038584,-0.038367,-0.001465,-0.001465,-0.002197,0,0,0,0
240.898926,-2.648438,-1.296875,0.000000,0.000000,0.000000,-0.006723,0.015698,0.038584,-0.038367,-0.002441,0.000000,0.000000,0,0,0,0
240.908691,-2.648438,-1.296875,0.000000,0.000000,0.000000,-0.006699,0.015698,0.038584,-0.038367,0.001221,-0.001465,-0.000488,0,0,0,0
240.918457,-2.648438,-1.296875,0.000000,0.000000,0.000000,-0.006702,0.015698,0.038584,-0.038367,-0.000977,-0.001465,0.000000,0,0,0,0
240.928223,-2.648438,-1.296875,0.000000,0.000000,0.000000,-0.006876,0.015698,0.038584,-0.038367,-0.001465,0.000488,0.000000,0,0,0,0
240.937988,-2.648438,-1.296875,0.000000,0.000000,0.000000,-0.007353,0.015698,0.038523,-0.038367,-0.002930,0.000000,0.000977,0,0,0,0
240.947754,-2.648438,-1.296875,0.000000,0.000000,0.000000,-0.007179,0.015698,0.038523,-0.038429,-0.001465,-0.000977,-0.001709,0,0,0,0
240.957520,-2.648438,-1.296875,0.000000,0.000000,0.000000,-0.007334,0.015698,0.038523,-0.038429,-0.001953,0.000977,0.000000,0,0,0,0
240.967285,-2.648438,-1.296875,0.000000,0.000000,0.000000,-0.007626,0.015637,0.038523,-0.038429,-0.006104,-0.001465,-0.001221,0,0,0,0
240.977051,-2.648438,-1.296875,0.000000,0.000000,0.000000,-0.007227,0.015637,0.038523,-0.038429,-0.001465,-0.000488,0.000000,0,0,0,0
240.986816,-2.648438,-1.296875,0.000000,0.000000,0.000000,-0.007761,0.015637,0.038523,-0.038429,-0.001465,-0.001465,-0.001709,0,0,0,0
240.996582,-2.648438,-1.296875,0.000000,0.000000,0.000000,-0.008102,0.015637,0.038523,-0.038429,0.000732,-0.000977,-0.002197,0,0,0,0
241.006348,-2.648438,-1.296875,0.000000,0.000000,0.000000,-0.007877,0.015637,0.038523,-0.038429,-0.000244,0.002686,0.000977,0,0,0,0
241.016113,-2.648438,-1.296875,0.000000,0.000000,0.000000,-0.009111,0.015637,0.038523,-0.038429,0.000244,0.000488,0.000000,0,0,0,0
241.025879,-2.648438,-1.296875,0.000000,0.000000,0.000000,-0.009354,0.015637,0.038523,-0.038429,-0.000244,-0.000977,0.002686,0,0,0,0
241.035645,-2.648438,-1.296875,0.000000,0.000000,0.000000,-0.009417,0.015637,0.038523,-0.038429,0.002441,0.003174,-0.000488,0,0,0,0
241.045410,-2.648438,-1.296875,0.000000,0.000000,0.000000,-0.008465,0.015637,0.038523,-0.038429,0.000244,0.000488,0.000977,0,0,0,0
241.055176,-2.648438,-1.296875,0.000000,0.000000,0.000000,-0.008396,0.015637,0.038523,-0.038429,-0.000977,0.000000,-0.001709,0,0,0,0
241.064941,-2.648438,-1.296875,0.000000,0.000000,0.000000,-0.008703,0.015637,0.038523,-0.038429,-0.000977,0.000977,-0.001709,0,0,0,0
241.074707,-2.648438,-1.296875,0.000000,0.000000,0.000000,-0.007988,0.015637,0.038523,-0.038429,-0.000244,0.000488,-0.000488,0,0,0,0
241.084473,-2.648438,-1.296875,0.000000,0.000000,0.000000,-0.007883,0.015637,0.038523,-0.038429,-0.000977,-0.003418,-0.000488,0,0,0,0
241.094238,-2.648438,-1.296875,0.000000,0.000000,0.000000,-0.009533,0.015576,0.038523,-0.038429,-0.002930,0.000977,0.000488,0,0,0,0
241.104004,-2.648438,-1.296875,0.000000,0.000000,0.000000,-0.008730,0.015576,0.038523,-0.038429,0.000244,0.001709,0.000000,0,0,0,0
241.113770,-2.648438,-1.296875,0.000000,0.000000,0.000000,-0.008295,0.015576,0.038523,-0.038429,0.000244,-0.001953,0.001465,0,0,0,0
241.123535,-2.648438,-1.296875,0.000000,0.000000,0.000000,-0.008575,0.015576,0.038523,-0.038429,0.002441,-0.000488,-0.000488,0,0,0,0
241.133301,-2.648438,-1.296875,0.000000,0.000000,0.000000,-0.008764,0.015576,0.038523,-0.038429,0.001221,0.000488,0.000000,0,0,0,0
241.143066,-2.648438,-1.296875,0.000000,0.000000,0.000000,-0.007961,0.015515,0.038523,-0.038429,-0.005127,0.000000,-0.000488,0,0,0,0
241.152832,-2.648438,-1.296875,0.000000,0.000000,0.000000,-0.008110,0.015515,0.038462,-0.038429,-0.001953,0.000977,0.000000,0,0,0,0
241.162598,-2.648438,-1.296875,0.000000,0.000000,0.000000,-0.008032,0.015515,0.038462,-0.038429,-0.001953,-0.000977,0.000000,0,0,0,0
241.172363,-2.648438,-1.296875,0.000000,0.000000,0.000000,-0.008152,0.015515,0.038462,-0.038429,-0.001953,0.000488,0.000488,0,0,0,0
241.182129,-2.648438,-1.296875,0.000000,0.000000,0.000000,-0.008268,0.015515,0.038462,-0.038429,-0.000977,-0.001465,-0.000488,0,0,0,0
241.191895,-2.648438,-1.296875,0.000000,0.000000,0.000000,-0.008564,0.015515,0.038462,-0.038429,-0.001465,-0.001465,-0.001709,0,0,0,0
241.201675,-2.648438,-1.296875,0.000000,0.000000,0.000000,-0.009171,0.015515,0.038462,-0.038429,0.000244,0.000488,0.000000,0,0,0,0
241.211426,-2.648438,-1.296875,0.000000,0.000000,0.000000,-0.007999,0.015515,0.038462,-0.038429,-0.001465,0.001709,0.000000,0,0,0,0
241.221191,-2.648438,-1.296875,0.000000,0.000000,0.000000,-0.007879,0.015515,0.038462,-0.038429,-0.002441,-0.000977,0.000488,0,0,0,0
241.230957,-2.648438,-1.296875,0.000000,0.000000,0.000000,-0.007862,0.015454,0.038462,-0.038429,-0.001465,0.000000,-0.003174,0,0,0,0
241.240723,-2.648438,-1.296875,0.000000,0.000000,0.000000,-0.006952,0.015454,0.038462,-0.038429,-0.001465,-0.002441,0.000488,0,0,0,0
241.250488,-2.648438,-1.296875,0.000000,0.000000,0.000000,-0.008499,0.015454,0.038462,-0.038429,-0.001953,0.001709,0.001465,0,0,0,0
241.260254,-2.648438,-1.296875,0.000000,0.000000,0.000000,-0.008860,0.015454,0.038462,-0.038429,0.000244,0.000488,-0.001709,0,0,0,0
241.270020,-2.648438,-1.296875,0.000000,0.000000,0.000000,-0.008890,0.015454,0.038462,-0.038429,0.001709,-0.000977,0.000488,0,0,0,0
241.279785,-2.648438,-1.296875,0.000000,0.000000,0.000000,-0.007692,0.015454,0.038401,-0.038429,-0.002930,-0.001953,0.000488,0,0,0,0
241.289551,-2.648438,-1.296875,0.000000,0.000000,0.000000,-0.007771,0.015454,0.038401,-0.038429,0.001709,0.001709,-0.000488,0,0,0,0
241.299316,-2.648438,-1.296875,0.000000,0.000000,0.000000,-0.007929,0.015454,0.038401,-0.038429,0.000732,-0.001953,0.001465,0,0,0,0
241.309097,-2.648438,-1.296875,0.000000,0.000000,0.000000,-0.007454,0.015454,0.038401,-0.038429,0.000244,0.001709,-0.001709,0,0,0,0
241.318848,-2.648438,-1.296875,0.000000,0.000000,0.000000,-0.007837,0.015393,0.038401,-0.038429,-0.002930,-0.000488,0.000977,0,0,0,0
241.328613,-2.648438,-1.296875,0.000000,0.000000,0.000000,-0.009079,0.015393,0.038401,-0.038429,0.000732,0.001709,-0.002197,0,0,0,0
241.338379,-2.648438,-1.296875,0.000000,0.000000,0.000000,-0.009319,0.015393,0.038401,-0.038429,-0.000244,-0.002441,0.001465,0,0,0,0
241.348145,-2.648438,-1.296875,0.000000,0.000000,0.000000,-0.008165,0.015393,0.038401,-0.038429,-0.000977,0.000488,0.000488,0,0,0,0
241.357910,-2.648438,-1.296875,0.000000,0.000000,0.000000,-0.008276,0.015393,0.038339,-0.038429,-0.001465,0.000488,-0.001221,0,0,0,0
241.367676,-2.648438,-1.296875,0.000000,0.000000,0.000000,-0.008596,0.015393,0.038339,-0.038429,0.002441,0.000488,0.002197,0,0,0,0
241.377441,-2.648438,-1.296875,0.000000,0.000000,0.000000,-0.007298,0.015393,0.038339,-0.038429,-0.000244,-0.002441,-0.001221,0,0,0,0
241.387207,-2.648438,-1.296875,0.000000,0.000000,0.000000,-0.007421,0.015393,0.038339,-0.038429,0.001221,0.002686,0.000488,0,0,0,0
241.396973,-2.648438,-1.296875,0.000000,0.000000,0.000000,-0.007467,0.015393,0.038339,-0.038429,-0.001465,-0.000488,-0.000488,0,0,0,0
241.406738,-2.648438,-1.296875,0.000000,0.000000,0.000000,-0.006927,0.015332,0.038339,-0.038429,0.001709,0.000977,0.000488,0,0,0,0
241.416504,-2.648438,-1.296875,0.000000,0.000000,0.000000,-0.007189,0.015332,0.038339,-0.038429,-0.000977,-0.001465,-0.000488,0,0,0,0
241.426270,-2.648438,-1.296875,0.000000,0.000000,0.000000,-0.007141,0.015332,0.038339,-0.038429,-0.002441,-0.001465,-0.002686,0,0,0,0
241.436035,-2.648438,-1.296875,0.000000,0.000000,0.000000,-0.006134,0.015332,0.038339,-0.038429,0.000244,-0.000977,-0.002686,0,0,0,0
241.445801,-2.648438,-1.296875,0.000000,0.000000,0.000000,-0.006485,0.015332,0.038339,-0.038429,-0.001465,-0.001953,-0.002686,0,0,0,0
241.455566,-2.648438,-1.296875,0.000000,0.000000,0.000000,-0.006992,0.015137,0.038330,-0.038330,-0.001953,-0.000488,0.002197,0,0,0,0
241.465332,-2.648438,-1.296875,0.000000,0.000000,0.000000,-0.006996,0.015332,0.038278,-0.038429,-0.000977,-0.002441,-0.002686,0,0,0,0
241.475098,-2.648438,-1.296875,0.000000,0.000000,0.000000,-0.006454,0.015332,0.038278,-0.038429,-0.003418,-0.002441,-0.001221,0,0,0,0
241.484863,-2.648438,-1.296875,0.000000,0.000000,0.000000,-0.006809,0.015332,0.038278,-0.038429,0.002930,-0.000488,-0.001221,0,0,0,0
241.494629,-2.648438,-1.296875,0.000000,0.000000,0.000000,-0.007284,0.015332,0.038278,-0.038429,0.000244,-0.002441,0.000000,0,0,0,0
241.504395,-2.648438,-1.296875,0.000000,0.000000,0.000000,-0.006847,0.015332,0.038278,-0.038429,-0.000977,0.002197,-0.002686,0,0,0,0
241.514160,-2.648438,-1.296875,0.000000,0.000000,0.000000,-0.006975,0.015332,0.038278,-0.038429,-0.001465,0.002197,-0.000488,0,0,0,0
241.523926,-2.648438,-1.296875,0.000000,0.000000,0.000000,-0.006945,0.015332,0.038278,-0.038429,-0.001465,0.000000,0.000000,0,0,0,0
241.533691,-2.648438,-1.296875,0.000000,0.000000,0.000000,-0.007185,0.015271,0.038278,-0.038429,0.000732,0.000488,0.000488,0,0,0,0
241.543457,-2.648438,-1.296875,0.000000,0.000000,0.000000,-0.006363,0.015271,0.038278,-0.038429,-0.001953,-0.000488,-0.001709,0,0,0,0
241.553223,-2.648438,-1.296875,0.000000,0.000000,0.000000,-0.006250,0.015271,0.038278,-0.038429,0.001221,-0.000488,0.000000,0,0,0,0
241.562988,-2.648438,-1.296875,0.000000,0.000000,0.000000,-0.004297,0.015271,0.038278,-0.038429,0.000732,-0.001465,0.003174,0,0,0,0
241.572754,-2.648438,-1.296875,0.000000,0.000000,0.000000,-0.003935,0.015271,0.038278,-0.038429,0.002930,-0.000488,-0.002197,0,0,0,0
241.582520,-2.648438,-1.296875,0.000000,0.000000,0.000000,-0.003706,0.015271,0.038278,-0.038429,-0.000244,-0.002441,-0.000488,0,0,0,0
241.592285,-2.648438,-1.296875,0.000000,0.000000,0.000000,-0.004240,0.015271,0.038278,-0.038490,-0.000244,-0.002441,0.001465,0,0,0,0
241.602051,-2.648438,-1.296875,0.000000,0.000000,0.000000,-0.004488,0.015271,0.038217,-0.038490,0.002441,0.000977,-0.000488,0,0,0,0
241.611816,-2.648438,-1.296875,0.000000,0.000000,0.000000,-0.004496,0.015210,0.038217,-0.038551,-0.000244,-0.000977,-0.001221,0,0,0,0
241.621582,-2.648438,-1.296875,0.000000,0.000000,0.000000,-0.004515,0.015210,0.038217,-0.038551,0.000244,0.000488,0.002197,0,0,0,0
241.631348,-2.648438,-1.296875,0.000000,0.000000,0.000000,-0.004591,0.015210,0.038217,-0.038551,-0.001465,0.000000,0.000488,0,0,0,0
241.641113,-2.648438,-1.296875,0.000000,0.000000,0.000000,-0.003435,0.015210,0.038217,-0.038551,-0.002930,0.001709,0.000000,0,0,0,0
241.650879,-2.648438,-1.296875,0.000000,0.000000,0.000000,-0.003674,0.015210,0.038217,-0.038551,0.000244,0.000488,-0.001221,0,0,0,0
241.660645,-2.648438,-1.296875,0.000000,0.000000,0.000000,-0.003857,0.015210,0.038217,-0.038551,-0.000244,-0.001953,-0.001709,0,0,0,0
241.670410,-2.648438,-1.296875,0.000000,0.000000,0.000000,-0.003651,0.015210,0.038217,-0.038551,-0.002441,-0.001465,-0.000488,0,0,0,0
241.680176,-2.648438,-1.296875,0.000000,0.000000,0.000000,-0.003880,0.015149,0.038217,-0.038551,-0.001465,0.000488,-0.000488,0,0,0,0
241.689941,-2.648438,-1.296875,0.000000,0.000000,0.000000,-0.004110,0.015137,0.038086,-0.038330,0.000732,0.000977,-0.001221,0,0,0,0
241.699707,-2.648438,-1.296875,0.000000,0.000000,0.000000,-0.004034,0.015149,0.038217,-0.038551,-0.000977,-0.000488,-0.001221,0,0,0,0
241.709473,-2.648438,-1.296875,0.000000,0.000000,0.000000,-0.004066,0.015149,0.038217,-0.038551,0.000244,0.001709,-0.000488,0,0,0,0
241.719238,-2.648438,-1.296875,0.000000,0.000000,0.000000,-0.004183,0.015149,0.038217,-0.038551,-0.002441,0.000977,-0.001709,0,0,0,0
241.731934,-2.648438,-1.296875,0.000000,0.000000,0.000000,-0.004967,0.015149,0.038217,-0.038551,-0.004150,0.000000,-0.001221,0,0,0,0
241.740723,-2.648438,-1.296875,0.000000,0.000000,0.000000,-0.004560,0.015149,0.038156,-0.038551,-0.002441,0.000488,0.000488,0,0,0,0
241.750488,-2.648438,-1.296875,0.000000,0.000000,0.000000,-0.005024,0.015149,0.038156,-0.038551,0.000732,0.000000,-0.002686,0,0,0,0
241.760254,-2.648438,-1.296875,0.000000,0.000000,0.000000,-0.004816,0.015149,0.038156,-0.038551,0.000244,0.002197,-0.001709,0,0,0,0
241.770020,-2.648438,-1.296875,0.000000,0.000000,0.000000,-0.004528,0.015149,0.038156,-0.038551,-0.002441,-0.002441,-0.001221,0,0,0,0
241.779785,-2.648438,-1.296875,0.000000,0.000000,0.000000,-0.004932,0.015149,0.038156,-0.038551,-0.001465,-0.000977,0.000488,0,0,0,0
241.789551,-2.648438,-1.296875,0.000000,0.000000,0.000000,-0.003933,0.015149,0.038156,-0.038551,0.000244,0.000977,-0.001709,0,0,0,0
241.799316,-2.648438,-1.296875,0.000000,0.000000,0.000000,-0.004000,0.015149,0.038156,-0.038551,-0.001465,0.000000,-0.001709,0,0,0,0
241.809082,-2.648438,-1.296875,0.000000,0.000000,0.000000,-0.004395,0.015149,0.038156,-0.038551,-0.000977,-0.001953,0.000977,0,0,0,0
241.818848,-2.648438,-1.296875,0.000000,0.000000,0.000000,-0.004400,0.015149,0.038156,-0.038551,-0.000977,-0.002930,0.000000,0,0,0,0
241.828613,-2.648438,-1.296875,0.000000,0.000000,0.000000,-0.004354,0.015210,0.038095,-0.038551,-0.000244,-0.003906,-0.001221,0,0,0,0
241.838379,-2.648438,-1.296875,0.000000,0.000000,0.000000,-0.004185,0.015210,0.038095,-0.038551,-0.000244,0.000000,-0.001709,0,0,0,0
241.848145,-2.648438,-1.296875,0.000000,0.000000,0.000000,-0.004368,0.015149,0.038095,-0.038612,0.000244,-0.001465,0.000000,0,0,0,0
241.857910,-2.648438,-1.296875,0.000000,0.000000,0.000000,-0.004219,0.015149,0.038095,-0.038612,-0.000977,0.000488,-0.001221,0,0,0,0
241.868652,-2.648438,-1.296875,0.000000,0.000000,0.000000,-0.003012,0.015087,0.038095,-0.038612,-0.005615,0.000000,0.002197,0,0,0,0
241.877441,-2.648438,-1.296875,0.000000,0.000000,0.000000,-0.003790,0.015087,0.038095,-0.038612,-0.000977,0.000977,0.000000,0,0,0,0
241.887207,-2.648438,-1.296875,0.000000,0.000000,0.000000,-0.004032,0.015087,0.038095,-0.038612,-0.003418,-0.000488,0.000488,0,0,0,0
241.896973,-2.648438,-1.296875,0.000000,0.000000,0.000000,-0.004581,0.015087,0.038095,-0.038612,-0.001953,0.000488,-0.000488,0,0,0,0
241.906738,-2.648438,-1.296875,0.000000,0.000000,0.000000,-0.004927,0.015087,0.038095,-0.038612,-0.000977,0.000977,0.000000,0,0,0,0
241.916504,-2.648438,-1.296875,0.000000,0.000000,0.000000,-0.004768,0.015087,0.038095,-0.038612,-0.002930,-0.001953,-0.000488,0,0,0,0
241.926270,-2.648438,-1.296875,0.000000,0.000000,0.000000,-0.004860,0.015026,0.038095,-0.038612,0.000244,0.000000,-0.000488,0,0,0,0
241.936035,-2.648438,-1.296875,0.000000,0.000000,0.000000,-0.005156,0.015026,0.038095,-0.038612,-0.003418,-0.000977,-0.001709,0,0,0,0
241.945801,-2.648438,-1.296875,0.000000,0.000000,0.000000,-0.005739,0.015026,0.038095,-0.038612,0.000244,-0.000488,0.000000,0,0,0,0
241.955566,-2.648438,-1.296875,0.000000,0.000000,0.000000,-0.005810,0.015026,0.038095,-0.038612,0.002930,-0.000977,0.003662,0,0,0,0
241.965332,-2.648438,-1.296875,0.000000,0.000000,0.000000,-0.005894,0.015026,0.038095,-0.038612,-0.001465,0.001709,0.002686,0,0,0,0
241.975098,-2.648438,-1.296875,0.000000,0.000000,0.000000,-0.005545,0.015026,0.038095,-0.038612,0.000244,-0.000488,-0.001221,0,0,0,0
241.984863,-2.648438,-1.296875,0.000000,0.000000,0.000000,-0.005854,0.015026,0.038095,-0.038612,-0.002441,-0.000488,0.000000,0,0,0,0
241.994629,-2.648438,-1.296875,0.000000,0.000000,0.000000,-0.006117,0.015026,0.038034,-0.038612,-0.001953,-0.001465,0.000488,0,0,0,0
242.004395,-2.648438,-1.296875,0.000000,0.000000,0.000000,-0.006392,0.015026,0.038034,-0.038612,-0.000977,0.000488,0.002197,0,0,0,0
242.014160,-2.648438,-1.296875,0.000000,0.000000,0.000000,-0.006107,0.015026,0.038034,-0.038612,0.000244,0.002197,-0.001221,0,0,0,0
242.023926,-2.648438,-1.296875,0.000000,0.000000,0.000000,-0.006918,0.015026,0.038034,-0.038612,0.000244,0.000488,-0.001709,0,0,0,0
242.033691,-2.648438,-1.296875,0.000000,0.000000,0.000000,-0.007006,0.014965,0.038034,-0.038612,-0.000977,-0.001465,-0.000488,0,0,0,0
242.043457,-2.648438,-1.296875,0.000000,0.000000,0.000000,-0.006622,0.014965,0.038034,-0.038612,0.000244,0.000488,0.000488,0,0,0,0
242.053223,-2.648438,-1.296875,0.000000,0.000000,0.000000,-0.006603,0.014965,0.038034,-0.038612,-0.000977,0.000000,-0.000488,0,0,0,0
242.062988,-2.648438,-1.296875,0.000000,0.000000,0.000000,-0.007282,0.014965,0.038034,-0.038612,-0.001953,-0.001953,0.000488,0,0,0,0
242.072754,-2.648438,-1.296875,0.000000,0.000000,0.000000,-0.006681,0.014965,0.038034,-0.038612,0.000244,-0.000977,0.000488,0,0,0,0
242.082520,-2.648438,-1.296875,0.000000,0.000000,0.000000,-0.006893,0.014965,0.038034,-0.038612,0.000732,0.000000,0.002197,0,0,0,0
242.092285,-2.648438,-1.296875,0.000000,0.000000,0.000000,-0.006990,0.014965,0.038034,-0.038612,-0.001465,0.001709,-0.000488,0,0,0,0
242.102051,-2.648438,-1.296875,0.000000,0.000000,0.000000,-0.008162,0.014965,0.038034,-0.038612,0.001709,-0.001465,0.000000,0,0,0,0
242.111816,-2.648438,-1.296875,0.000000,0.000000,0.000000,-0.007376,0.014965,0.038034,-0.038612,-0.003418,-0.001465,0.002197,0,0,0,0
242.121582,-2.648438,-1.296875,0.000000,0.000000,0.000000,-0.007133,0.014965,0.037973,-0.038612,-0.003418,0.000488,0.000977,0,0,0,0
242.131348,-2.648438,-1.296875,0.000000,0.000000,0.000000,-0.007084,0.014904,0.037912,-0.038612,-0.004150,-0.000977,0.000000,0,0,0,0
242.141113,-2.648438,-1.296875,0.000000,0.000000,0.000000,-0.006575,0.014904,0.037912,-0.038612,-0.004150,-0.002441,0.002686,0,0,0,0
242.150879,-2.648438,-1.296875,0.000000,0.000000,0.000000,-0.006701,0.014904,0.037912,-0.038612,-0.002441,0.000000,0.000488,0,0,0,0
242.160645,-2.648438,-1.296875,0.000000,0.000000,0.000000,-0.006760,0.014893,0.037842,-0.038574,-0.001465,-0.000488,-0.001221,0,0,0,0
242.170410,-2.648438,-1.296875,0.000000,0.000000,0.000000,-0.006281,0.014904,0.037912,-0.038612,-0.000977,-0.000488,0.003174,0,0,0,0
242.180176,-2.648438,-1.296875,0.000000,0.000000,0.000000,-0.006958,0.014843,0.037912,-0.038612,-0.000244,0.000000,-0.002686,0,0,0,0
242.189941,-2.648438,-1.296875,0.000000,0.000000,0.000000,-0.006706,0.014843,0.037912,-0.038612,0.001221,-0.000488,0.000000,0,0,0,0
242.199707,-2.648438,-1.296875,0.000000,0.000000,0.000000,-0.006540,0.014843,0.037912,-0.038612,-0.002441,0.000977,0.000488,0,0,0,0
242.209473,-2.648438,-1.296875,0.000000,0.000000,0.000000,-0.005569,0.014843,0.037912,-0.038612,0.000732,0.000000,-0.001221,0,0,0,0
242.219238,-2.648438,-1.296875,0.000000,0.000000,0.000000,-0.005846,0.014843,0.037912,-0.038612,-0.000244,0.000000,-0.000488,0,0,0,0
242.229004,-2.648438,-1.296875,0.000000,0.000000,0.000000,-0.006046,0.014843,0.037912,-0.038612,0.000732,0.000977,0.000488,0,0,0,0
242.238770,-2.648438,-1.296875,0.000000,0.000000,0.000000,-0.004900,0.014843,0.037912,-0.038612,0.002441,0.002197,-0.000488,0,0,0,0
242.248535,-2.648438,-1.296875,0.000000,0.000000,0.000000,-0.004910,0.014843,0.037912,-0.038612,0.000732,-0.000488,-0.001709,0,0,0,0
242.258301,-2.648438,-1.296875,0.000000,0.000000,0.000000,-0.005924,0.014843,0.037912,-0.038612,0.001221,0.001709,-0.000488,0,0,0,0
242.268066,-2.648438,-1.296875,0.000000,0.000000,0.000000,-0.005707,0.014843,0.037912,-0.038612,0.000244,0.000977,-0.000488,0,0,0,0
242.277832,-2.648438,-1.296875,0.000000,0.000000,0.000000,-0.005028,0.014782,0.037912,-0.038614,0.001221,-0.000977,0.001465,0,0,0,0
242.287598,-2.648438,-1.296875,0.000000,0.000000,0.000000,-0.005110,0.014782,0.037912,-0.038614,0.000244,-0.000977,0.000000,0,0,0,0
242.297363,-2.648438,-1.296875,0.000000,0.000000,0.000000,-0.005278,0.014782,0.037912,-0.038614,-0.001953,0.000000,0.001465,0,0,0,0
242.307129,-2.648438,-1.296875,0.000000,0.000000,0.000000,-0.004637,0.014782,0.037851,-0.038614,0.000732,-0.001465,-0.001221,0,0,0,0
242.316895,-2.648438,-1.296875,0.000000,0.000000,0.000000,-0.004753,0.014782,0.037851,-0.038614,-0.000244,0.000977,-0.001709,0,0,0,0
242.326660,-2.648438,-1.296875,0.000000,0.000000,0.000000,-0.005180,0.014782,0.037851,-0.038614,-0.002930,0.003662,0.000488,0,0,0,0
242.336426,-2.648438,-1.296875,0.000000,0.000000,0.000000,-0.005310,0.014782,0.037851,-0.038614,-0.000244,-0.003418,-0.001709,0,0,0,0
242.346191,-2.648438,-1.296875,0.000000,0.000000,0.000000,-0.005371,0.014782,0.037851,-0.038614,0.000244,-0.000488,0.000000,0,0,0,0
242.355957,-2.648438,-1.296875,0.000000,0.000000,0.000000,-0.005581,0.014721,0.037851,-0.038614,-0.001465,0.000000,-0.001221,0,0,0,0
242.365723,-2.648438,-1.296875,0.000000,0.000000,0.000000,-0.005899,0.014721,0.037851,-0.038614,-0.001953,-0.000488,0.000488,0,0,0,0
242.375488,-2.648438,-1.296875,0.000000,0.000000,0.000000,-0.004803,0.014721,0.037851,-0.038614,-0.003418,0.000488,0.000488,0,0,0,0
242.385269,-2.648438,-1.296875,0.000000,0.000000,0.000000,-0.004793,0.014721,0.037851,-0.038614,0.000244,-0.001465,-0.001221,0,0,0,0
242.395020,-2.648438,-1.296875,0.000000,0.000000,0.000000,-0.005116,0.014721,0.037851,-0.038614,-0.002930,0.000488,0.000000,0,0,0,0
242.404785,-2.648438,-1.296875,0.000000,0.000000,0.000000,-0.004644,0.014721,0.037851,-0.038614,-0.000977,-0.002441,0.000488,0,0,0,0
242.414551,-2.648438,-1.296875,0.000000,0.000000,0.000000,-0.005838,0.014721,0.037851,-0.038614,-0.001953,-0.000488,-0.000488,0,0,0,0
242.424316,-2.648438,-1.296875,0.000000,0.000000,0.000000,-0.006187,0.014721,0.037851,-0.038614,-0.001465,0.000000,0.000977,0,0,0,0
242.434082,-2.648438,-1.296875,0.000000,0.000000,0.000000,-0.006392,0.014721,0.037851,-0.038614,-0.001465,-0.000977,0.000000,0,0,0,0
242.443848,-2.648438,-1.296875,0.000000,0.000000,0.000000,-0.005274,0.014660,0.037851,-0.038614,-0.002930,0.000000,0.000000,0,0,0,0
242.453613,-2.648438,-1.296875,0.000000,0.000000,0.000000,-0.005285,0.014660,0.037790,-0.038614,0.001221,0.000000,-0.002686,0,0,0,0
242.463379,-2.648438,-1.296875,0.000000,0.000000,0.000000,-0.005529,0.014648,0.037598,-0.038574,0.001221,-0.000488,-0.000488,0,0,0,0
242.473145,-2.648438,-1.296875,0.000000,0.000000,0.000000,-0.005014,0.014660,0.037790,-0.038614,-0.001953,-0.000488,0.001465,0,0,0,0
242.482910,-2.648438,-1.296875,0.000000,0.000000,0.000000,-0.004614,0.014660,0.037790,-0.038614,0.000244,0.000977,0.000000,0,0,0,0
242.492676,-2.648438,-1.296875,0.000000,0.000000,0.000000,-0.002954,0.014660,0.037790,-0.038614,-0.001953,-0.001953,0.000000,0,0,0,0
242.502441,-2.648438,-1.296875,0.000000,0.000000,0.000000,-0.002468,0.014660,0.037790,-0.038614,-0.000977,-0.001465,-0.002197,0,0,0,0
242.512207,-2.648438,-1.296875,0.000000,0.000000,0.000000,-0.002525,0.014660,0.037790,-0.038614,-0.001465,0.000000,-0.001221,0,0,0,0
242.521973,-2.648438,-1.296875,0.000000,0.000000,0.000000,-0.002640,0.014599,0.037790,-0.038614,0.001221,-0.000488,0.002197,0,0,0,0
242.531738,-2.648438,-1.296875,0.000000,0.000000,0.000000,-0.002716,0.014599,0.037790,-0.038614,0.000732,0.000488,-0.000488,0,0,0,0
242.541504,-2.648438,-1.296875,0.000000,0.000000,0.000000,-0.002604,0.014599,0.037790,-0.038614,0.000244,0.003174,0.000488,0,0,0,0
242.551270,-2.648438,-1.296875,0.000000,0.000000,0.000000,-0.003193,0.014599,0.037729,-0.038614,-0.001465,-0.001953,-0.001221,0,0,0,0
242.561035,-2.648438,-1.296875,0.000000,0.000000,0.000000,-0.002859,0.014599,0.037729,-0.038614,0.000244,0.000488,-0.003174,0,0,0,0
242.570801,-2.648438,-1.296875,0.000000,0.000000,0.000000,-0.001535,0.014599,0.037729,-0.038614,-0.001953,0.000000,0.000000,0,0,0,0
242.580566,-2.648438,-1.296875,0.000000,0.000000,0.000000,-0.001930,0.014599,0.037729,-0.038614,-0.001465,-0.001465,0.000488,0,0,0,0
242.590332,-2.648438,-1.296875,0.000000,0.000000,0.000000,-0.002184,0.014599,0.037729,-0.038614,-0.002930,-0.000488,-0.000488,0,0,0,0
242.600113,-2.648438,-1.296875,0.000000,0.000000,0.000000,-0.002037,0.014538,0.037729,-0.038614,-0.000977,0.000977,-0.001709,0,0,0,0
242.609863,-2.648438,-1.296875,0.000000,0.000000,0.000000,-0.002512,0.014538,0.037729,-0.038614,-0.002930,0.000488,-0.001709,0,0,0,0
242.619629,-2.648438,-1.296875,0.000000,0.000000,0.000000,-0.002617,0.014538,0.037729,-0.038614,-0.002441,0.002197,0.000000,0,0,0,0
242.629395,-2.648438,-1.296875,0.000000,0.000000,0.000000,-0.002892,0.014538,0.037729,-0.038614,-0.001465,-0.001465,-0.001709,0,0,0,0
242.639160,-2.648438,-1.296875,0.000000,0.000000,0.000000,-0.003294,0.014538,0.037729,-0.038614,-0.002930,-0.002930,-0.000488,0,0,0,0
242.648926,-2.648438,-1.296875,0.000000,0.000000,0.000000,-0.001867,0.014538,0.037729,-0.038614,-0.000977,0.000977,-0.000488,0,0,0,0
242.658691,-2.648438,-1.296875,0.000000,0.000000,0.000000,-0.002283,0.014477,0.037729,-0.038614,-0.001953,-0.001953,-0.001709,0,0,0,0
242.668457,-2.648438,-1.296875,0.000000,0.000000,0.000000,-0.002403,0.014477,0.037729,-0.038614,-0.002441,-0.001465,0.000488,0,0,0,0
242.678223,-2.648438,-1.296875,0.000000,0.000000,0.000000,-0.002970,0.014477,0.037729,-0.038614,-0.002930,0.002197,-0.000488,0,0,0,0
242.688004,-2.648438,-1.296875,0.000000,0.000000,0.000000,-0.003439,0.014477,0.037729,-0.038614,-0.000244,0.000488,0.000000,0,0,0,0
242.697754,-2.648438,-1.296875,0.000000,0.000000,0.000000,-0.003632,0.014477,0.037729,-0.038614,-0.001465,-0.000488,-0.001709,0,0,0,0
242.707520,-2.648438,-1.296875,0.000000,0.000000,0.000000,-0.004450,0.014477,0.037729,-0.038614,0.000244,-0.001953,0.000977,0,0,0,0
242.717285,-2.648438,-1.296875,0.000000,0.000000,0.000000,-0.004297,0.014477,0.037729,-0.038614,0.000244,0.000488,0.000977,0,0,0,0
242.727051,-2.648438,-1.296875,0.000000,0.000000,0.000000,-0.002674,0.014477,0.037729,-0.038614,-0.000244,-0.001953,-0.001709,0,0,0,0
242.736816,-2.648438,-1.296875,0.000000,0.000000,0.000000,-0.003269,0.014416,0.037668,-0.038614,0.001221,0.000000,0.000488,0,0,0,0
242.746582,-2.648438,-1.296875,0.000000,0.000000,0.000000,-0.003366,0.014416,0.037668,-0.038614,-0.000244,-0.001953,0.002686,0,0,0,0
242.756348,-2.648438,-1.296875,0.000000,0.000000,0.000000,-0.003529,0.014416,0.037668,-0.038614,0.001221,0.002197,0.000488,0,0,0,0
242.766113,-2.648438,-1.296875,0.000000,0.000000,0.000000,-0.003712,0.014404,0.037598,-0.038574,0.000244,0.004883,-0.000488,0,0,0,0
242.775879,-2.648438,-1.296875,0.000000,0.000000,0.000000,-0.004326,0.014416,0.037668,-0.038614,-0.000244,0.000488,-0.002686,0,0,0,0
242.785645,-2.648438,-1.296875,0.000000,0.000000,0.000000,-0.004684,0.014416,0.037668,-0.038614,0.001221,0.000000,0.001465,0,0,0,0
242.795410,-2.648438,-1.296875,0.000000,0.000000,0.000000,-0.004721,0.014416,0.037668,-0.038614,0.002930,0.001709,0.000977,0,0,0,0
242.805176,-2.648438,-1.296875,0.000000,0.000000,0.000000,-0.003523,0.014416,0.037668,-0.038614,-0.000977,0.000977,0.002197,0,0,0,0
242.814941,-2.648438,-1.296875,0.000000,0.000000,0.000000,-0.003374,0.014355,0.037668,-0.038614,-0.001953,0.001709,0.000977,0,0,0,0
242.824707,-2.648438,-1.296875,0.000000,0.000000,0.000000,-0.003351,0.014355,0.037668,-0.038614,0.001709,-0.001953,-0.001709,0,0,0,0
242.834473,-2.648438,-1.296875,0.000000,0.000000,0.000000,-0.003668,0.014355,0.037668,-0.038614,-0.000244,-0.001953,0.000488,0,0,0,0
242.844238,-2.648438,-1.296875,0.000000,0.000000,0.000000,-0.004301,0.014355,0.037668,-0.038614,-0.001953,-0.000977,0.001465,0,0,0,0
242.854004,-2.648438,-1.296875,0.000000,0.000000,0.000000,-0.004135,0.014355,0.037668,-0.038614,-0.001953,-0.002930,0.000977,0,0,0,0
242.863770,-2.648438,-1.296875,0.000000,0.000000,0.000000,-0.004301,0.014355,0.037668,-0.038614,-0.001465,0.000000,-0.000488,0,0,0,0
242.873535,-2.648438,-1.296875,0.000000,0.000000,0.000000,-0.004366,0.014355,0.037668,-0.038675,-0.000977,-0.001465,0.000977,0,0,0,0
242.883301,-2.648438,-1.296875,0.000000,0.000000,0.000000,-0.002361,0.014355,0.037668,-0.038675,-0.000977,0.000000,0.002197,0,0,0,0
242.893066,-2.648438,-1.296875,0.000000,0.000000,0.000000,-0.002634,0.014355,0.037668,-0.038675,-0.000977,0.002197,0.000488,0,0,0,0
242.902847,-2.648438,-1.296875,0.000000,0.000000,0.000000,-0.003540,0.014293,0.037668,-0.038675,-0.001953,0.000000,0.000000,0,0,0,0
242.912598,-2.648438,-1.296875,0.000000,0.000000,0.000000,-0.003960,0.014293,0.037668,-0.038675,-0.000977,-0.000977,-0.000488,0,0,0,0
242.922363,-2.648438,-1.296875,0.000000,0.000000,0.000000,-0.004223,0.014293,0.037668,-0.038675,-0.004150,0.003174,0.001465,0,0,0,0
242.932129,-2.648438,-1.296875,0.000000,0.000000,0.000000,-0.004133,0.014293,0.037668,-0.038675,0.000244,-0.001953,-0.002197,0,0,0,0
242.941895,-2.648438,-1.296875,0.000000,0.000000,0.000000,-0.004810,0.014293,0.037668,-0.038675,-0.001953,-0.000488,-0.002686,0,0,0,0
242.951660,-2.648438,-1.296875,0.000000,0.000000,0.000000,-0.005125,0.014293,0.037668,-0.038675,0.000732,-0.001465,-0.000488,0,0,0,0
242.961426,-2.648438,-1.296875,0.000000,0.000000,0.000000,-0.003628,0.014293,0.037668,-0.038675,-0.001953,-0.001465,-0.001709,0,0,0,0
242.971191,-2.648438,-1.296875,0.000000,0.000000,0.000000,-0.004150,0.014293,0.037668,-0.038675,-0.001953,-0.001465,0.000000,0,0,0,0
242.980957,-2.648438,-1.296875,0.000000,0.000000,0.000000,-0.004219,0.014293,0.037607,-0.038675,-0.001465,0.000000,0.000977,0,0,0,0
242.990738,-2.648438,-1.296875,0.000000,0.000000,0.000000,-0.004305,0.014232,0.037607,-0.038675,-0.001953,0.000488,-0.001221,0,0,0,0
243.000488,-2.648438,-1.296875,0.000000,0.000000,0.000000,-0.004448,0.014232,0.037607,-0.038675,-0.002441,-0.001465,0.000977,0,0,0,0
243.010254,-2.648438,-1.296875,0.000000,0.000000,0.000000,-0.004511,0.014232,0.037607,-0.038675,-0.001465,0.000000,0.000488,0,0,0,0
243.020020,-2.648438,-1.296875,0.000000,0.000000,0.000000,-0.004786,0.014232,0.037607,-0.038675,-0.002441,-0.000488,-0.001709,0,0,0,0
243.029785,-2.648438,-1.296875,0.000000,0.000000,0.000000,-0.004726,0.014232,0.037607,-0.038675,0.002441,-0.000488,-0.001221,0,0,0,0
243.039551,-2.648438,-1.296875,0.000000,0.000000,0.000000,-0.003885,0.014232,0.037545,-0.038736,-0.002930,0.002686,-0.001709,0,0,0,0
243.049316,-2.648438,-1.296875,0.000000,0.000000,0.000000,-0.003525,0.014232,0.037545,-0.038736,0.001709,0.000488,-0.001709,0,0,0,0
243.059082,-2.648438,-1.296875,0.000000,0.000000,0.000000,-0.003817,0.014232,0.037545,-0.038736,0.000244,0.000488,-0.000488,0,0,0,0
243.068848,-2.648438,-1.296875,0.000000,0.000000,0.000000,-0.003927,0.014160,0.037354,-0.038574,0.000244,-0.001465,0.000488,0,0,0,0
243.078613,-2.648438,-1.296875,0.000000,0.000000,0.000000,-0.004263,0.014171,0.037545,-0.038736,0.000244,0.000488,0.002197,0,0,0,0
243.088379,-2.648438,-1.296875,0.000000,0.000000,0.000000,-0.004002,0.014171,0.037545,-0.038736,0.001221,-0.001465,-0.000488,0,0,0,0
243.098145,-2.648438,-1.296875,0.000000,0.000000,0.000000,-0.003864,0.014171,0.037545,-0.038736,0.000732,-0.000977,0.000488,0,0,0,0
243.107910,-2.648438,-1.296875,0.000000,0.000000,0.000000,-0.004217,0.014171,0.037545,-0.038736,-0.003418,-0.001953,0.000488,0,0,0,0
243.117676,-2.648438,-1.296875,0.000000,0.000000,0.000000,-0.003307,0.014171,0.037545,-0.038736,-0.000244,0.000000,-0.001709,0,0,0,0
243.127441,-2.648438,-1.296875,0.000000,0.000000,0.000000,-0.003002,0.014171,0.037545,-0.038736,-0.002441,-0.001465,0.000488,0,0,0,0
243.137207,-2.648438,-1.296875,0.000000,0.000000,0.000000,-0.003494,0.014171,0.037484,-0.038736,-0.003418,-0.002441,-0.000488,0,0,0,0
243.146973,-2.648438,-1.296875,0.000000,0.000000,0.000000,-0.003675,0.014171,0.037484,-0.038736,-0.002930,-0.001465,0.001465,0,0,0,0
243.156738,-2.648438,-1.296875,0.000000,0.000000,0.000000,-0.003670,0.014110,0.037484,-0.038736,0.000244,-0.002441,0.000488,0,0,0,0
243.166504,-2.648438,-1.296875,0.000000,0.000000,0.000000,-0.003691,0.014110,0.037484,-0.038736,-0.001953,-0.001465,0.000000,0,0,0,0
243.176270,-2.648438,-1.296875,0.000000,0.000000,0.000000,-0.003973,0.014110,0.037484,-0.038736,-0.002441,0.000000,-0.000488,0,0,0,0
243.186035,-2.648438,-1.296875,0.000000,0.000000,0.000000,-0.004379,0.014110,0.037484,-0.038736,0.000244,-0.000977,-0.001221,0,0,0,0
243.195801,-2.648438,-1.296875,0.000000,0.000000,0.000000,-0.004719,0.014110,0.037484,-0.038736,-0.004150,-0.000488,-0.001709,0,0,0,0
243.205582,-2.648438,-1.296875,0.000000,0.000000,0.000000,-0.004564,0.014110,0.037484,-0.038736,-0.002441,-0.003418,-0.001709,0,0,0,0
243.215332,-2.648438,-1.296875,0.000000,0.000000,0.000000,-0.004684,0.014110,0.037484,-0.038736,-0.001953,0.000488,-0.002197,0,0,0,0
243.225098,-2.648438,-1.296875,0.000000,0.000000,0.000000,-0.004930,0.014110,0.037484,-0.038736,-0.007324,-0.001953,-0.002197,0,0,0,0
243.234863,-2.648438,-1.296875,0.000000,0.000000,0.000000,-0.004801,0.014110,0.037484,-0.038736,-0.003418,-0.000488,-0.002197,0,0,0,0
243.244629,-2.648438,-1.296875,0.000000,0.000000,0.000000,-0.004864,0.014110,0.037484,-0.038736,0.001221,-0.001953,0.000977,0,0,0,0
243.254395,-2.648438,-1.296875,0.000000,0.000000,0.000000,-0.004425,0.014110,0.037484,-0.038736,0.000244,0.000488,-0.000488,0,0,0,0
243.264160,-2.648438,-1.296875,0.000000,0.000000,0.000000,-0.004314,0.014110,0.037484,-0.038736,-0.000977,-0.001465,0.000000,0,0,0,0
243.273926,-2.648438,-1.296875,0.000000,0.000000,0.000000,-0.005074,0.014110,0.037484,-0.038736,-0.000244,0.000977,-0.000488,0,0,0,0
243.283691,-2.648438,-1.296875,0.000000,0.000000,0.000000,-0.005531,0.014110,0.037423,-0.038736,0.000732,-0.000488,0.000000,0,0,0,0
243.293472,-2.648438,-1.296875,0.000000,0.000000,0.000000,-0.005264,0.014110,0.037423,-0.038736,0.000732,-0.000488,0.000977,0,0,0,0
243.303223,-2.648438,-1.296875,0.000000,0.000000,0.000000,-0.004885,0.014110,0.037423,-0.038736,0.000732,0.002686,0.000488,0,0,0,0
243.312988,-2.648438,-1.296875,0.000000,0.000000,0.000000,-0.004946,0.014049,0.037423,-0.038736,0.000244,0.000000,-0.001709,0,0,0,0
243.322754,-2.648438,-1.296875,0.000000,0.000000,0.000000,-0.005014,0.014049,0.037423,-0.038736,-0.001465,0.000488,-0.000488,0,0,0,0
243.332520,-2.648438,-1.296875,0.000000,0.000000,0.000000,-0.004971,0.014049,0.037423,-0.038736,0.000732,0.001709,-0.001221,0,0,0,0
243.342285,-2.648438,-1.296875,0.000000,0.000000,0.000000,-0.004278,0.014049,0.037423,-0.038736,-0.001953,-0.000488,-0.002686,0,0,0,0
243.352051,-2.648438,-1.296875,0.000000,0.000000,0.000000,-0.005762,0.014049,0.037423,-0.038736,0.001221,-0.000488,0.000000,0,0,0,0
243.361816,-2.648438,-1.296875,0.000000,0.000000,0.000000,-0.005911,0.014049,0.037423,-0.038736,0.000732,-0.000488,0.000000,0,0,0,0
243.371582,-2.648438,-1.296875,0.000000,0.000000,0.000000,-0.004976,0.014049,0.037423,-0.038736,-0.000244,-0.000488,-0.002197,0,0,0,0
243.381348,-2.648438,-1.296875,0.000000,0.000000,0.000000,-0.005466,0.014049,0.037423,-0.038736,-0.000244,0.000977,-0.001221,0,0,0,0
243.391113,-2.648438,-1.296875,0.000000,0.000000,0.000000,-0.005707,0.014049,0.037423,-0.038736,0.000244,-0.002441,-0.002197,0,0,0,0
243.400879,-2.648438,-1.296875,0.000000,0.000000,0.000000,-0.005333,0.014049,0.037423,-0.038736,-0.002441,0.000488,0.000977,0,0,0,0
243.410645,-2.648438,-1.296875,0.000000,0.000000,0.000000,-0.004429,0.013988,0.037423,-0.038736,-0.004150,-0.000488,-0.001709,0,0,0,0
243.420410,-2.648438,-1.296875,0.000000,0.000000,0.000000,-0.004700,0.013988,0.037423,-0.038736,0.001709,-0.000977,-0.000488,0,0,0,0
243.430176,-2.648438,-1.296875,0.000000,0.000000,0.000000,-0.006584,0.013988,0.037423,-0.038736,-0.003418,0.000488,-0.001221,0,0,0,0
243.439941,-2.648438,-1.296875,0.000000,0.000000,0.000000,-0.005865,0.013988,0.037423,-0.038736,-0.001465,0.000000,0.000000,0,0,0,0
243.449707,-2.648438,-1.296875,0.000000,0.000000,0.000000,-0.006084,0.013988,0.037423,-0.038736,-0.001465,-0.000488,-0.001709,0,0,0,0
243.459473,-2.648438,-1.296875,0.000000,0.000000,0.000000,-0.005993,0.013988,0.037423,-0.038736,-0.001953,-0.000977,-0.001709,0,0,0,0
243.469238,-2.648438,-1.296875,0.000000,0.000000,0.000000,-0.005350,0.013988,0.037423,-0.038736,-0.000977,0.000488,0.002197,0,0,0,0
243.479004,-2.648438,-1.296875,0.000000,0.000000,0.000000,-0.005287,0.013988,0.037423,-0.038797,-0.001465,-0.000488,-0.004395,0,0,0,0
243.488770,-2.648438,-1.296875,0.000000,0.000000,0.000000,-0.005573,0.013927,0.037423,-0.038797,-0.001465,-0.000488,-0.002197,0,0,0,0
243.498535,-2.648438,-1.296875,0.000000,0.000000,0.000000,-0.005590,0.013927,0.037423,-0.038797,0.000244,-0.000488,-0.002686,0,0,0,0
243.508316,-2.648438,-1.296875,0.000000,0.000000,0.000000,-0.005167,0.013927,0.037423,-0.038797,-0.001465,0.001709,0.000488,0,0,0,0
243.518066,-2.648438,-1.296875,0.000000,0.000000,0.000000,-0.005476,0.013927,0.037423,-0.038797,-0.004150,-0.001465,-0.000488,0,0,0,0
243.527832,-2.648438,-1.296875,0.000000,0.000000,0.000000,-0.005163,0.013927,0.037423,-0.038797,0.000244,-0.001465,-0.001709,0,0,0,0
243.537598,-2.648438,-1.296875,0.000000,0.000000,0.000000,-0.004801,0.013927,0.037423,-0.038797,0.001709,-0.000977,-0.001709,0,0,0,0
243.547363,-2.648438,-1.296875,0.000000,0.000000,0.000000,-0.005394,0.013927,0.037423,-0.038797,0.000244,0.000000,0.000000,0,0,0,0
243.557129,-2.648438,-1.296875,0.000000,0.000000,0.000000,-0.005611,0.013927,0.037423,-0.038797,-0.001465,0.000000,0.001465,0,0,0,0
243.566895,-2.648438,-1.296875,0.000000,0.000000,0.000000,-0.005594,0.013927,0.037423,-0.038797,-0.001465,-0.000977,0.002197,0,0,0,0
243.576660,-2.648438,-1.296875,0.000000,0.000000,0.000000,-0.005114,0.013927,0.037423,-0.038797,0.001221,-0.000977,0.002197,0,0,0,0
243.586426,-2.648438,-1.296875,0.000000,0.000000,0.000000,-0.005028,0.013927,0.037423,-0.038797,0.002441,-0.000977,-0.002197,0,0,0,0
243.596207,-2.648438,-1.296875,0.000000,0.000000,0.000000,-0.004967,0.013927,0.037423,-0.038797,-0.000977,-0.000977,0.000000,0,0,0,0
243.605957,-2.648438,-1.296875,0.000000,0.000000,0.000000,-0.004536,0.013927,0.037423,-0.038797,-0.001465,0.000000,0.000000,0,0,0,0
243.615723,-2.648438,-1.296875,0.000000,0.000000,0.000000,-0.004633,0.013927,0.037423,-0.038797,0.000732,0.000000,0.000488,0,0,0,0
243.625488,-2.648438,-1.296875,0.000000,0.000000,0.000000,-0.004776,0.013927,0.037423,-0.038797,0.000732,0.000000,-0.001221,0,0,0,0
243.635254,-2.648438,-1.296875,0.000000,0.000000,0.000000,-0.004614,0.013866,0.037423,-0.038797,-0.001953,-0.000977,-0.002197,0,0,0,0
243.645020,-2.648438,-1.296875,0.000000,0.000000,0.000000,-0.004164,0.013866,0.037362,-0.038797,0.000732,0.001709,0.000488,0,0,0,0
243.654785,-2.648438,-1.296875,0.000000,0.000000,0.000000,-0.004475,0.013866,0.037362,-0.038797,-0.000977,0.003174,-0.001709,0,0,0,0
243.664551,-2.648438,-1.296875,0.000000,0.000000,0.000000,-0.004782,0.013866,0.037362,-0.038797,-0.000977,0.000977,0.000488,0,0,0,0
243.674316,-2.648438,-1.296875,0.000000,0.000000,0.000000,-0.004667,0.013866,0.037362,-0.038797,-0.001465,-0.001953,-0.001709,0,0,0,0
243.684082,-2.648438,-1.296875,0.000000,0.000000,0.000000,-0.004704,0.013866,0.037362,-0.038797,-0.003418,0.000977,-0.000488,0,0,0,0
243.693848,-2.648438,-1.296875,0.000000,0.000000,0.000000,-0.004368,0.013866,0.037362,-0.038797,-0.002930,-0.000488,-0.000488,0,0,0,0
243.703613,-2.648438,-1.296875,0.000000,0.000000,0.000000,-0.004206,0.013866,0.037362,-0.038797,-0.001465,-0.002441,-0.000488,0,0,0,0
243.713379,-2.648438,-1.296875,0.000000,0.000000,0.000000,-0.004402,0.013866,0.037362,-0.038797,0.000244,-0.004639,0.000000,0,0,0,0
243.723145,-2.648438,-1.296875,0.000000,0.000000,0.000000,-0.004747,0.013866,0.037362,-0.038797,-0.002930,0.000000,0.000000,0,0,0,0
243.732910,-2.648438,-1.296875,0.000000,0.000000,0.000000,-0.004742,0.013866,0.037362,-0.038797,-0.000977,-0.000488,0.001465,0,0,0,0
243.742676,-2.648438,-1.296875,0.000000,0.000000,0.000000,-0.004658,0.013672,0.037354,-0.038574,-0.002441,0.000000,-0.001709,0,0,0,0
243.752441,-2.648438,-1.296875,0.000000,0.000000,0.000000,-0.004930,0.013866,0.037362,-0.038797,-0.001465,-0.000488,-0.000488,0,0,0,0
243.762207,-2.648438,-1.296875,0.000000,0.000000,0.000000,-0.005213,0.013805,0.037362,-0.038797,-0.000244,-0.001953,-0.001221,0,0,0,0
243.771973,-2.648438,-1.296875,0.000000,0.000000,0.000000,-0.004900,0.013805,0.037362,-0.038797,-0.002441,0.000488,-0.002197,0,0,0,0
243.781738,-2.648438,-1.296875,0.000000,0.000000,0.000000,-0.005522,0.013805,0.037362,-0.038797,-0.002930,0.000000,-0.000488,0,0,0,0
243.791504,-2.648438,-1.296875,0.000000,0.000000,0.000000,-0.006157,0.013805,0.037301,-0.038797,-0.000977,-0.005127,0.000977,0,0,0,0
243.801270,-2.648438,-1.296875,0.000000,0.000000,0.000000,-0.005941,0.013805,0.037301,-0.038797,0.001709,-0.001465,0.000000,0,0,0,0
243.811050,-2.648438,-1.296875,0.000000,0.000000,0.000000,-0.005411,0.013744,0.037301,-0.038797,0.000244,0.000488,-0.001221,0,0,0,0
243.820801,-2.648438,-1.296875,0.000000,0.000000,0.000000,-0.005320,0.013744,0.037301,-0.038797,-0.002441,0.000488,-0.001221,0,0,0,0
243.830566,-2.648438,-1.296875,0.000000,0.000000,0.000000,-0.005608,0.013744,0.037301,-0.038797,0.000244,0.000488,0.001465,0,0,0,0
243.840332,-2.648438,-1.296875,0.000000,0.000000,0.000000,-0.005417,0.013744,0.037301,-0.038797,-0.000977,0.000488,0.002197,0,0,0,0
243.850098,-2.648438,-1.296875,0.000000,0.000000,0.000000,-0.005386,0.013744,0.037301,-0.038797,0.000732,-0.001465,0.001465,0,0,0,0
243.859863,-2.648438,-1.296875,0.000000,0.000000,0.000000,-0.005173,0.013744,0.037301,-0.038797,0.001221,-0.000488,0.000000,0,0,0,0
243.869629,-2.648438,-1.296875,0.000000,0.000000,0.000000,-0.004812,0.013744,0.037301,-0.038797,0.000244,0.001709,0.000488,0,0,0,0
243.879395,-2.648438,-1.296875,0.000000,0.000000,0.000000,-0.005108,0.013744,0.037301,-0.038797,0.001709,-0.000488,0.001465,0,0,0,0
243.889160,-2.648438,-1.296875,0.000000,0.000000,0.000000,-0.005053,0.013744,0.037240,-0.038797,0.000244,-0.001953,-0.000488,0,0,0,0
243.898926,-2.648438,-1.296875,0.000000,0.000000,0.000000,-0.005575,0.013744,0.037240,-0.038797,-0.000977,-0.001465,0.000488,0,0,0,0
243.908691,-2.648438,-1.296875,0.000000,0.000000,0.000000,-0.005260,0.013683,0.037240,-0.038797,0.001221,-0.000977,-0.000488,0,0,0,0
243.918457,-2.648438,-1.296875,0.000000,0.000000,0.000000,-0.005533,0.013683,0.037240,-0.038797,-0.000977,0.002197,0.000000,0,0,0,0
243.928223,-2.648438,-1.296875,0.000000,0.000000,0.000000,-0.005716,0.013683,0.037240,-0.038797,-0.001465,0.001709,0.000000,0,0,0,0
243.937988,-2.648438,-1.296875,0.000000,0.000000,0.000000,-0.005308,0.013683,0.037240,-0.038797,-0.001465,-0.000977,-0.000488,0,0,0,0
243.947754,-2.648438,-1.296875,0.000000,0.000000,0.000000,-0.005507,0.013683,0.037240,-0.038797,-0.001465,-0.001953,-0.002686,0,0,0,0
243.957520,-2.648438,-1.296875,0.000000,0.000000,0.000000,-0.005907,0.013683,0.037240,-0.038797,-0.000977,-0.001953,-0.000488,0,0,0,0
243.967285,-2.648438,-1.296875,0.000000,0.000000,0.000000,-0.006102,0.013683,0.037240,-0.038797,-0.001465,0.000000,0.000977,0,0,0,0
243.977051,-2.648438,-1.296875,0.000000,0.000000,0.000000,-0.004898,0.013683,0.037240,-0.038797,-0.001953,-0.000977,0.000000,0,0,0,0
243.986816,-2.648438,-1.296875,0.000000,0.000000,0.000000,-0.004862,0.013683,0.037240,-0.038797,-0.000977,-0.000977,-0.000488,0,0,0,0
243.996582,-2.648438,-1.296875,0.000000,0.000000,0.000000,-0.004795,0.013683,0.037240,-0.038797,-0.002441,0.000977,0.000488,0,0,0,0
244.006348,-2.648438,-1.296875,0.000000,0.000000,0.000000,-0.004698,0.013683,0.037240,-0.038797,-0.001465,-0.002441,0.000488,0,0,0,0
244.016113,-2.648438,-1.296875,0.000000,0.000000,0.000000,-0.004490,0.013622,0.037240,-0.038797,-0.002441,0.000977,0.000977,0,0,0,0
244.025879,-2.648438,-1.296875,0.000000,0.000000,0.000000,-0.004759,0.013622,0.037240,-0.038797,-0.006104,-0.001465,-0.001221,0,0,0,0
244.035645,-2.648438,-1.296875,0.000000,0.000000,0.000000,-0.004593,0.013622,0.037240,-0.038797,-0.002930,-0.000977,-0.001709,0,0,0,0
244.045410,-2.648438,-1.296875,0.000000,0.000000,0.000000,-0.004400,0.013428,0.037109,-0.038574,-0.001953,-0.001465,-0.001709,0,0,0,0
244.055176,-2.648438,-1.296875,0.000000,0.000000,0.000000,-0.003616,0.013622,0.037179,-0.038858,0.000732,0.000488,-0.000488,0,0,0,0
244.064941,-2.648438,-1.296875,0.000000,0.000000,0.000000,-0.003668,0.013622,0.037179,-0.038858,-0.001465,-0.000488,0.000488,0,0,0,0
244.074707,-2.648438,-1.296875,0.000000,0.000000,0.000000,-0.003767,0.013622,0.037179,-0.038858,-0.000244,-0.000488,0.002197,0,0,0,0
244.084473,-2.648438,-1.296875,0.000000,0.000000,0.000000,-0.003778,0.013622,0.037179,-0.038858,-0.000244,-0.000977,-0.001709,0,0,0,0
244.094238,-2.648438,-1.296875,0.000000,0.000000,0.000000,-0.003803,0.013622,0.037179,-0.038858,0.000244,-0.002441,-0.001221,0,0,0,0
244.104004,-2.648438,-1.296875,0.000000,0.000000,0.000000,-0.003582,0.013561,0.037179,-0.038858,-0.000244,-0.001953,0.003662,0,0,0,0
244.113785,-2.648438,-1.296875,0.000000,0.000000,0.000000,-0.003624,0.013561,0.037179,-0.038858,0.000244,-0.001465,-0.001221,0,0,0,0
244.123535,-2.648438,-1.296875,0.000000,0.000000,0.000000,-0.004002,0.013561,0.037179,-0.038858,0.002930,-0.001953,-0.000488,0,0,0,0
244.133301,-2.648438,-1.296875,0.000000,0.000000,0.000000,-0.004539,0.013561,0.037179,-0.038858,-0.000244,-0.000488,0.000000,0,0,0,0
244.143066,-2.648438,-1.296875,0.000000,0.000000,0.000000,-0.004650,0.013561,0.037179,-0.038858,-0.001465,-0.000977,0.000000,0,0,0,0
244.152832,-2.648438,-1.296875,0.000000,0.000000,0.000000,-0.004633,0.013561,0.037179,-0.038858,0.000732,-0.001953,0.000488,0,0,0,0
244.162598,-2.648438,-1.296875,0.000000,0.000000,0.000000,-0.005018,0.013561,0.037179,-0.038858,-0.001465,0.000000,-0.000488,0,0,0,0
244.172363,-2.648438,-1.296875,0.000000,0.000000,0.000000,-0.004900,0.013561,0.037179,-0.038858,0.000244,-0.000488,-0.001221,0,0,0,0
244.182129,-2.648438,-1.296875,0.000000,0.000000,0.000000,-0.004644,0.013561,0.037179,-0.038858,-0.002441,0.000488,0.000000,0,0,0,0
244.191895,-2.648438,-1.296875,0.000000,0.000000,0.000000,-0.004734,0.013499,0.037118,-0.038858,-0.002930,0.002686,0.000000,0,0,0,0
244.201660,-2.648438,-1.296875,0.000000,0.000000,0.000000,-0.005087,0.013499,0.037118,-0.038858,-0.004150,0.000488,-0.002686,0,0,0,0
244.211426,-2.648438,-1.296875,0.000000,0.000000,0.000000,-0.005476,0.013499,0.037118,-0.038858,-0.001953,0.002197,-0.000488,0,0,0,0
244.221191,-2.648438,-1.296875,0.000000,0.000000,0.000000,-0.005369,0.013499,0.037118,-0.038858,-0.002930,0.000977,-0.000488,0,0,0,0
244.230957,-2.648438,-1.296875,0.000000,0.000000,0.000000,-0.004564,0.013133,0.037179,-0.039041,-0.025391,0.002197,-0.035889,0,0,0,0
244.240723,-2.648438,-1.296875,0.000000,0.000000,0.000000,-0.004467,0.014416,0.037118,-0.039102,0.100098,-0.027344,0.050049,0,0,0,0
244.250488,-2.648438,-1.296875,0.000000,0.000000,0.000000,-0.004295,0.013742,0.036996,-0.038121,-0.076904,-0.027344,0.096680,0,0,0,0
244.260254,-2.648438,-1.296875,0.000000,0.000000,0.000000,-0.003920,0.013559,0.036996,-0.038304,-0.081787,0.017578,-0.129639,0,0,0,0
244.270020,-2.648438,-1.296875,0.000000,0.000000,0.000000,-0.005581,0.013071,0.037362,-0.040140,0.073486,0.034668,-0.177490,0,0,0,0
244.279785,-2.648438,-1.296875,0.000000,0.000000,0.000000,-0.006632,0.014842,0.037240,-0.039649,0.209717,-0.068848,0.231445,0,0,0,0
244.289551,-2.648438,-1.296875,0.000000,0.000000,0.000000,-0.004667,0.014722,0.036751,-0.036783,-0.156250,-0.014160,0.219238,0,0,0,0
244.299316,-2.648438,-1.296875,0.000000,0.000000,0.000000,-0.002705,0.013560,0.036874,-0.037877,-0.103516,0.051025,-0.334473,0,0,0,0
244.309097,-2.648438,-1.296875,0.000000,0.000000,0.000000,-0.006002,0.013439,0.037484,-0.041121,0.159668,0.050049,-0.212646,0,0,0,0
244.318848,-2.648438,-1.296875,0.000000,0.000000,0.000000,-0.007103,0.015578,0.037179,-0.039471,0.144775,-0.061523,0.394775,0,0,0,0
244.328613,-2.648438,-1.296875,0.000000,0.000000,0.000000,-0.004192,0.015271,0.036507,-0.036349,-0.161621,-0.034424,0.153809,0,0,0,0
244.338379,-2.648438,-1.296875,0.000000,0.000000,0.000000,-0.002811,0.013315,0.036996,-0.038487,-0.135010,0.081543,-0.408936,0,0,0,0
244.348145,-2.648438,-1.296875,0.000000,0.000000,0.000000,-0.006016,0.014600,0.037423,-0.041060,0.309082,0.013916,-0.059326,0,0,0,0
244.357910,-2.648438,-1.296875,0.000000,0.000000,0.000000,-0.007160,0.016553,0.036813,-0.038429,0.054443,-0.081787,0.379883,0,0,0,0
244.367676,-2.648438,-1.296875,0.000000,0.000000,0.000000,-0.003428,0.015087,0.036324,-0.037020,-0.234375,0.004883,-0.084473,0,0,0,0
244.377441,-2.648438,-1.296875,0.000000,0.000000,0.000000,-0.004187,0.013680,0.037179,-0.039647,0.008301,0.110596,-0.292969,0,0,0,0
244.387207,-2.648438,-1.296875,0.000000,0.000000,0.000000,-0.007965,0.016066,0.037423,-0.039898,0.316650,-0.025879,0.164795,0,0,0,0
244.396973,-2.648438,-1.296875,0.000000,0.000000,0.000000,-0.006544,0.016860,0.036507,-0.037574,-0.115723,-0.089111,0.169189,0,0,0,0
244.406738,-2.648438,-1.296875,0.000000,0.000000,0.000000,-0.003271,0.014841,0.036507,-0.038607,-0.200439,0.065430,-0.247314,0,0,0,0
244.416519,-2.648438,-1.296875,0.000000,0.000000,0.000000,-0.005939,0.014648,0.037109,-0.040039,0.199463,0.041016,-0.015381,0,0,0,0
244.426270,-2.648438,-1.296875,0.000000,0.000000,0.000000,-0.009111,0.017591,0.036874,-0.038123,0.186279,-0.065674,0.275635,0,0,0,0
244.436035,-2.648438,-1.296875,0.000000,0.000000,0.000000,-0.006420,0.016860,0.036324,-0.037330,-0.206787,-0.028564,-0.119629,0,0,0,0
244.445801,-2.648438,-1.296875,0.000000,0.000000,0.000000,-0.006060,0.015148,0.036874,-0.040015,-0.065674,0.085693,-0.254150,0,0,0,0
244.455566,-2.648438,-1.296875,0.000000,0.000000,0.000000,-0.008375,0.016430,0.037240,-0.039832,0.251709,0.002197,0.219238,0,0,0,0
244.465332,-2.648438,-1.296875,0.000000,0.000000,0.000000,-0.007730,0.017959,0.036690,-0.036964,-0.000977,-0.073730,0.222412,0,0,0,0
244.475098,-2.648438,-1.296875,0.000000,0.000000,0.000000,-0.004620,0.016493,0.036385,-0.037818,-0.189697,0.013916,-0.280273,0,0,0,0
244.484863,-2.648438,-1.296875,0.000000,0.000000,0.000000,-0.005352,0.016125,0.037057,-0.040381,0.100098,0.062744,-0.145508,0,0,0,0
244.494629,-2.648438,-1.296875,0.000000,0.000000,0.000000,-0.006943,0.017897,0.036996,-0.039100,0.168213,-0.054443,0.288330,0,0,0,0
244.504395,-2.648438,-1.296875,0.000000,0.000000,0.000000,-0.005272,0.018020,0.036507,-0.036842,-0.111084,-0.027344,0.094727,0,0,0,0
244.514160,-2.648438,-1.296875,0.000000,0.000000,0.000000,-0.004446,0.016675,0.036629,-0.038490,-0.105713,0.037842,-0.297363,0,0,0,0
244.523926,-2.648438,-1.296875,0.000000,0.000000,0.000000,-0.006447,0.017224,0.037240,-0.040320,0.178223,0.018555,-0.028564,0,0,0,0
244.533691,-2.648438,-1.296875,0.000000,0.000000,0.000000,-0.005772,0.018568,0.036996,-0.038487,0.036377,-0.053955,0.270752,0,0,0,0
244.543457,-2.648438,-1.296875,0.000000,0.000000,0.000000,-0.001913,0.017653,0.036507,-0.037147,-0.114258,-0.048584,-0.010742,0,0,0,0
244.553223,-2.648438,-1.296875,0.000000,0.000000,0.000000,-0.002411,0.017591,0.036568,-0.038917,0.045410,0.051025,-0.231689,0,0,0,0
244.562988,-2.648438,-1.296875,0.000000,0.000000,0.000000,-0.006027,0.018323,0.037118,-0.039891,0.143555,0.048340,0.039795,0,0,0,0
244.572754,-2.648438,-1.296875,0.000000,0.000000,0.000000,-0.007286,0.018813,0.037179,-0.038487,-0.100342,-0.010986,0.149414,0,0,0,0
244.582520,-2.648438,-1.296875,0.000000,0.000000,0.000000,-0.004036,0.017776,0.036507,-0.037940,-0.008301,-0.080566,-0.011230,0,0,0,0
244.592285,-2.648438,-1.296875,0.000000,0.000000,0.000000,-0.003160,0.018752,0.036568,-0.038487,0.098877,0.094238,-0.061035,0,0,0,0
244.602051,-2.648438,-1.296875,0.000000,0.000000,0.000000,-0.005028,0.018385,0.037545,-0.039036,-0.113037,0.060059,-0.062500,0,0,0,0
244.611816,-2.648438,-1.296875,0.000000,0.000000,0.000000,-0.007076,0.018629,0.037057,-0.039281,0.170166,-0.121582,0.045654,0,0,0,0
244.621582,-2.648438,-1.296875,0.000000,0.000000,0.000000,-0.007891,0.018935,0.036446,-0.038060,-0.187012,0.054199,0.125977,0,0,0,0
244.631348,-2.648438,-1.296875,0.000000,0.000000,0.000000,-0.005941,0.017898,0.037668,-0.038001,0.184570,0.057373,-0.075928,0,0,0,0
244.641113,-2.648438,-1.296875,0.000000,0.000000,0.000000,-0.004126,0.019729,0.036996,-0.038853,-0.144043,-0.101318,-0.091797,0,0,0,0
244.651855,-2.648438,-1.296875,0.000000,0.000000,0.000000,-0.005823,0.017713,0.037179,-0.039344,0.273926,0.060791,0.054199,0,0,0,0
244.661636,-2.648438,-1.296875,0.000000,0.000000,0.000000,-0.002174,0.020461,0.037301,-0.037999,-0.201904,-0.003906,0.115967,0,0,0,0
244.671387,-2.648438,-1.296875,0.000000,0.000000,0.000000,-0.004917,0.018263,0.037607,-0.038306,0.212158,-0.002930,-0.078613,0,0,0,0
244.681152,-2.648438,-1.296875,0.000000,0.000000,0.000000,-0.003683,0.020034,0.037057,-0.038670,-0.193604,-0.037598,-0.033936,0,0,0,0
244.690918,-2.648438,-1.296875,0.000000,0.000000,0.000000,-0.004854,0.018507,0.037179,-0.038975,0.198486,0.001709,0.018555,0,0,0,0
244.700684,-2.648438,-1.296875,0.000000,0.000000,0.000000,-0.002361,0.019912,0.037057,-0.038304,-0.173340,0.003662,0.050049,0,0,0,0
244.710449,-2.648438,-1.296875,0.000000,0.000000,0.000000,-0.003447,0.018446,0.037301,-0.038426,0.148926,0.000977,-0.015381,0,0,0,0
244.720215,-2.648438,-1.296875,0.000000,0.000000,0.000000,-0.002781,0.019545,0.037057,-0.038304,-0.114258,-0.012451,-0.003174,0,0,0,0
244.729996,-2.648438,-1.296875,0.000000,0.000000,0.000000,-0.004862,0.018996,0.037240,-0.038853,0.183594,0.015381,-0.042480,0,0,0,0
244.739761,-2.648438,-1.296875,0.000000,0.000000,0.000000,-0.000397,0.019912,0.037240,-0.038487,-0.149902,-0.009766,0.044678,0,0,0,0
244.749527,-2.648438,-1.296875,0.000000,0.000000,0.000000,-0.002485,0.018874,0.037301,-0.038609,0.157471,0.001709,-0.001221,0,0,0,0
244.759277,-2.648438,-1.296875,0.000000,0.000000,0.000000,0.002150,0.020034,0.037057,-0.038121,-0.142822,-0.038574,0.030273,0,0,0,0
244.769043,-2.648438,-1.296875,0.000000,0.000000,0.000000,-0.001263,0.018446,0.037118,-0.038731,0.105225,0.020264,-0.070557,0,0,0,0
244.778809,-2.648438,-1.296875,0.000000,0.000000,0.000000,0.000856,0.019790,0.037179,-0.038426,-0.093018,-0.020020,0.059570,0,0,0,0
244.788574,-2.648438,-1.296875,0.000000,0.000000,0.000000,-0.002941,0.017958,0.037057,-0.038490,0.082520,0.000977,-0.018555,0,0,0,0
244.798340,-2.648438,-1.296875,0.000000,0.000000,0.000000,-0.000362,0.019790,0.037118,-0.038060,-0.079102,-0.001953,0.041504,0,0,0,0
244.808121,-2.648438,-1.296875,0.000000,0.000000,0.000000,-0.002426,0.017836,0.037118,-0.038551,0.043213,-0.000488,-0.078125,0,0,0,0
244.817886,-2.648438,-1.296875,0.000000,0.000000,0.000000,-0.000072,0.020034,0.037179,-0.038426,-0.010498,-0.008789,0.052002,0,0,0,0
244.827637,-2.648438,-1.296875,0.000000,0.000000,0.000000,-0.001894,0.017897,0.037057,-0.038551,-0.032227,0.008057,-0.049805,0,0,0,0
244.837402,-2.648438,-1.296875,0.000000,0.000000,0.000000,0.000845,0.020095,0.037118,-0.038243,0.049805,-0.010498,0.067627,0,0,0,0
244.847168,-2.648438,-1.296875,0.000000,0.000000,0.000000,-0.001654,0.017775,0.036996,-0.038429,-0.124268,-0.000488,-0.073730,0,0,0,0
244.856934,-2.648438,-1.296875,0.000000,0.000000,0.000000,-0.000393,0.019790,0.037057,-0.038426,0.105225,-0.016846,0.052734,0,0,0,0
244.866699,-2.648438,-1.296875,0.000000,0.000000,0.000000,-0.001503,0.017347,0.036874,-0.038551,-0.201416,0.013428,-0.058838,0,0,0,0
244.876480,-2.648438,-1.296875,0.000000,0.000000,0.000000,-0.002150,0.019423,0.037057,-0.038304,0.185059,-0.006104,0.081787,0,0,0,0
244.886230,-2.648438,-1.296875,0.000000,0.000000,0.000000,-0.003351,0.017347,0.036874,-0.038245,-0.221680,0.009033,-0.058838,0,0,0,0
244.895996,-2.648438,-1.296875,0.000000,0.000000,0.000000,-0.003428,0.019423,0.036996,-0.038426,0.253662,-0.005615,0.039307,0,0,0,0
244.905762,-2.648438,-1.296875,0.000000,0.000000,0.000000,-0.002745,0.017469,0.036751,-0.038490,-0.273926,0.014404,-0.060059,0,0,0,0
244.915527,-2.648438,-1.296875,0.000000,0.000000,0.000000,-0.003294,0.019301,0.036935,-0.038548,0.279785,-0.011475,0.068115,0,0,0,0
244.925293,-2.648438,-1.296875,0.000000,0.000000,0.000000,-0.001774,0.017408,0.036813,-0.038306,-0.329102,0.012207,-0.042969,0,0,0,0
244.935059,-2.648438,-1.296875,0.000000,0.000000,0.000000,-0.004236,0.018813,0.036935,-0.038548,0.310791,-0.007812,0.042969,0,0,0,0
244.944824,-2.648438,-1.296875,0.000000,0.000000,0.000000,-0.002007,0.017286,0.036874,-0.038306,-0.334473,-0.002441,-0.046631,0,0,0,0
244.954605,-2.648438,-1.296875,0.000000,0.000000,0.000000,-0.005144,0.018324,0.037057,-0.038612,0.328857,0.017578,0.041504,0,0,0,0
244.964355,-2.648438,-1.296875,0.000000,0.000000,0.000000,-0.000751,0.017347,0.036813,-0.038245,-0.336182,-0.014648,-0.028076,0,0,0,0
244.974121,-2.648438,-1.296875,0.000000,0.000000,0.000000,-0.004984,0.017958,0.036874,-0.038551,0.342529,0.012207,0.026123,0,0,0,0
244.983887,-2.648438,-1.296875,0.000000,0.000000,0.000000,-0.001242,0.017530,0.036751,-0.038306,-0.319580,-0.017334,-0.022217,0,0,0,0
