time,pos_x,pos_y,pos_z,vel_x,vel_y,vel_z,att_phi,att_theta,att_psi,rate_p,rate_q,rate_r,cmd_thrust,cmd_roll,cmd_pitch,cmd_yaw
9.672515,-1.917969,-1.308594,0.000000,0.000000,0.000000,-0.054461,0.008484,0.006348,0.033760,0.000244,-0.000732,-0.001709,0,0,0,0
9.680317,-1.917969,-1.308594,0.000000,0.000000,0.000000,-0.051746,0.008423,0.006348,0.033821,0.000244,-0.000244,-0.001221,0,0,0,0
9.690085,-1.917969,-1.308594,0.000000,0.000000,0.000000,-0.052757,0.008423,0.006348,0.033821,0.002441,0.000244,0.000000,0,0,0,0
9.699852,-1.917969,-1.308594,0.000000,0.000000,0.000000,-0.053635,0.008423,0.006348,0.033821,0.003418,-0.000244,0.002197,0,0,0,0
9.709614,-1.917969,-1.308594,0.000000,0.000000,0.000000,-0.050955,0.008423,0.006348,0.033821,-0.001465,-0.000244,0.000000,0,0,0,0
9.719382,-1.917969,-1.308594,0.000000,0.000000,0.000000,-0.051710,0.008423,0.006348,0.033821,-0.000244,-0.000244,-0.001221,0,0,0,0
9.729148,-1.917969,-1.308594,0.000000,0.000000,0.000000,-0.052286,0.008423,0.006348,0.033821,-0.002930,-0.000732,0.002686,0,0,0,0
9.738917,-1.917969,-1.308594,0.000000,0.000000,0.000000,-0.053711,0.008423,0.006348,0.033821,-0.000732,0.002686,0.000488,0,0,0,0
9.748676,-1.917969,-1.308594,0.000000,0.000000,0.000000,-0.050598,0.008423,0.006348,0.033821,-0.002441,0.000244,0.002686,0,0,0,0
9.758446,-1.917969,-1.308594,0.000000,0.000000,0.000000,-0.051489,0.008423,0.006348,0.033821,0.000244,-0.001709,-0.001221,0,0,0,0
9.768208,-1.917969,-1.308594,0.000000,0.000000,0.000000,-0.052700,0.008423,0.006348,0.033821,0.000732,-0.000732,0.000000,0,0,0,0
9.777974,-1.917969,-1.308594,0.000000,0.000000,0.000000,-0.050169,0.008423,0.006348,0.033821,-0.003418,0.000732,0.000488,0,0,0,0
9.787748,-1.917969,-1.308594,0.000000,0.000000,0.000000,-0.051134,0.008301,0.006348,0.033691,0.001953,-0.000732,0.001465,0,0,0,0
9.797509,-1.917969,-1.308594,0.000000,0.000000,0.000000,-0.052099,0.008423,0.006348,0.033821,0.000732,0.000732,0.000488,0,0,0,0
9.807277,-1.917969,-1.308594,0.000000,0.000000,0.000000,-0.048635,0.008423,0.006348,0.033821,-0.000732,-0.000732,0.002197,0,0,0,0
9.817043,-1.917969,-1.308594,0.000000,0.000000,0.000000,-0.049803,0.008423,0.006348,0.033821,0.002930,0.002197,-0.001221,0,0,0,0
9.826807,-1.917969,-1.308594,0.000000,0.000000,0.000000,-0.050858,0.008423,0.006348,0.033821,-0.002441,0.001221,0.000977,0,0,0,0
9.836566,-1.917969,-1.308594,0.000000,0.000000,0.000000,-0.051966,0.008423,0.006348,0.033821,0.001221,-0.002930,0.001465,0,0,0,0
9.846332,-1.917969,-1.308594,0.000000,0.000000,0.000000,-0.049374,0.008423,0.006348,0.033821,0.002441,-0.000732,0.000488,0,0,0,0
9.856101,-1.917969,-1.308594,0.000000,0.000000,0.000000,-0.050198,0.008423,0.006348,0.033821,-0.000732,-0.000244,0.000977,0,0,0,0
9.865864,-1.917969,-1.308594,0.000000,0.000000,0.000000,-0.051147,0.008423,0.006348,0.033821,0.000244,-0.001709,0.000000,0,0,0,0
9.875630,-1.917969,-1.308594,0.000000,0.000000,0.000000,-0.048037,0.008423,0.006287,0.033821,0.001953,0.001709,-0.001221,0,0,0,0
9.885397,-1.917969,-1.308594,0.000000,0.000000,0.000000,-0.049198,0.008423,0.006287,0.033821,0.000244,-0.000732,0.000488,0,0,0,0
9.895163,-1.917969,-1.308594,0.000000,0.000000,0.000000,-0.050066,0.008423,0.006287,0.033821,-0.001465,-0.001709,-0.002197,0,0,0,0
9.904927,-1.917969,-1.308594,0.000000,0.000000,0.000000,-0.050995,0.008423,0.006287,0.033821,-0.001953,-0.000732,0.002197,0,0,0,0
9.914692,-1.917969,-1.308594,0.000000,0.000000,0.000000,-0.048306,0.008423,0.006287,0.033821,-0.000244,-0.000244,-0.000488,0,0,0,0
9.924459,-1.917969,-1.308594,0.000000,0.000000,0.000000,-0.049473,0.008423,0.006287,0.033821,-0.000244,0.001221,0.000488,0,0,0,0
9.934223,-1.917969,-1.308594,0.000000,0.000000,0.000000,-0.050516,0.008423,0.006287,0.033821,0.000732,0.000244,-0.000488,0,0,0,0
9.943987,-1.917969,-1.308594,0.000000,0.000000,0.000000,-0.047211,0.008423,0.006287,0.033821,-0.003906,0.000244,0.003174,0,0,0,0
9.953759,-1.917969,-1.308594,0.000000,0.000000,0.000000,-0.048204,0.008362,0.006287,0.033821,-0.001953,0.000244,0.000977,0,0,0,0
9.963521,-1.917969,-1.308594,0.000000,0.000000,0.000000,-0.049013,0.008362,0.006287,0.033821,0.000244,0.000244,-0.002197,0,0,0,0
9.973293,-1.917969,-1.308594,0.000000,0.000000,0.000000,-0.050049,0.008362,0.006287,0.033821,-0.003418,-0.001221,0.002197,0,0,0,0
9.983061,-1.917969,-1.308594,0.000000,0.000000,0.000000,-0.047194,0.008362,0.006287,0.033821,-0.001465,-0.001709,-0.000488,0,0,0,0
9.992824,-1.917969,-1.308594,0.000000,0.000000,0.000000,-0.048607,0.008362,0.006287,0.033821,-0.002441,0.000732,0.000488,0,0,0,0
10.002583,-1.917969,-1.308594,0.000000,0.000000,0.000000,-0.049528,0.008362,0.006287,0.033821,-0.003418,-0.000244,0.000000,0,0,0,0
10.012349,-1.917969,-1.308594,0.000000,0.000000,0.000000,-0.046892,0.008362,0.006287,0.033821,-0.000244,-0.001221,-0.001709,0,0,0,0
10.022123,-1.917969,-1.308594,0.000000,0.000000,0.000000,-0.047855,0.008301,0.006104,0.033691,0.000244,-0.000244,0.002197,0,0,0,0
10.031880,-1.917969,-1.308594,0.000000,0.000000,0.000000,-0.049107,0.008362,0.006287,0.033821,0.000244,-0.002930,0.000000,0,0,0,0
10.041645,-1.917969,-1.308594,0.000000,0.000000,0.000000,-0.046753,0.008362,0.006287,0.033821,0.000732,-0.000732,0.000488,0,0,0,0
10.051414,-1.917969,-1.308594,0.000000,0.000000,0.000000,-0.048082,0.008362,0.006287,0.033821,0.001953,-0.002197,-0.000488,0,0,0,0
10.061179,-1.917969,-1.308594,0.000000,0.000000,0.000000,-0.049124,0.008362,0.006287,0.033821,0.002441,0.000732,-0.000488,0,0,0,0
10.070942,-1.917969,-1.308594,0.000000,0.000000,0.000000,-0.049780,0.008362,0.006287,0.033821,0.000244,0.003418,0.000977,0,0,0,0
10.080708,-1.917969,-1.308594,0.000000,0.000000,0.000000,-0.045893,0.008362,0.006287,0.033821,-0.000732,-0.001709,0.000000,0,0,0,0
10.090477,-1.917969,-1.308594,0.000000,0.000000,0.000000,-0.047073,0.008362,0.006287,0.033821,0.000244,-0.000244,-0.000488,0,0,0,0
10.100242,-1.917969,-1.308594,0.000000,0.000000,0.000000,-0.048231,0.008362,0.006287,0.033821,0.000244,0.000732,0.000977,0,0,0,0
10.110007,-1.917969,-1.308594,0.000000,0.000000,0.000000,-0.046299,0.008362,0.006287,0.033821,-0.000732,0.002686,0.000977,0,0,0,0
10.119776,-1.917969,-1.308594,0.000000,0.000000,0.000000,-0.047396,0.008362,0.006226,0.033821,-0.000732,0.001221,-0.001221,0,0,0,0
10.129539,-1.917969,-1.308594,0.000000,0.000000,0.000000,-0.048315,0.008362,0.006226,0.033821,0.001953,-0.001709,0.000488,0,0,0,0
10.139303,-1.917969,-1.308594,0.000000,0.000000,0.000000,-0.049389,0.008362,0.006226,0.033821,-0.000732,-0.000732,0.002686,0,0,0,0
10.149069,-1.917969,-1.308594,0.000000,0.000000,0.000000,-0.047174,0.008362,0.006226,0.033821,-0.002930,-0.003418,-0.001221,0,0,0,0
10.158838,-1.917969,-1.308594,0.000000,0.000000,0.000000,-0.046955,0.008362,0.006226,0.033821,-0.001465,0.000244,-0.001221,0,0,0,0
10.168600,-1.917969,-1.308594,0.000000,0.000000,0.000000,-0.048157,0.008362,0.006226,0.033821,0.000244,-0.000244,0.000488,0,0,0,0
10.178366,-1.917969,-1.308594,0.000000,0.000000,0.000000,-0.046501,0.008362,0.006226,0.033821,0.000244,-0.001221,0.002197,0,0,0,0
10.188136,-1.917969,-1.308594,0.000000,0.000000,0.000000,-0.047390,0.008362,0.006226,0.033821,-0.001465,0.001221,0.000000,0,0,0,0
10.197899,-1.917969,-1.308594,0.000000,0.000000,0.000000,-0.048254,0.008362,0.006226,0.033882,-0.001465,-0.002930,0.000977,0,0,0,0
10.207666,-1.917969,-1.308594,0.000000,0.000000,0.000000,-0.049431,0.008362,0.006226,0.033882,-0.002441,-0.001221,0.000488,0,0,0,0
10.217434,-1.929688,-1.308594,0.000000,0.000000,0.000000,-0.035622,0.008362,0.006226,0.033882,-0.000732,-0.000244,0.000000,0,0,0,0
10.227199,-1.929688,-1.308594,0.000000,0.000000,0.000000,-0.036718,0.008362,0.006226,0.033882,-0.001953,-0.001221,-0.000488,0,0,0,0
10.236961,-1.929688,-1.308594,0.000000,0.000000,0.000000,-0.035961,0.008362,0.006226,0.033882,0.000244,-0.000244,0.000000,0,0,0,0
10.246728,-1.917969,-1.308594,0.000000,0.000000,0.000000,-0.037058,0.008362,0.006165,0.033882,0.002441,0.000244,-0.001221,0,0,0,0
10.256491,-1.917969,-1.308594,0.000000,0.000000,0.000000,-0.038006,0.008362,0.006165,0.033882,0.001953,-0.002197,-0.000488,0,0,0,0
10.266253,-1.917969,-1.308594,0.000000,0.000000,0.000000,-0.039162,0.008362,0.006165,0.033882,0.001221,0.002197,0.002686,0,0,0,0
10.276019,-1.917969,-1.308594,0.000000,0.000000,0.000000,-0.040443,0.008362,0.006165,0.033882,-0.000732,-0.001709,0.000000,0,0,0,0
10.285789,-1.917969,-1.308594,0.000000,0.000000,0.000000,-0.041302,0.008362,0.006165,0.033882,0.000732,-0.002197,0.000977,0,0,0,0
10.295554,-1.917969,-1.308594,0.000000,0.000000,0.000000,-0.042414,0.008362,0.006165,0.033882,0.000732,-0.002197,0.000977,0,0,0,0
10.305317,-1.917969,-1.308594,0.000000,0.000000,0.000000,-0.043196,0.008362,0.006165,0.033882,-0.000244,-0.001709,-0.001221,0,0,0,0
10.315081,-1.917969,-1.308594,0.000000,0.000000,0.000000,-0.042818,0.008362,0.006165,0.033882,0.001221,-0.001709,-0.001221,0,0,0,0
10.324851,-1.917969,-1.308594,0.000000,0.000000,0.000000,-0.043936,0.008362,0.006165,0.033882,0.000244,0.003906,0.000488,0,0,0,0
10.334614,-1.917969,-1.308594,0.000000,0.000000,0.000000,-0.044743,0.008362,0.006165,0.033882,-0.000244,-0.003418,0.001465,0,0,0,0
10.344380,-1.917969,-1.308594,0.000000,0.000000,0.000000,-0.045673,0.008301,0.006165,0.033882,-0.002441,-0.001221,0.000488,0,0,0,0
10.354149,-1.917969,-1.308594,0.000000,0.000000,0.000000,-0.044975,0.008301,0.006165,0.033882,-0.001465,-0.000244,-0.001709,0,0,0,0
10.363914,-1.917969,-1.308594,0.000000,0.000000,0.000000,-0.046215,0.008301,0.006165,0.033882,0.000244,0.001221,0.000488,0,0,0,0
10.373677,-1.917969,-1.308594,0.000000,0.000000,0.000000,-0.047352,0.008301,0.006165,0.033882,-0.001465,0.001221,-0.001221,0,0,0,0
10.383451,-1.917969,-1.308594,0.000000,0.000000,0.000000,-0.046274,0.008301,0.006165,0.033882,-0.001465,0.001221,0.000488,0,0,0,0
10.393213,-1.917969,-1.308594,0.000000,0.000000,0.000000,-0.047586,0.008301,0.006165,0.033882,-0.002930,0.000732,0.000000,0,0,0,0
10.402975,-1.917969,-1.308594,0.000000,0.000000,0.000000,-0.048847,0.008301,0.006165,0.033882,0.000244,-0.001221,0.000488,0,0,0,0
10.412739,-1.917969,-1.308594,0.000000,0.000000,0.000000,-0.047684,0.008301,0.006165,0.033882,-0.001465,0.001709,-0.001221,0,0,0,0
10.422508,-1.917969,-1.308594,0.000000,0.000000,0.000000,-0.048504,0.008301,0.006165,0.033882,-0.003418,-0.001221,0.000000,0,0,0,0
10.432271,-1.917969,-1.308594,0.000000,0.000000,0.000000,-0.049477,0.008301,0.006165,0.033882,0.001221,-0.000244,-0.001221,0,0,0,0
10.442037,-1.917969,-1.308594,0.000000,0.000000,0.000000,-0.050537,0.008301,0.006165,0.033882,-0.001953,-0.003418,0.000488,0,0,0,0
10.451806,-1.917969,-1.308594,0.000000,0.000000,0.000000,-0.048285,0.008301,0.006165,0.033882,-0.000732,-0.000244,0.000977,0,0,0,0
10.461572,-1.917969,-1.308594,0.000000,0.000000,0.000000,-0.049812,0.008301,0.006165,0.033882,0.001221,-0.000244,0.000977,0,0,0,0
10.471334,-1.917969,-1.308594,0.000000,0.000000,0.000000,-0.051226,0.008301,0.006165,0.033882,-0.000244,0.000244,0.003662,0,0,0,0
10.481100,-1.929688,-1.308594,0.000000,0.000000,0.000000,-0.037601,0.008301,0.006165,0.033882,0.001221,-0.000732,0.002197,0,0,0,0
10.490868,-1.929688,-1.308594,0.000000,0.000000,0.000000,-0.038519,0.008301,0.006165,0.033882,0.003418,-0.003418,-0.003174,0,0,0,0
10.500631,-1.929688,-1.308594,0.000000,0.000000,0.000000,-0.039385,0.008301,0.006104,0.033882,0.000732,-0.002197,0.002686,0,0,0,0
10.510396,-1.929688,-1.308594,0.000000,0.000000,0.000000,-0.040382,0.008301,0.006104,0.033882,0.000732,0.000244,0.004150,0,0,0,0
10.520168,-1.917969,-1.308594,0.000000,0.000000,0.000000,-0.041471,0.008301,0.006104,0.033882,-0.000244,0.000244,-0.001709,0,0,0,0
10.529929,-1.917969,-1.308594,0.000000,0.000000,0.000000,-0.042477,0.008301,0.006104,0.033882,-0.001953,0.001221,0.002197,0,0,0,0
10.539692,-1.917969,-1.308594,0.000000,0.000000,0.000000,-0.042934,0.008301,0.006104,0.033882,0.000244,-0.001709,0.002686,0,0,0,0
10.549461,-1.917969,-1.308594,0.000000,0.000000,0.000000,-0.044146,0.008301,0.006104,0.033882,0.000244,0.000244,0.000977,0,0,0,0
10.559226,-1.917969,-1.308594,0.000000,0.000000,0.000000,-0.043993,0.008301,0.006104,0.033882,-0.002441,0.001221,0.000000,0,0,0,0
10.568989,-1.917969,-1.308594,0.000000,0.000000,0.000000,-0.045113,0.008301,0.006104,0.033882,0.000244,-0.001221,0.000977,0,0,0,0
10.578754,-1.917969,-1.308594,0.000000,0.000000,0.000000,-0.046146,0.008301,0.006104,0.033882,-0.002930,0.000244,-0.001221,0,0,0,0
10.588523,-1.917969,-1.308594,0.000000,0.000000,0.000000,-0.045601,0.008301,0.006104,0.033882,-0.002930,-0.000244,-0.001709,0,0,0,0
10.598286,-1.917969,-1.308594,0.000000,0.000000,0.000000,-0.046705,0.008301,0.006104,0.033882,0.001221,-0.001221,-0.001221,0,0,0,0
10.608052,-1.917969,-1.308594,0.000000,0.000000,0.000000,-0.047630,0.008301,0.006104,0.033882,0.000244,-0.001709,0.000488,0,0,0,0
10.617821,-1.917969,-1.308594,0.000000,0.000000,0.000000,-0.047297,0.008301,0.006104,0.033882,-0.001953,0.001221,0.000488,0,0,0,0
10.627594,-1.917969,-1.308594,0.000000,0.000000,0.000000,-0.048399,0.008057,0.006104,0.033691,0.001953,-0.000732,0.002197,0,0,0,0
10.637351,-1.917969,-1.308594,0.000000,0.000000,0.000000,-0.049202,0.008301,0.006104,0.033882,0.000732,-0.000244,-0.003174,0,0,0,0
10.647121,-1.917969,-1.308594,0.000000,0.000000,0.000000,-0.049913,0.008301,0.006043,0.033882,-0.001465,-0.001709,0.000977,0,0,0,0
10.656886,-1.917969,-1.308594,0.000000,0.000000,0.000000,-0.049019,0.008240,0.006043,0.033882,-0.002441,-0.002197,0.000000,0,0,0,0
10.666645,-1.917969,-1.308594,0.000000,0.000000,0.000000,-0.049921,0.008240,0.006043,0.033882,0.000732,-0.001709,0.002197,0,0,0,0
10.676413,-1.917969,-1.308594,0.000000,0.000000,0.000000,-0.051205,0.008240,0.006043,0.033882,0.000732,0.001221,0.002197,0,0,0,0
10.686181,-1.929688,-1.308594,0.000000,0.000000,0.000000,-0.038200,0.008240,0.006043,0.033882,0.002441,-0.002197,0.000488,0,0,0,0
10.695947,-1.929688,-1.308594,0.000000,0.000000,0.000000,-0.039097,0.008240,0.006043,0.033882,0.002930,-0.000732,-0.001221,0,0,0,0
10.705711,-1.929688,-1.308594,0.000000,0.000000,0.000000,-0.039364,0.008240,0.006043,0.033882,0.000244,-0.001221,-0.000488,0,0,0,0
10.715475,-1.917969,-1.308594,0.000000,0.000000,0.000000,-0.040522,0.008240,0.006043,0.033882,0.001221,-0.000732,-0.001709,0,0,0,0
10.725245,-1.917969,-1.308594,0.000000,0.000000,0.000000,-0.041674,0.008240,0.006043,0.033882,-0.000732,-0.000732,0.000488,0,0,0,0
10.735006,-1.917969,-1.308594,0.000000,0.000000,0.000000,-0.042398,0.008240,0.006043,0.033882,-0.000244,0.000244,-0.000488,0,0,0,0
10.744772,-1.917969,-1.308594,0.000000,0.000000,0.000000,-0.043467,0.008240,0.006043,0.033882,-0.001953,0.003418,-0.002197,0,0,0,0
10.754540,-1.917969,-1.308594,0.000000,0.000000,0.000000,-0.043974,0.008240,0.006043,0.033882,0.000244,-0.001221,0.001465,0,0,0,0
10.764305,-1.917969,-1.308594,0.000000,0.000000,0.000000,-0.044748,0.008240,0.006043,0.033882,-0.002930,0.000732,0.000488,0,0,0,0
10.774069,-1.917969,-1.308594,0.000000,0.000000,0.000000,-0.045614,0.008179,0.006043,0.033882,-0.001465,0.000244,0.000000,0,0,0,0
10.783836,-1.917969,-1.308594,0.000000,0.000000,0.000000,-0.044998,0.008179,0.005981,0.033882,-0.001953,-0.000732,-0.001709,0,0,0,0
10.793601,-1.917969,-1.308594,0.000000,0.000000,0.000000,-0.045916,0.008179,0.005981,0.033882,-0.001465,0.001221,-0.001709,0,0,0,0
10.803365,-1.917969,-1.308594,0.000000,0.000000,0.000000,-0.047321,0.008179,0.005981,0.033882,-0.003418,0.000732,0.000000,0,0,0,0
10.813129,-1.917969,-1.308594,0.000000,0.000000,0.000000,-0.048607,0.008179,0.005981,0.033882,-0.000732,0.000732,-0.001221,0,0,0,0
10.822898,-1.929688,-1.308594,0.000000,0.000000,0.000000,-0.036211,0.008179,0.005981,0.033882,0.000732,-0.001221,0.002197,0,0,0,0
10.832660,-1.929688,-1.308594,0.000000,0.000000,0.000000,-0.036924,0.008179,0.005981,0.033882,-0.000732,-0.000732,0.000488,0,0,0,0
10.842426,-1.929688,-1.308594,0.000000,0.000000,0.000000,-0.037806,0.008179,0.005981,0.033882,0.000244,-0.003418,0.000977,0,0,0,0
10.852195,-1.929688,-1.308594,0.000000,0.000000,0.000000,-0.028067,0.008179,0.005981,0.033882,-0.000244,-0.001221,0.001465,0,0,0,0
10.861961,-1.929688,-1.308594,0.000000,0.000000,0.000000,-0.028500,0.008179,0.005981,0.033882,0.001221,0.001709,0.000488,0,0,0,0
10.871723,-1.929688,-1.308594,0.000000,0.000000,0.000000,-0.029953,0.008118,0.005981,0.033882,-0.000244,0.000244,-0.001709,0,0,0,0
10.881489,-1.917969,-1.308594,0.000000,0.000000,0.000000,-0.033968,0.008118,0.005981,0.033882,0.003418,0.000244,0.001465,0,0,0,0
10.891257,-1.917969,-1.308594,0.000000,0.000000,0.000000,-0.035105,0.008118,0.005981,0.033882,0.000732,-0.000244,-0.000488,0,0,0,0
10.901019,-1.917969,-1.308594,0.000000,0.000000,0.000000,-0.036158,0.008118,0.005981,0.033882,0.001953,-0.000244,0.002197,0,0,0,0
10.910785,-1.917969,-1.308594,0.000000,0.000000,0.000000,-0.037374,0.008118,0.005981,0.033882,-0.002441,-0.000732,-0.001221,0,0,0,0
10.920554,-1.917969,-1.308594,0.000000,0.000000,0.000000,-0.040197,0.008118,0.005981,0.033882,0.000244,-0.000732,0.001465,0,0,0,0
10.930326,-1.917969,-1.308594,0.000000,0.000000,0.000000,-0.041103,0.008118,0.005920,0.033882,-0.001953,-0.001709,0.002197,0,0,0,0
10.940082,-1.917969,-1.308594,0.000000,0.000000,0.000000,-0.043022,0.008118,0.005920,0.033882,0.000244,-0.001709,-0.002686,0,0,0,0
10.949859,-1.917969,-1.308594,0.000000,0.000000,0.000000,-0.044292,0.008118,0.005920,0.033882,-0.002930,-0.000732,-0.000488,0,0,0,0
10.959617,-1.917969,-1.308594,0.000000,0.000000,0.000000,-0.044952,0.008118,0.005920,0.033882,-0.001465,0.001221,0.000488,0,0,0,0
10.969378,-1.917969,-1.308594,0.000000,0.000000,0.000000,-0.045864,0.008118,0.005920,0.033882,-0.001953,-0.002197,-0.002197,0,0,0,0
10.979146,-1.917969,-1.308594,0.000000,0.000000,0.000000,-0.046631,0.008118,0.005920,0.033882,0.000732,0.000244,0.000000,0,0,0,0
10.988914,-1.917969,-1.308594,0.000000,0.000000,0.000000,-0.047188,0.008118,0.005920,0.033882,-0.002930,0.002197,-0.000488,0,0,0,0
10.998680,-1.917969,-1.308594,0.000000,0.000000,0.000000,-0.048279,0.008118,0.005920,0.033882,0.001221,0.001221,-0.000488,0,0,0,0
11.008444,-1.917969,-1.308594,0.000000,0.000000,0.000000,-0.049072,0.008118,0.005920,0.033882,-0.001465,-0.003418,0.001465,0,0,0,0
11.018212,-1.917969,-1.308594,0.000000,0.000000,0.000000,-0.049089,0.008118,0.005920,0.033882,-0.000244,0.000732,-0.001709,0,0,0,0
11.027977,-1.917969,-1.308594,0.000000,0.000000,0.000000,-0.049902,0.008118,0.005920,0.033882,-0.001465,-0.001709,-0.001709,0,0,0,0
11.037740,-1.917969,-1.308594,0.000000,0.000000,0.000000,-0.050991,0.008118,0.005920,0.033882,0.001221,-0.000244,-0.000488,0,0,0,0
11.047511,-1.917969,-1.308594,0.000000,0.000000,0.000000,-0.052401,0.008118,0.005920,0.033882,0.000244,-0.001221,-0.000488,0,0,0,0
11.057275,-1.917969,-1.308594,0.000000,0.000000,0.000000,-0.051170,0.008118,0.005920,0.033882,0.000732,0.000732,0.002686,0,0,0,0
11.067039,-1.917969,-1.308594,0.000000,0.000000,0.000000,-0.052458,0.008118,0.005920,0.033882,-0.000244,0.000732,0.000488,0,0,0,0
11.076804,-1.917969,-1.308594,0.000000,0.000000,0.000000,-0.053276,0.008118,0.005920,0.033882,0.000732,0.001221,-0.000488,0,0,0,0
11.086570,-1.917969,-1.308594,0.000000,0.000000,0.000000,-0.051741,0.008118,0.005920,0.033882,0.000244,-0.001221,0.001465,0,0,0,0
11.096336,-1.917969,-1.308594,0.000000,0.000000,0.000000,-0.053837,0.008118,0.005920,0.033882,0.001953,-0.001221,0.000488,0,0,0,0
11.106099,-1.917969,-1.308594,0.000000,0.000000,0.000000,-0.054419,0.008118,0.005920,0.033882,-0.001465,0.000732,0.002686,0,0,0,0
11.115865,-1.929688,-1.308594,0.000000,0.000000,0.000000,-0.040716,0.008118,0.005920,0.033882,-0.000244,0.001221,-0.000488,0,0,0,0
11.125633,-1.929688,-1.308594,0.000000,0.000000,0.000000,-0.041866,0.008118,0.005920,0.033882,0.000732,-0.002930,-0.001709,0,0,0,0
11.135399,-1.929688,-1.308594,0.000000,0.000000,0.000000,-0.042650,0.008118,0.005920,0.033882,0.000732,-0.000244,0.000977,0,0,0,0
11.145161,-1.929688,-1.308594,0.000000,0.000000,0.000000,-0.043533,0.008118,0.005920,0.033882,-0.001953,-0.000732,-0.000488,0,0,0,0
11.154930,-1.917969,-1.308594,0.000000,0.000000,0.000000,-0.044197,0.008118,0.005920,0.033882,0.002441,-0.000732,0.000488,0,0,0,0
11.164695,-1.917969,-1.308594,0.000000,0.000000,0.000000,-0.044849,0.008118,0.005920,0.033882,-0.000732,0.000732,-0.000488,0,0,0,0
11.174459,-1.917969,-1.308594,0.000000,0.000000,0.000000,-0.046473,0.008118,0.005920,0.033882,0.001953,-0.000732,-0.001221,0,0,0,0
11.184228,-1.917969,-1.308594,0.000000,0.000000,0.000000,-0.046347,0.008118,0.005920,0.033882,-0.003418,0.000732,0.000000,0,0,0,0
11.193992,-1.917969,-1.308594,0.000000,0.000000,0.000000,-0.047220,0.008118,0.005920,0.033882,-0.001465,0.000244,0.000000,0,0,0,0
11.203756,-1.917969,-1.308594,0.000000,0.000000,0.000000,-0.048178,0.008118,0.005920,0.033882,-0.001953,-0.003418,0.000000,0,0,0,0
11.213521,-1.917969,-1.308594,0.000000,0.000000,0.000000,-0.048635,0.008118,0.005920,0.033882,-0.001953,-0.000732,0.000488,0,0,0,0
11.223289,-1.929688,-1.308594,0.000000,0.000000,0.000000,-0.036558,0.008118,0.005859,0.033882,-0.000244,0.000244,0.000488,0,0,0,0
11.233070,-1.929688,-1.308594,0.000000,0.000000,0.000000,-0.037436,0.008118,0.005859,0.033882,0.000244,0.000244,0.001465,0,0,0,0
11.242818,-1.929688,-1.308594,0.000000,0.000000,0.000000,-0.038225,0.008118,0.005859,0.033882,-0.001953,-0.000244,0.001465,0,0,0,0
11.252585,-1.917969,-1.308594,0.000000,0.000000,0.000000,-0.040573,0.008057,0.005859,0.033882,-0.000732,-0.000244,-0.001221,0,0,0,0
11.262353,-1.917969,-1.308594,0.000000,0.000000,0.000000,-0.041479,0.008057,0.005859,0.033882,-0.000732,-0.002930,0.001465,0,0,0,0
11.272115,-1.917969,-1.308594,0.000000,0.000000,0.000000,-0.042311,0.008057,0.005859,0.033882,0.001953,-0.000732,-0.001709,0,0,0,0
11.281881,-1.929688,-1.308594,0.000000,0.000000,0.000000,-0.031408,0.008057,0.005859,0.033882,0.001221,0.000732,0.000000,0,0,0,0
11.291648,-1.929688,-1.308594,0.000000,0.000000,0.000000,-0.032356,0.008057,0.005859,0.033882,-0.000244,-0.001709,0.000977,0,0,0,0
11.301417,-1.929688,-1.308594,0.000000,0.000000,0.000000,-0.033119,0.007812,0.005859,0.033691,-0.001953,-0.000244,0.002197,0,0,0,0
11.311178,-1.929688,-1.308594,0.000000,0.000000,0.000000,-0.034180,0.008057,0.005859,0.033882,0.002930,-0.000244,-0.000488,0,0,0,0
11.320948,-1.917969,-1.308594,0.000000,0.000000,0.000000,-0.037254,0.008057,0.005859,0.033882,0.000244,-0.000732,-0.001221,0,0,0,0
11.330713,-1.917969,-1.308594,0.000000,0.000000,0.000000,-0.037088,0.008057,0.005798,0.033882,0.002930,0.000732,-0.001709,0,0,0,0
11.340475,-1.917969,-1.308594,0.000000,0.000000,0.000000,-0.037937,0.008057,0.005798,0.033882,-0.001465,-0.002930,-0.001709,0,0,0,0
11.350247,-1.917969,-1.308594,0.000000,0.000000,0.000000,-0.039886,0.008057,0.005798,0.033882,0.000244,-0.001221,0.001465,0,0,0,0
11.360007,-1.917969,-1.308594,0.000000,0.000000,0.000000,-0.040937,0.008057,0.005798,0.033882,-0.000732,-0.002197,-0.000488,0,0,0,0
11.369769,-1.917969,-1.308594,0.000000,0.000000,0.000000,-0.042160,0.008057,0.005798,0.033882,0.000732,0.000244,0.000488,0,0,0,0
11.379535,-1.917969,-1.308594,0.000000,0.000000,0.000000,-0.043003,0.008057,0.005798,0.033882,-0.001465,-0.002197,0.000977,0,0,0,0
11.389304,-1.917969,-1.308594,0.000000,0.000000,0.000000,-0.043598,0.008057,0.005798,0.033882,-0.001953,-0.000732,0.000488,0,0,0,0
11.399068,-1.917969,-1.308594,0.000000,0.000000,0.000000,-0.044657,0.008057,0.005737,0.033882,-0.001953,-0.002197,0.000977,0,0,0,0
11.408831,-1.917969,-1.308594,0.000000,0.000000,0.000000,-0.044613,0.008057,0.005737,0.033882,0.000732,-0.000244,-0.002686,0,0,0,0
11.418601,-1.917969,-1.308594,0.000000,0.000000,0.000000,-0.045187,0.008057,0.005737,0.033882,-0.000244,0.001709,0.002197,0,0,0,0
11.428366,-1.917969,-1.308594,0.000000,0.000000,0.000000,-0.045614,0.008057,0.005737,0.033882,0.000244,-0.002930,0.000488,0,0,0,0
11.438130,-1.917969,-1.308594,0.000000,0.000000,0.000000,-0.046545,0.008057,0.005737,0.033882,0.000244,-0.003418,0.001465,0,0,0,0
11.447894,-1.917969,-1.308594,0.000000,0.000000,0.000000,-0.047615,0.008057,0.005737,0.033882,-0.000732,0.000244,-0.001709,0,0,0,0
11.457666,-1.917969,-1.308594,0.000000,0.000000,0.000000,-0.047468,0.008057,0.005737,0.033882,-0.002441,0.002686,0.000000,0,0,0,0
11.467429,-1.917969,-1.308594,0.000000,0.000000,0.000000,-0.048433,0.008057,0.005737,0.033882,0.000732,-0.000732,0.001465,0,0,0,0
11.477194,-1.917969,-1.308594,0.000000,0.000000,0.000000,-0.049679,0.008057,0.005737,0.033882,-0.004639,-0.003418,-0.000488,0,0,0,0
11.486963,-1.917969,-1.308594,0.000000,0.000000,0.000000,-0.047974,0.008057,0.005737,0.033882,0.001953,-0.000244,-0.000488,0,0,0,0
11.496732,-1.917969,-1.308594,0.000000,0.000000,0.000000,-0.048870,0.008057,0.005737,0.033882,0.002930,-0.001709,0.000488,0,0,0,0
11.506488,-1.917969,-1.308594,0.000000,0.000000,0.000000,-0.050112,0.008057,0.005737,0.033882,0.001953,0.001221,0.000000,0,0,0,0
11.516263,-1.929688,-1.308594,0.000000,0.000000,0.000000,-0.037861,0.008057,0.005737,0.033882,-0.000732,-0.002930,0.000977,0,0,0,0
11.526023,-1.929688,-1.308594,0.000000,0.000000,0.000000,-0.039009,0.008057,0.005737,0.033882,-0.000732,-0.000244,0.000488,0,0,0,0
11.535784,-1.929688,-1.308594,0.000000,0.000000,0.000000,-0.039812,0.008057,0.005737,0.033882,-0.000732,-0.000732,0.004150,0,0,0,0
11.545550,-1.929688,-1.308594,0.000000,0.000000,0.000000,-0.041035,0.008057,0.005737,0.033882,0.000732,-0.001709,0.000977,0,0,0,0
11.555337,-1.929688,-1.308594,0.000000,0.000000,0.000000,-0.031513,0.008057,0.005676,0.033882,-0.001465,0.000244,0.000977,0,0,0,0
11.565104,-1.929688,-1.308594,0.000000,0.000000,0.000000,-0.031555,0.008057,0.005676,0.033882,-0.001953,-0.002930,-0.002197,0,0,0,0
11.574852,-1.929688,-1.308594,0.000000,0.000000,0.000000,-0.032511,0.008057,0.005676,0.033882,0.000244,-0.002930,-0.002686,0,0,0,0
11.584620,-1.917969,-1.308594,0.000000,0.000000,0.000000,-0.036436,0.008057,0.005676,0.033882,-0.002930,-0.001221,0.000000,0,0,0,0
11.594383,-1.917969,-1.308594,0.000000,0.000000,0.000000,-0.037378,0.008057,0.005676,0.033882,-0.001953,0.000244,-0.001221,0,0,0,0
11.604155,-1.917969,-1.308594,0.000000,0.000000,0.000000,-0.038679,0.007812,0.005615,0.033691,-0.001465,0.000244,-0.003174,0,0,0,0
11.613914,-1.917969,-1.308594,0.000000,0.000000,0.000000,-0.039452,0.008057,0.005676,0.033821,-0.001465,-0.000732,-0.002686,0,0,0,0
11.623677,-1.917969,-1.308594,0.000000,0.000000,0.000000,-0.041714,0.008057,0.005615,0.033821,-0.001465,0.000732,0.001465,0,0,0,0
11.633444,-1.917969,-1.308594,0.000000,0.000000,0.000000,-0.042652,0.008057,0.005615,0.033821,-0.001465,0.000244,-0.000488,0,0,0,0
11.643209,-1.917969,-1.308594,0.000000,0.000000,0.000000,-0.043503,0.008057,0.005615,0.033821,-0.001465,-0.001709,0.000488,0,0,0,0
11.652982,-1.917969,-1.308594,0.000000,0.000000,0.000000,-0.044712,0.008057,0.005615,0.033821,0.000732,-0.001221,0.000488,0,0,0,0
11.662741,-1.917969,-1.308594,0.000000,0.000000,0.000000,-0.045801,0.008057,0.005615,0.033821,-0.000732,0.002686,0.001465,0,0,0,0
11.672508,-1.917969,-1.308594,0.000000,0.000000,0.000000,-0.046703,0.008057,0.005615,0.033821,0.002441,-0.001221,0.000000,0,0,0,0
11.682280,-1.929688,-1.308594,0.000000,0.000000,0.000000,-0.047474,0.008057,0.005615,0.033821,-0.000244,0.000244,0.000977,0,0,0,0
11.692039,-1.929688,-1.308594,0.000000,0.000000,0.000000,-0.036539,0.008057,0.005615,0.033821,0.001221,0.000732,-0.000488,0,0,0,0
11.701804,-1.929688,-1.308594,0.000000,0.000000,0.000000,-0.037655,0.008057,0.005615,0.033821,0.002930,0.000244,0.000488,0,0,0,0
11.711569,-1.929688,-1.308594,0.000000,0.000000,0.000000,-0.038591,0.008057,0.005615,0.033821,0.003418,0.000244,-0.000488,0,0,0,0
11.721336,-1.929688,-1.308594,0.000000,0.000000,0.000000,-0.029734,0.008057,0.005615,0.033821,-0.001953,0.000732,-0.001221,0,0,0,0
11.731100,-1.929688,-1.308594,0.000000,0.000000,0.000000,-0.030647,0.008057,0.005615,0.033821,0.001221,0.002197,-0.002197,0,0,0,0
11.740870,-1.929688,-1.308594,0.000000,0.000000,0.000000,-0.031731,0.008057,0.005615,0.033821,-0.001953,0.000244,0.001465,0,0,0,0
11.750634,-1.917969,-1.308594,0.000000,0.000000,0.000000,-0.036409,0.008057,0.005615,0.033821,-0.002441,0.000732,0.002197,0,0,0,0
11.760400,-1.917969,-1.308594,0.000000,0.000000,0.000000,-0.037451,0.008057,0.005615,0.033821,-0.000732,-0.001221,0.003174,0,0,0,0
11.770164,-1.917969,-1.308594,0.000000,0.000000,0.000000,-0.038441,0.008057,0.005615,0.033821,-0.000244,-0.003906,-0.002197,0,0,0,0
11.779929,-1.917969,-1.308594,0.000000,0.000000,0.000000,-0.039289,0.008057,0.005615,0.033821,0.000244,-0.000732,-0.001221,0,0,0,0
11.789695,-1.917969,-1.308594,0.000000,0.000000,0.000000,-0.042097,0.008057,0.005615,0.033821,0.001221,-0.001221,0.000000,0,0,0,0
11.799459,-1.917969,-1.308594,0.000000,0.000000,0.000000,-0.043482,0.008057,0.005615,0.033821,-0.001953,-0.001221,0.000000,0,0,0,0
11.809230,-1.917969,-1.308594,0.000000,0.000000,0.000000,-0.044048,0.008057,0.005615,0.033821,-0.000244,-0.000244,-0.000488,0,0,0,0
11.818993,-1.917969,-1.308594,0.000000,0.000000,0.000000,-0.045095,0.008057,0.005615,0.033821,-0.001953,0.000732,-0.000488,0,0,0,0
11.828756,-1.917969,-1.308594,0.000000,0.000000,0.000000,-0.046322,0.008057,0.005615,0.033821,-0.002441,0.000732,0.001465,0,0,0,0
11.838542,-1.917969,-1.308594,0.000000,0.000000,0.000000,-0.047392,0.008057,0.005615,0.033821,0.000732,0.001221,0.000977,0,0,0,0
11.848289,-1.917969,-1.308594,0.000000,0.000000,0.000000,-0.047911,0.008057,0.005554,0.033821,-0.001953,0.000244,0.000977,0,0,0,0
11.858055,-1.929688,-1.308594,0.000000,0.000000,0.000000,-0.036972,0.008057,0.005554,0.033821,0.000732,-0.000732,0.000488,0,0,0,0
11.867820,-1.929688,-1.308594,0.000000,0.000000,0.000000,-0.037676,0.008057,0.005554,0.033821,-0.000244,0.003418,0.001465,0,0,0,0
11.877589,-1.929688,-1.308594,0.000000,0.000000,0.000000,-0.039179,0.008057,0.005554,0.033821,-0.001953,0.002686,0.002686,0,0,0,0
11.887357,-1.917969,-1.308594,0.000000,0.000000,0.000000,-0.041550,0.008057,0.005554,0.033821,-0.000244,-0.002197,-0.001709,0,0,0,0
11.897125,-1.917969,-1.308594,0.000000,0.000000,0.000000,-0.042446,0.008057,0.005554,0.033821,0.002930,0.000732,0.002197,0,0,0,0
11.906888,-1.917969,-1.308594,0.000000,0.000000,0.000000,-0.043432,0.007812,0.005371,0.033691,-0.001953,-0.000244,0.002686,0,0,0,0
11.916647,-1.917969,-1.308594,0.000000,0.000000,0.000000,-0.044420,0.007996,0.005554,0.033821,0.002441,-0.002197,0.000488,0,0,0,0
11.926417,-1.917969,-1.308594,0.000000,0.000000,0.000000,-0.045225,0.007996,0.005554,0.033821,0.000244,-0.001221,-0.001221,0,0,0,0
11.936178,-1.917969,-1.308594,0.000000,0.000000,0.000000,-0.046572,0.007996,0.005554,0.033821,-0.001465,-0.000244,-0.000488,0,0,0,0
11.945945,-1.917969,-1.308594,0.000000,0.000000,0.000000,-0.047392,0.007996,0.005554,0.033821,-0.001465,-0.000244,0.000000,0,0,0,0
11.955710,-1.929688,-1.308594,0.000000,0.000000,0.000000,-0.037237,0.007996,0.005554,0.033821,0.002930,-0.001221,0.001465,0,0,0,0
11.965476,-1.929688,-1.308594,0.000000,0.000000,0.000000,-0.038202,0.007996,0.005554,0.033821,0.000732,-0.000244,0.000488,0,0,0,0
11.975243,-1.929688,-1.308594,0.000000,0.000000,0.000000,-0.038954,0.007996,0.005554,0.033821,-0.000732,-0.000732,-0.001221,0,0,0,0
11.985007,-1.929688,-1.308594,0.000000,0.000000,0.000000,-0.039288,0.007996,0.005554,0.033821,-0.000244,0.002197,0.001465,0,0,0,0
11.994773,-1.917969,-1.308594,0.000000,0.000000,0.000000,-0.041973,0.007996,0.005554,0.033821,-0.001465,-0.001709,0.000977,0,0,0,0
12.004541,-1.917969,-1.308594,0.000000,0.000000,0.000000,-0.042614,0.007996,0.005554,0.033821,-0.001465,-0.000244,0.002686,0,0,0,0
12.014303,-1.917969,-1.308594,0.000000,0.000000,0.000000,-0.043600,0.007996,0.005554,0.033821,0.000244,-0.001221,0.001465,0,0,0,0
12.024069,-1.929688,-1.308594,0.000000,0.000000,0.000000,-0.033953,0.007996,0.005554,0.033821,-0.002930,0.000244,-0.000488,0,0,0,0
12.033835,-1.929688,-1.308594,0.000000,0.000000,0.000000,-0.035023,0.007996,0.005554,0.033821,-0.003418,-0.000244,-0.000488,0,0,0,0
12.043601,-1.929688,-1.308594,0.000000,0.000000,0.000000,-0.036154,0.007996,0.005554,0.033821,-0.000244,-0.001709,-0.001221,0,0,0,0
12.053373,-1.917969,-1.308594,0.000000,0.000000,0.000000,-0.037130,0.007996,0.005554,0.033821,0.001221,-0.000732,-0.001221,0,0,0,0
12.063131,-1.917969,-1.308594,0.000000,0.000000,0.000000,-0.040329,0.007996,0.005554,0.033821,0.001221,-0.001221,0.000977,0,0,0,0
12.072899,-1.917969,-1.308594,0.000000,0.000000,0.000000,-0.041281,0.007996,0.005493,0.033821,-0.000244,0.001221,0.000000,0,0,0,0
12.082665,-1.917969,-1.308594,0.000000,0.000000,0.000000,-0.041811,0.007996,0.005493,0.033821,0.001953,-0.000244,0.000488,0,0,0,0
12.092429,-1.929688,-1.308594,0.000000,0.000000,0.000000,-0.032299,0.007996,0.005493,0.033821,0.000244,-0.001221,0.000488,0,0,0,0
12.102195,-1.929688,-1.308594,0.000000,0.000000,0.000000,-0.033218,0.007996,0.005493,0.033821,-0.001465,-0.001221,-0.000488,0,0,0,0
12.111959,-1.929688,-1.308594,0.000000,0.000000,0.000000,-0.034588,0.007996,0.005493,0.033821,0.000732,-0.000732,0.000000,0,0,0,0
12.121725,-1.917969,-1.308594,0.000000,0.000000,0.000000,-0.038383,0.007996,0.005493,0.033821,0.001221,-0.001709,-0.000488,0,0,0,0
12.131491,-1.917969,-1.308594,0.000000,0.000000,0.000000,-0.039383,0.007996,0.005493,0.033821,0.000244,-0.002197,-0.000488,0,0,0,0
12.141256,-1.917969,-1.308594,0.000000,0.000000,0.000000,-0.040604,0.007996,0.005493,0.033821,0.000732,0.000244,0.000977,0,0,0,0
12.151022,-1.917969,-1.308594,0.000000,0.000000,0.000000,-0.041166,0.007996,0.005493,0.033821,-0.001465,-0.001221,-0.000488,0,0,0,0
12.160788,-1.917969,-1.308594,0.000000,0.000000,0.000000,-0.043068,0.007996,0.005493,0.033821,0.002930,-0.000732,0.000977,0,0,0,0
12.170556,-1.917969,-1.308594,0.000000,0.000000,0.000000,-0.043940,0.007996,0.005493,0.033821,0.000244,-0.001221,-0.001709,0,0,0,0
12.180319,-1.917969,-1.308594,0.000000,0.000000,0.000000,-0.044878,0.007996,0.005493,0.033821,-0.001465,0.002686,0.003174,0,0,0,0
12.190086,-1.929688,-1.308594,0.000000,0.000000,0.000000,-0.035080,0.007996,0.005493,0.033821,0.000244,-0.001221,0.000977,0,0,0,0
12.199851,-1.929688,-1.308594,0.000000,0.000000,0.000000,-0.036161,0.007996,0.005493,0.033821,0.000732,-0.001221,0.000488,0,0,0,0
12.209617,-1.929688,-1.308594,0.000000,0.000000,0.000000,-0.037060,0.007996,0.005493,0.033821,0.000244,0.001221,-0.001709,0,0,0,0
12.219383,-1.929688,-1.308594,0.000000,0.000000,0.000000,-0.037857,0.007996,0.005493,0.033821,-0.000732,-0.000732,0.000000,0,0,0,0
12.229148,-1.917969,-1.308594,0.000000,0.000000,0.000000,-0.041002,0.007996,0.005432,0.033821,0.000732,0.000244,0.000000,0,0,0,0
12.238913,-1.917969,-1.308594,0.000000,0.000000,0.000000,-0.042076,0.007996,0.005432,0.033821,-0.000244,0.000244,0.000488,0,0,0,0
12.248680,-1.917969,-1.308594,0.000000,0.000000,0.000000,-0.042824,0.007996,0.005432,0.033821,-0.002930,-0.002930,0.000977,0,0,0,0
12.258445,-1.917969,-1.308594,0.000000,0.000000,0.000000,-0.044945,0.007996,0.005432,0.033821,-0.001953,-0.000244,-0.000488,0,0,0,0
12.268209,-1.917969,-1.308594,0.000000,0.000000,0.000000,-0.045378,0.007996,0.005432,0.033821,0.000732,-0.001709,-0.000488,0,0,0,0
12.277981,-1.917969,-1.308594,0.000000,0.000000,0.000000,-0.046453,0.007812,0.005371,0.033691,0.001953,0.001221,0.000977,0,0,0,0
12.287740,-1.917969,-1.308594,0.000000,0.000000,0.000000,-0.047235,0.007996,0.005432,0.033821,0.001221,-0.001709,-0.000488,0,0,0,0
12.297515,-1.929688,-1.308594,0.000000,0.000000,0.000000,-0.036261,0.007996,0.005432,0.033821,-0.001465,-0.001709,0.001465,0,0,0,0
12.307276,-1.929688,-1.308594,0.000000,0.000000,0.000000,-0.037231,0.007996,0.005432,0.033821,0.001221,0.000244,0.000977,0,0,0,0
12.317045,-1.929688,-1.308594,0.000000,0.000000,0.000000,-0.038168,0.007996,0.005432,0.033821,-0.000732,-0.001221,-0.000488,0,0,0,0
12.326806,-1.917969,-1.308594,0.000000,0.000000,0.000000,-0.041273,0.007996,0.005432,0.033821,0.001221,0.000244,-0.000488,0,0,0,0
12.336570,-1.917969,-1.308594,0.000000,0.000000,0.000000,-0.041733,0.007996,0.005432,0.033821,0.000244,0.000732,0.002686,0,0,0,0
12.346334,-1.917969,-1.308594,0.000000,0.000000,0.000000,-0.042974,0.007812,0.005371,0.033691,-0.002930,0.000244,0.000488,0,0,0,0
12.356105,-1.929688,-1.308594,0.000000,0.000000,0.000000,-0.033306,0.007812,0.005371,0.033691,-0.000244,-0.004395,0.000977,0,0,0,0
12.365866,-1.929688,-1.308594,0.000000,0.000000,0.000000,-0.034235,0.007812,0.005371,0.033691,-0.000244,-0.001709,0.001465,0,0,0,0
12.375632,-1.929688,-1.308594,0.000000,0.000000,0.000000,-0.035036,0.007812,0.005371,0.033691,0.000732,0.000244,0.000977,0,0,0,0
12.385398,-1.929688,-1.308594,0.000000,0.000000,0.000000,-0.035805,0.007812,0.005371,0.033691,0.000732,-0.001221,-0.002686,0,0,0,0
12.395163,-1.917969,-1.308594,0.000000,0.000000,0.000000,-0.039209,0.007812,0.005371,0.033691,-0.001465,0.000244,0.000488,0,0,0,0
12.404929,-1.917969,-1.308594,0.000000,0.000000,0.000000,-0.040239,0.007812,0.005371,0.033691,0.001221,-0.002197,0.000000,0,0,0,0
12.414697,-1.917969,-1.308594,0.000000,0.000000,0.000000,-0.041170,0.007812,0.005371,0.033691,-0.001465,-0.001221,0.000488,0,0,0,0
12.424461,-1.917969,-1.308594,0.000000,0.000000,0.000000,-0.043016,0.007812,0.005371,0.033691,0.000732,0.000244,0.000000,0,0,0,0
12.434234,-1.917969,-1.308594,0.000000,0.000000,0.000000,-0.043901,0.007812,0.005371,0.033691,0.000244,0.000244,-0.000488,0,0,0,0
12.443990,-1.917969,-1.308594,0.000000,0.000000,0.000000,-0.044662,0.007812,0.005371,0.033691,-0.001465,-0.003418,-0.001709,0,0,0,0
12.453759,-1.917969,-1.308594,0.000000,0.000000,0.000000,-0.045391,0.007812,0.005371,0.033691,-0.001953,0.001221,-0.000488,0,0,0,0
12.463521,-1.917969,-1.308594,0.000000,0.000000,0.000000,-0.046360,0.007812,0.005371,0.033691,0.000244,-0.000732,0.002197,0,0,0,0
12.473288,-1.917969,-1.308594,0.000000,0.000000,0.000000,-0.047586,0.007812,0.005371,0.033691,0.000732,-0.000732,-0.001221,0,0,0,0
12.483054,-1.917969,-1.308594,0.000000,0.000000,0.000000,-0.048264,0.007812,0.005371,0.033691,0.000244,-0.000244,0.000488,0,0,0,0
12.492820,-1.917969,-1.308594,0.000000,0.000000,0.000000,-0.047882,0.007812,0.005371,0.033691,0.001221,-0.000732,0.000488,0,0,0,0
12.502586,-1.917969,-1.308594,0.000000,0.000000,0.000000,-0.048573,0.007812,0.005127,0.033691,-0.002441,0.000732,-0.000488,0,0,0,0
12.512353,-1.917969,-1.308594,0.000000,0.000000,0.000000,-0.049385,0.007812,0.005127,0.033691,-0.000732,-0.000244,-0.001709,0,0,0,0
12.522117,-1.917969,-1.308594,0.000000,0.000000,0.000000,-0.049936,0.007812,0.005127,0.033691,0.001953,-0.002930,0.003174,0,0,0,0
12.531883,-1.917969,-1.308594,0.000000,0.000000,0.000000,-0.049534,0.007812,0.005127,0.033691,-0.000244,-0.003418,0.004150,0,0,0,0
12.541648,-1.917969,-1.308594,0.000000,0.000000,0.000000,-0.050396,0.007812,0.005127,0.033691,0.001953,0.001221,0.000977,0,0,0,0
12.551413,-1.917969,-1.308594,0.000000,0.000000,0.000000,-0.051516,0.007812,0.005127,0.033691,0.001953,-0.000244,-0.000488,0,0,0,0
12.561180,-1.917969,-1.308594,0.000000,0.000000,0.000000,-0.050625,0.007812,0.005127,0.033691,0.001953,-0.000732,-0.001221,0,0,0,0
12.570944,-1.917969,-1.308594,0.000000,0.000000,0.000000,-0.051224,0.007812,0.005127,0.033691,0.000244,-0.000732,0.000000,0,0,0,0
12.580714,-1.917969,-1.308594,0.000000,0.000000,0.000000,-0.053268,0.008087,0.005357,0.033837,-0.000732,-0.000244,0.001465,0,0,0,0
12.590476,-1.917969,-1.308594,0.000000,0.000000,0.000000,-0.053940,0.007812,0.005127,0.033691,0.001953,-0.000732,-0.001709,0,0,0,0
12.600241,-1.917969,-1.308594,0.000000,0.000000,0.000000,-0.051971,0.007812,0.005127,0.033691,-0.000732,-0.002197,0.000488,0,0,0,0
12.610006,-1.917969,-1.308594,0.000000,0.000000,0.000000,-0.052639,0.007812,0.005127,0.033691,0.000732,-0.001709,0.000000,0,0,0,0
12.619772,-1.917969,-1.308594,0.000000,0.000000,0.000000,-0.053799,0.007812,0.005127,0.033691,-0.000244,-0.001709,0.002197,0,0,0,0
12.629538,-1.917969,-1.308594,0.000000,0.000000,0.000000,-0.051319,0.007812,0.005127,0.033691,-0.000732,0.001709,0.000977,0,0,0,0
12.639304,-1.917969,-1.308594,0.000000,0.000000,0.000000,-0.052107,0.007812,0.005127,0.033691,0.000732,-0.000244,0.000000,0,0,0,0
12.649070,-1.917969,-1.308594,0.000000,0.000000,0.000000,-0.052530,0.007812,0.005127,0.033691,-0.000244,-0.002197,-0.001709,0,0,0,0
12.658836,-1.917969,-1.308594,0.000000,0.000000,0.000000,-0.054508,0.007812,0.005127,0.033691,-0.001953,0.001221,-0.001221,0,0,0,0
12.668600,-1.917969,-1.308594,0.000000,0.000000,0.000000,-0.051762,0.007812,0.005127,0.033691,0.000244,-0.001221,0.000000,0,0,0,0
12.678366,-1.917969,-1.308594,0.000000,0.000000,0.000000,-0.052860,0.007812,0.005127,0.033691,-0.003418,-0.001221,-0.000488,0,0,0,0
12.688132,-1.917969,-1.308594,0.000000,0.000000,0.000000,-0.053640,0.007812,0.005127,0.033691,0.000732,-0.000244,-0.000488,0,0,0,0
12.697897,-1.917969,-1.308594,0.000000,0.000000,0.000000,-0.050735,0.007812,0.005127,0.033691,-0.001465,0.000244,-0.002686,0,0,0,0
12.707665,-1.917969,-1.308594,0.000000,0.000000,0.000000,-0.051992,0.007812,0.005127,0.033691,-0.000732,-0.001709,0.000977,0,0,0,0
12.717430,-1.917969,-1.308594,0.000000,0.000000,0.000000,-0.052986,0.007812,0.005127,0.033691,-0.000244,-0.001221,-0.001221,0,0,0,0
12.727200,-1.929688,-1.308594,0.000000,0.000000,0.000000,-0.054169,0.007812,0.005127,0.033691,-0.001465,-0.000244,0.001465,0,0,0,0
12.736963,-1.929688,-1.308594,0.000000,0.000000,0.000000,-0.040998,0.007812,0.005127,0.033691,-0.001465,0.000244,-0.000488,0,0,0,0
12.746731,-1.929688,-1.308594,0.000000,0.000000,0.000000,-0.041729,0.007812,0.005127,0.033691,0.000244,0.000244,-0.001221,0,0,0,0
12.756492,-1.929688,-1.308594,0.000000,0.000000,0.000000,-0.042505,0.007812,0.005127,0.033691,0.001953,-0.001221,0.000000,0,0,0,0
12.766256,-1.917969,-1.308594,0.000000,0.000000,0.000000,-0.042294,0.007812,0.005127,0.033691,0.002441,0.000732,0.000000,0,0,0,0
12.776022,-1.917969,-1.308594,0.000000,0.000000,0.000000,-0.043255,0.007812,0.005127,0.033691,-0.001465,0.000244,0.003174,0,0,0,0
12.785789,-1.917969,-1.308594,0.000000,0.000000,0.000000,-0.044634,0.007812,0.005127,0.033691,-0.000732,-0.001709,0.000000,0,0,0,0
12.795558,-1.917969,-1.308594,0.000000,0.000000,0.000000,-0.044025,0.007812,0.005127,0.033691,0.002930,-0.000732,0.001465,0,0,0,0
12.805319,-1.917969,-1.308594,0.000000,0.000000,0.000000,-0.044834,0.007812,0.005127,0.033691,-0.001953,-0.001709,0.000977,0,0,0,0
12.815083,-1.917969,-1.308594,0.000000,0.000000,0.000000,-0.047724,0.007812,0.005127,0.033691,-0.000732,-0.000244,0.002686,0,0,0,0
12.824851,-1.917969,-1.308594,0.000000,0.000000,0.000000,-0.048347,0.007812,0.005127,0.033691,-0.000732,-0.001709,0.000488,0,0,0,0
12.834622,-1.917969,-1.308594,0.000000,0.000000,0.000000,-0.046740,0.007812,0.005127,0.033691,-0.001465,-0.001221,0.001465,0,0,0,0
12.844381,-1.917969,-1.308594,0.000000,0.000000,0.000000,-0.047878,0.007812,0.005127,0.033691,-0.000244,-0.001709,0.000000,0,0,0,0
12.854147,-1.917969,-1.308594,0.000000,0.000000,0.000000,-0.048573,0.007812,0.005127,0.033691,0.001953,0.002197,-0.002197,0,0,0,0
12.863925,-1.917969,-1.308594,0.000000,0.000000,0.000000,-0.047125,0.007812,0.005127,0.033691,-0.001953,-0.000732,0.000000,0,0,0,0
12.873679,-1.917969,-1.308594,0.000000,0.000000,0.000000,-0.047565,0.007812,0.005127,0.033691,-0.001465,-0.000732,-0.000488,0,0,0,0
12.883452,-1.917969,-1.308594,0.000000,0.000000,0.000000,-0.048384,0.008023,0.005175,0.033836,-0.000732,-0.001709,-0.000488,0,0,0,0
12.893210,-1.917969,-1.308594,0.000000,0.000000,0.000000,-0.050159,0.007812,0.005127,0.033691,-0.000732,-0.001709,-0.000488,0,0,0,0
12.902978,-1.917969,-1.308594,0.000000,0.000000,0.000000,-0.047970,0.007812,0.005127,0.033691,-0.000244,-0.000244,-0.001221,0,0,0,0
12.912741,-1.917969,-1.308594,0.000000,0.000000,0.000000,-0.048836,0.007812,0.005127,0.033691,-0.001953,-0.000732,0.000977,0,0,0,0
12.922507,-1.917969,-1.308594,0.000000,0.000000,0.000000,-0.049858,0.007812,0.005127,0.033691,-0.001465,-0.000732,0.000000,0,0,0,0
12.932272,-1.917969,-1.308594,0.000000,0.000000,0.000000,-0.047483,0.007812,0.005127,0.033691,0.001953,0.001221,-0.001709,0,0,0,0
12.942037,-1.917969,-1.308594,0.000000,0.000000,0.000000,-0.048195,0.007812,0.005127,0.033691,-0.001465,-0.000732,0.000000,0,0,0,0
12.951804,-1.917969,-1.308594,0.000000,0.000000,0.000000,-0.048710,0.007812,0.005127,0.033691,0.000244,-0.002197,-0.001221,0,0,0,0
12.961593,-1.929688,-1.308594,0.000000,0.000000,0.000000,-0.049314,0.007812,0.005127,0.033691,-0.000732,0.000732,0.000000,0,0,0,0
12.971335,-1.929688,-1.308594,0.000000,0.000000,0.000000,-0.037382,0.007812,0.005127,0.033691,0.000732,0.001221,-0.001709,0,0,0,0
12.981100,-1.929688,-1.308594,0.000000,0.000000,0.000000,-0.038406,0.007812,0.005127,0.033691,-0.000732,-0.001709,0.000000,0,0,0,0
12.990866,-1.929688,-1.308594,0.000000,0.000000,0.000000,-0.038851,0.007812,0.005127,0.033691,0.000244,-0.001709,0.003174,0,0,0,0
13.000634,-1.917969,-1.308594,0.000000,0.000000,0.000000,-0.038485,0.007812,0.005127,0.033691,-0.000244,0.000244,-0.003174,0,0,0,0
13.010398,-1.917969,-1.308594,0.000000,0.000000,0.000000,-0.039238,0.007812,0.005127,0.033691,0.000732,0.002197,0.003174,0,0,0,0
13.020163,-1.917969,-1.308594,0.000000,0.000000,0.000000,-0.039881,0.007812,0.004883,0.033691,-0.000244,-0.001709,0.000977,0,0,0,0
13.029933,-1.917969,-1.308594,0.000000,0.000000,0.000000,-0.040964,0.007812,0.004883,0.033691,0.000244,-0.001709,-0.002197,0,0,0,0
13.039695,-1.917969,-1.308594,0.000000,0.000000,0.000000,-0.040501,0.007812,0.004883,0.033691,-0.001953,-0.003906,-0.001221,0,0,0,0
13.049464,-1.917969,-1.308594,0.000000,0.000000,0.000000,-0.042833,0.007812,0.004883,0.033691,0.000244,-0.001221,0.000488,0,0,0,0
13.059224,-1.917969,-1.308594,0.000000,0.000000,0.000000,-0.043308,0.007812,0.004883,0.033691,0.001953,-0.001221,0.002197,0,0,0,0
13.068990,-1.917969,-1.308594,0.000000,0.000000,0.000000,-0.042002,0.007812,0.004883,0.033691,-0.000244,-0.000732,0.000977,0,0,0,0
13.078756,-1.917969,-1.308594,0.000000,0.000000,0.000000,-0.042860,0.007812,0.004883,0.033691,0.000244,-0.001221,0.000977,0,0,0,0
13.088521,-1.917969,-1.308594,0.000000,0.000000,0.000000,-0.044067,0.007812,0.004883,0.033691,-0.000732,-0.000244,0.000977,0,0,0,0
13.098287,-1.917969,-1.308594,0.000000,0.000000,0.000000,-0.042238,0.007812,0.004883,0.033691,0.000732,-0.002930,0.000000,0,0,0,0
13.108053,-1.917969,-1.308594,0.000000,0.000000,0.000000,-0.042908,0.007812,0.004883,0.033691,-0.002441,-0.002197,0.001465,0,0,0,0
13.117819,-1.917969,-1.308594,0.000000,0.000000,0.000000,-0.043556,0.007812,0.004883,0.033691,-0.000244,0.000732,0.001465,0,0,0,0
13.127586,-1.917969,-1.308594,0.000000,0.000000,0.000000,-0.043419,0.007812,0.004883,0.033691,-0.000244,0.000732,-0.001221,0,0,0,0
13.137352,-1.929688,-1.308594,0.000000,0.000000,0.000000,-0.030758,0.007812,0.004883,0.033691,0.001221,0.001709,-0.000488,0,0,0,0
13.147117,-1.929688,-1.308594,0.000000,0.000000,0.000000,-0.031481,0.007812,0.004883,0.033691,-0.001953,0.001221,0.000977,0,0,0,0
13.156884,-1.929688,-1.308594,0.000000,0.000000,0.000000,-0.032278,0.007812,0.004883,0.033691,-0.001465,-0.002930,-0.001709,0,0,0,0
13.166647,-1.917969,-1.308594,0.000000,0.000000,0.000000,-0.033422,0.007812,0.004883,0.033691,0.002930,-0.000244,-0.001221,0,0,0,0
13.176411,-1.917969,-1.308594,0.000000,0.000000,0.000000,-0.034056,0.007812,0.004883,0.033691,0.002930,0.001221,0.000977,0,0,0,0
13.186176,-1.917969,-1.308594,0.000000,0.000000,0.000000,-0.034775,0.007812,0.004883,0.033691,0.000244,-0.001709,0.000977,0,0,0,0
13.195941,-1.917969,-1.308594,0.000000,0.000000,0.000000,-0.035730,0.007812,0.004883,0.033691,0.000244,-0.000732,-0.001221,0,0,0,0
13.205709,-1.917969,-1.308594,0.000000,0.000000,0.000000,-0.035873,0.007812,0.004883,0.033691,0.000244,-0.000732,0.002686,0,0,0,0
13.215474,-1.917969,-1.308594,0.000000,0.000000,0.000000,-0.036995,0.007812,0.004883,0.033691,0.003418,0.000244,0.002686,0,0,0,0
13.225241,-1.917969,-1.308594,0.000000,0.000000,0.000000,-0.038122,0.007812,0.004883,0.033691,0.002441,0.001709,-0.001221,0,0,0,0
13.235005,-1.917969,-1.308594,0.000000,0.000000,0.000000,-0.038189,0.007812,0.004883,0.033691,0.002930,0.000732,0.001465,0,0,0,0
13.244770,-1.917969,-1.308594,0.000000,0.000000,0.000000,-0.039354,0.007812,0.004883,0.033691,-0.000244,0.001221,-0.001221,0,0,0,0
13.254542,-1.917969,-1.308594,0.000000,0.000000,0.000000,-0.040133,0.007959,0.004993,0.033774,-0.003418,-0.001221,-0.000488,0,0,0,0
13.264304,-1.917969,-1.308594,0.000000,0.000000,0.000000,-0.040123,0.007812,0.004883,0.033691,0.002930,0.003418,-0.001709,0,0,0,0
13.274067,-1.917969,-1.308594,0.000000,0.000000,0.000000,-0.041080,0.007812,0.004883,0.033691,0.000732,0.000732,-0.000488,0,0,0,0
13.283832,-1.917969,-1.308594,0.000000,0.000000,0.000000,-0.040112,0.007812,0.004883,0.033691,-0.001953,0.000732,-0.000488,0,0,0,0
13.293599,-1.917969,-1.308594,0.000000,0.000000,0.000000,-0.041138,0.007812,0.004883,0.033691,-0.001465,-0.000732,0.001465,0,0,0,0
13.303369,-1.917969,-1.308594,0.000000,0.000000,0.000000,-0.040346,0.007812,0.004883,0.033691,-0.001465,-0.002197,0.000488,0,0,0,0
13.313130,-1.917969,-1.308594,0.000000,0.000000,0.000000,-0.041048,0.007812,0.004883,0.033691,-0.000732,-0.000244,0.001465,0,0,0,0
13.322899,-1.917969,-1.308594,0.000000,0.000000,0.000000,-0.042000,0.007812,0.004883,0.033691,-0.000244,0.000244,-0.000488,0,0,0,0
13.332662,-1.917969,-1.308594,0.000000,0.000000,0.000000,-0.042580,0.007812,0.004883,0.033691,-0.000244,0.001221,0.000000,0,0,0,0
13.342427,-1.917969,-1.308594,0.000000,0.000000,0.000000,-0.041084,0.007812,0.004883,0.033691,-0.002930,-0.001709,0.001465,0,0,0,0
13.352192,-1.917969,-1.308594,0.000000,0.000000,0.000000,-0.041586,0.007812,0.004883,0.033691,-0.001953,-0.001221,0.000977,0,0,0,0
13.361959,-1.917969,-1.308594,0.000000,0.000000,0.000000,-0.040775,0.007812,0.004883,0.033691,-0.000244,0.004395,0.000488,0,0,0,0
13.371724,-1.917969,-1.308594,0.000000,0.000000,0.000000,-0.040331,0.007812,0.004883,0.033691,0.000732,0.001709,0.000977,0,0,0,0
13.381489,-1.917969,-1.308594,0.000000,0.000000,0.000000,-0.041265,0.007812,0.004883,0.033691,0.000244,-0.000244,-0.001221,0,0,0,0
13.391256,-1.917969,-1.308594,0.000000,0.000000,0.000000,-0.042318,0.007812,0.004883,0.033691,0.001221,0.001221,0.000488,0,0,0,0
13.401021,-1.917969,-1.308594,0.000000,0.000000,0.000000,-0.041241,0.007812,0.004883,0.033691,0.000244,-0.001221,0.000977,0,0,0,0
13.410786,-1.917969,-1.308594,0.000000,0.000000,0.000000,-0.041975,0.007812,0.004883,0.033691,-0.000244,0.000244,0.002197,0,0,0,0
13.420552,-1.917969,-1.308594,0.000000,0.000000,0.000000,-0.042658,0.007812,0.004883,0.033691,-0.001953,0.001221,0.003174,0,0,0,0
13.430324,-1.917969,-1.308594,0.000000,0.000000,0.000000,-0.043516,0.007812,0.004883,0.033691,-0.002441,-0.000732,0.000488,0,0,0,0
13.440084,-1.917969,-1.308594,0.000000,0.000000,0.000000,-0.041878,0.007812,0.004883,0.033691,0.000732,-0.002197,0.003174,0,0,0,0
13.449849,-1.917969,-1.308594,0.000000,0.000000,0.000000,-0.042759,0.007812,0.004883,0.033691,0.000732,-0.001709,-0.001709,0,0,0,0
13.459615,-1.917969,-1.308594,0.000000,0.000000,0.000000,-0.043917,0.007812,0.004883,0.033691,0.001221,-0.000732,0.000977,0,0,0,0
13.469379,-1.917969,-1.308594,0.000000,0.000000,0.000000,-0.042538,0.007812,0.004883,0.033691,0.000244,-0.001221,0.000000,0,0,0,0
13.479146,-1.917969,-1.308594,0.000000,0.000000,0.000000,-0.043163,0.007812,0.004883,0.033691,-0.000732,-0.000244,-0.001221,0,0,0,0
13.488917,-1.917969,-1.308594,0.000000,0.000000,0.000000,-0.043995,0.007958,0.004932,0.033774,0.001953,0.002686,-0.000488,0,0,0,0
13.498676,-1.917969,-1.308594,0.000000,0.000000,0.000000,-0.042194,0.007812,0.004883,0.033691,-0.002930,-0.001709,0.000977,0,0,0,0
13.508443,-1.917969,-1.308594,0.000000,0.000000,0.000000,-0.042978,0.007812,0.004883,0.033691,-0.002930,0.000244,0.001465,0,0,0,0
13.518211,-1.917969,-1.308594,0.000000,0.000000,0.000000,-0.043564,0.007812,0.004883,0.033691,-0.002441,0.000244,-0.001709,0,0,0,0
13.527974,-1.917969,-1.308594,0.000000,0.000000,0.000000,-0.044250,0.007812,0.004883,0.033691,0.000732,0.001221,0.002197,0,0,0,0
13.537743,-1.917969,-1.308594,0.000000,0.000000,0.000000,-0.042227,0.007812,0.004639,0.033691,0.000732,-0.002930,0.000977,0,0,0,0
13.547509,-1.917969,-1.308594,0.000000,0.000000,0.000000,-0.042871,0.007812,0.004639,0.033691,-0.000732,0.000244,0.000977,0,0,0,0
13.557276,-1.917969,-1.308594,0.000000,0.000000,0.000000,-0.043821,0.007812,0.004639,0.033691,-0.000244,0.000732,0.000977,0,0,0,0
13.567041,-1.917969,-1.308594,0.000000,0.000000,0.000000,-0.041868,0.007812,0.004639,0.033691,-0.001465,0.001221,-0.000488,0,0,0,0
13.576806,-1.917969,-1.308594,0.000000,0.000000,0.000000,-0.042984,0.007812,0.004639,0.033691,-0.000732,-0.000732,-0.002197,0,0,0,0
13.586569,-1.917969,-1.308594,0.000000,0.000000,0.000000,-0.044203,0.007812,0.004639,0.033691,0.001221,-0.000244,0.000977,0,0,0,0
13.596335,-1.917969,-1.308594,0.000000,0.000000,0.000000,-0.044605,0.007812,0.004639,0.033691,-0.002441,-0.000244,0.001465,0,0,0,0
13.606102,-1.917969,-1.308594,0.000000,0.000000,0.000000,-0.042231,0.007812,0.004639,0.033691,-0.001465,-0.002197,-0.000488,0,0,0,0
13.615866,-1.917969,-1.308594,0.000000,0.000000,0.000000,-0.043087,0.007812,0.004639,0.033691,0.000244,-0.003418,0.001465,0,0,0,0
13.625628,-1.917969,-1.308594,0.000000,0.000000,0.000000,-0.043808,0.007812,0.004639,0.033691,0.001221,-0.001709,0.000977,0,0,0,0
13.635397,-1.917969,-1.308594,0.000000,0.000000,0.000000,-0.041521,0.007812,0.004639,0.033691,0.002930,-0.001221,0.001465,0,0,0,0
13.645162,-1.917969,-1.308594,0.000000,0.000000,0.000000,-0.042423,0.007812,0.004639,0.033691,0.000732,0.002686,0.000977,0,0,0,0
13.654927,-1.917969,-1.308594,0.000000,0.000000,0.000000,-0.043015,0.007812,0.004639,0.033691,0.000732,-0.000244,0.002686,0,0,0,0
13.664694,-1.917969,-1.308594,0.000000,0.000000,0.000000,-0.040850,0.007812,0.004639,0.033691,0.000732,-0.000244,-0.001221,0,0,0,0
13.674458,-1.917969,-1.308594,0.000000,0.000000,0.000000,-0.041687,0.007812,0.004639,0.033691,0.001221,-0.000732,0.000488,0,0,0,0
13.684225,-1.917969,-1.308594,0.000000,0.000000,0.000000,-0.042229,0.007812,0.004639,0.033691,0.001221,-0.003418,0.002197,0,0,0,0
13.693990,-1.917969,-1.308594,0.000000,0.000000,0.000000,-0.043194,0.007812,0.004639,0.033691,0.000244,-0.000732,0.002197,0,0,0,0
13.703758,-1.917969,-1.308594,0.000000,0.000000,0.000000,-0.041134,0.007812,0.004639,0.033691,-0.000732,0.002686,0.003662,0,0,0,0
13.713520,-1.917969,-1.308594,0.000000,0.000000,0.000000,-0.042063,0.007812,0.004639,0.033691,0.001953,-0.000732,-0.000488,0,0,0,0
13.723311,-1.917969,-1.308594,0.000000,0.000000,0.000000,-0.042723,0.007812,0.004639,0.033691,-0.000732,-0.001221,-0.003174,0,0,0,0
13.733051,-1.929688,-1.308594,0.000000,0.000000,0.000000,-0.029564,0.007812,0.004639,0.033691,0.000732,-0.000732,-0.000488,0,0,0,0
13.742817,-1.929688,-1.308594,0.000000,0.000000,0.000000,-0.030527,0.007812,0.004639,0.033691,-0.002441,0.000732,-0.000488,0,0,0,0
13.752582,-1.929688,-1.308594,0.000000,0.000000,0.000000,-0.030973,0.007812,0.004639,0.033691,-0.002441,-0.000732,-0.000488,0,0,0,0
13.762348,-1.929688,-1.308594,0.000000,0.000000,0.000000,-0.031889,0.007812,0.004639,0.033691,0.000732,-0.000244,0.000000,0,0,0,0
13.772115,-1.917969,-1.308594,0.000000,0.000000,0.000000,-0.032543,0.007812,0.004639,0.033691,0.000732,-0.000244,0.000000,0,0,0,0
13.781880,-1.917969,-1.308594,0.000000,0.000000,0.000000,-0.033798,0.007812,0.004639,0.033691,-0.002930,-0.002930,-0.003662,0,0,0,0
13.791647,-1.917969,-1.308594,0.000000,0.000000,0.000000,-0.034103,0.007812,0.004639,0.033691,-0.001465,0.001709,-0.000488,0,0,0,0
13.801417,-1.917969,-1.308594,0.000000,0.000000,0.000000,-0.034573,0.007812,0.004639,0.033691,0.000244,-0.001221,0.000977,0,0,0,0
13.811177,-1.917969,-1.308594,0.000000,0.000000,0.000000,-0.035498,0.007812,0.004639,0.033691,-0.000732,0.000244,-0.001709,0,0,0,0
13.820943,-1.917969,-1.308594,0.000000,0.000000,0.000000,-0.036343,0.007812,0.004639,0.033691,-0.001465,-0.001709,0.000488,0,0,0,0
13.830715,-1.917969,-1.308594,0.000000,0.000000,0.000000,-0.036617,0.007812,0.004639,0.033691,-0.000244,0.001221,-0.000488,0,0,0,0
13.840474,-1.917969,-1.308594,0.000000,0.000000,0.000000,-0.036488,0.007812,0.004639,0.033691,0.000244,0.000244,0.000000,0,0,0,0
13.850239,-1.917969,-1.308594,0.000000,0.000000,0.000000,-0.037392,0.007812,0.004639,0.033691,-0.000244,0.000244,0.000488,0,0,0,0
13.860004,-1.917969,-1.308594,0.000000,0.000000,0.000000,-0.038080,0.007812,0.004639,0.033691,-0.000244,-0.001709,0.000488,0,0,0,0
13.869774,-1.917969,-1.308594,0.000000,0.000000,0.000000,-0.037630,0.007812,0.004639,0.033691,0.002441,-0.003418,-0.001221,0,0,0,0
13.879537,-1.917969,-1.308594,0.000000,0.000000,0.000000,-0.038437,0.007812,0.004639,0.033691,0.001221,-0.000244,-0.001709,0,0,0,0
13.889305,-1.917969,-1.308594,0.000000,0.000000,0.000000,-0.039377,0.007812,0.004639,0.033691,0.000244,-0.001709,0.002686,0,0,0,0
13.899078,-1.917969,-1.308594,0.000000,0.000000,0.000000,-0.038425,0.007812,0.004639,0.033691,0.001221,-0.000244,0.000977,0,0,0,0
13.908834,-1.917969,-1.308594,0.000000,0.000000,0.000000,-0.038601,0.007812,0.004639,0.033691,-0.000244,-0.002197,0.000488,0,0,0,0
13.918600,-1.917969,-1.308594,0.000000,0.000000,0.000000,-0.039667,0.007812,0.004639,0.033691,0.000244,-0.001709,-0.001221,0,0,0,0
13.928364,-1.917969,-1.308594,0.000000,0.000000,0.000000,-0.040203,0.007812,0.004639,0.033691,0.001221,0.000244,-0.000488,0,0,0,0
13.938129,-1.917969,-1.308594,0.000000,0.000000,0.000000,-0.039518,0.007812,0.004639,0.033691,-0.002930,-0.003418,0.002197,0,0,0,0
13.947896,-1.917969,-1.308594,0.000000,0.000000,0.000000,-0.040251,0.007812,0.004639,0.033691,0.000244,0.001221,0.000000,0,0,0,0
13.957663,-1.917969,-1.308594,0.000000,0.000000,0.000000,-0.040970,0.007812,0.004639,0.033691,-0.000732,-0.000244,0.000488,0,0,0,0
13.967430,-1.917969,-1.308594,0.000000,0.000000,0.000000,-0.039499,0.007812,0.004639,0.033691,0.000244,0.000732,0.000488,0,0,0,0
13.977195,-1.917969,-1.308594,0.000000,0.000000,0.000000,-0.040016,0.007812,0.004639,0.033691,0.000244,-0.000244,0.000000,0,0,0,0
13.986959,-1.917969,-1.308594,0.000000,0.000000,0.000000,-0.040228,0.007812,0.004639,0.033691,-0.000732,-0.003418,-0.000488,0,0,0,0
13.996734,-1.917969,-1.308594,0.000000,0.000000,0.000000,-0.041140,0.007812,0.004639,0.033691,0.000732,-0.000732,0.000977,0,0,0,0
14.006488,-1.917969,-1.308594,0.000000,0.000000,0.000000,-0.039663,0.007812,0.004639,0.033691,-0.001465,-0.001221,0.000488,0,0,0,0
14.016256,-1.917969,-1.308594,0.000000,0.000000,0.000000,-0.040213,0.007812,0.004639,0.033691,-0.001465,0.002197,0.000000,0,0,0,0
14.026027,-1.917969,-1.308594,0.000000,0.000000,0.000000,-0.040840,0.007954,0.004688,0.033773,-0.001953,0.001221,0.000488,0,0,0,0
14.035787,-1.917969,-1.308594,0.000000,0.000000,0.000000,-0.039612,0.007812,0.004639,0.033691,-0.000732,0.001221,0.004639,0,0,0,0
14.045552,-1.917969,-1.308594,0.000000,0.000000,0.000000,-0.040331,0.007812,0.004639,0.033691,-0.001953,-0.000732,0.000977,0,0,0,0
14.055318,-1.917969,-1.308594,0.000000,0.000000,0.000000,-0.040991,0.007812,0.004639,0.033691,-0.000732,-0.000732,-0.000488,0,0,0,0
14.065084,-1.929688,-1.308594,0.000000,0.000000,0.000000,-0.027180,0.007812,0.004639,0.033691,0.001221,0.000244,0.002197,0,0,0,0
14.074848,-1.929688,-1.308594,0.000000,0.000000,0.000000,-0.027740,0.007812,0.004639,0.033691,0.003906,0.001709,-0.000488,0,0,0,0
14.084616,-1.929688,-1.308594,0.000000,0.000000,0.000000,-0.028769,0.007812,0.004639,0.033691,-0.000244,-0.002197,0.000000,0,0,0,0
14.094383,-1.929688,-1.308594,0.000000,0.000000,0.000000,-0.029480,0.007812,0.004639,0.033691,0.002930,-0.001709,0.001465,0,0,0,0
14.104148,-1.917969,-1.308594,0.000000,0.000000,0.000000,-0.030857,0.007812,0.004639,0.033691,-0.000732,-0.000244,0.001465,0,0,0,0
14.113914,-1.917969,-1.308594,0.000000,0.000000,0.000000,-0.031796,0.007812,0.004639,0.033691,-0.000732,-0.001221,0.000488,0,0,0,0
14.123679,-1.917969,-1.308594,0.000000,0.000000,0.000000,-0.032682,0.007812,0.004639,0.033691,-0.001953,-0.000244,-0.001221,0,0,0,0
14.133442,-1.917969,-1.308594,0.000000,0.000000,0.000000,-0.033310,0.007812,0.004639,0.033691,-0.000732,0.000244,0.000488,0,0,0,0
