time,pos_x,pos_y,pos_z,vel_x,vel_y,vel_z,att_phi,att_theta,att_psi,rate_p,rate_q,rate_r,cmd_thrust,cmd_roll,cmd_pitch,cmd_yaw
7.914681,1.718750,-0.058594,0.007812,0.000000,0.000000,-0.042818,-0.002625,0.001343,0.493462,-0.001709,0.003418,-0.001709,0,0,0,0
7.924450,1.718750,-0.058594,0.003906,0.000000,0.000000,-0.043623,-0.002441,0.001221,0.493408,0.000732,0.001709,0.000488,0,0,0,0
7.934211,1.718750,-0.058594,0.003906,0.000000,0.000000,-0.044760,-0.002625,0.001404,0.493462,0.000244,0.001709,-0.001221,0,0,0,0
7.943976,1.718750,-0.058594,0.007812,0.000000,0.000000,-0.042927,-0.002625,0.001404,0.493462,-0.001709,-0.000244,-0.000244,0,0,0,0
7.953742,1.718750,-0.058594,0.003906,0.000000,0.000000,-0.043777,-0.002625,0.001404,0.493462,0.000732,0.001709,-0.000244,0,0,0,0
7.963508,1.718750,-0.058594,0.003906,0.000000,0.000000,-0.043812,-0.002625,0.001404,0.493462,0.001465,-0.001221,0.002441,0,0,0,0
7.973273,1.718750,-0.058594,0.007812,0.000000,0.000000,-0.041737,-0.002625,0.001404,0.493462,0.000244,0.002930,-0.002197,0,0,0,0
7.983047,1.718750,-0.058594,0.007812,0.000000,0.000000,-0.042797,-0.002625,0.001404,0.493462,0.002930,-0.000732,-0.000244,0,0,0,0
7.992804,1.718750,-0.058594,0.003906,0.000000,0.000000,-0.043684,-0.002625,0.001404,0.493462,0.001465,-0.000244,-0.000244,0,0,0,0
8.002570,1.718750,-0.058594,0.003906,0.000000,0.000000,-0.044432,-0.002625,0.001404,0.493462,0.000244,-0.000244,0.000488,0,0,0,0
8.012335,1.718750,-0.058594,0.007812,0.000000,0.000000,-0.042467,-0.002625,0.001404,0.493462,0.001953,0.001709,0.000488,0,0,0,0
8.022101,1.718750,-0.058594,0.003906,0.000000,0.000000,-0.043262,-0.002625,0.001404,0.493462,-0.001709,0.000244,-0.000732,0,0,0,0
8.031867,1.718750,-0.058594,0.003906,0.000000,0.000000,-0.044462,-0.002625,0.001404,0.493462,0.000244,0.000244,0.000488,0,0,0,0
8.041633,1.718750,-0.058594,0.007812,0.000000,0.000000,-0.040886,-0.002625,0.001404,0.493462,0.000244,-0.000732,-0.000244,0,0,0,0
8.051399,1.718750,-0.058594,0.007812,0.000000,0.000000,-0.041897,-0.002625,0.001404,0.493516,0.002441,-0.001221,0.001465,0,0,0,0
8.061163,1.718750,-0.058594,0.007812,0.000000,0.000000,-0.042797,-0.002564,0.001343,0.493516,0.001465,0.001221,-0.001221,0,0,0,0
8.070930,1.718750,-0.058594,0.007812,0.000000,0.000000,-0.040867,-0.002564,0.001343,0.493516,0.000244,-0.002197,-0.000732,0,0,0,0
8.080695,1.718750,-0.058594,0.007812,0.000000,0.000000,-0.041599,-0.002564,0.001343,0.493516,-0.001709,-0.000244,0.000488,0,0,0,0
8.090460,1.718750,-0.058594,0.007812,0.000000,0.000000,-0.042589,-0.002564,0.001343,0.493516,0.001953,0.000732,-0.000732,0,0,0,0
8.100226,1.718750,-0.058594,0.003906,0.000000,0.000000,-0.043497,-0.002564,0.001343,0.493516,0.001465,0.000732,-0.001709,0,0,0,0
8.109991,1.718750,-0.058594,0.007812,0.000000,0.000000,-0.041792,-0.002564,0.001343,0.493516,0.002441,0.000244,0.000488,0,0,0,0
8.119757,1.718750,-0.058594,0.007812,0.000000,0.000000,-0.041885,-0.002564,0.001343,0.493516,0.002930,-0.000244,0.000977,0,0,0,0
8.129524,1.718750,-0.058594,0.007812,0.000000,0.000000,-0.043173,-0.002564,0.001343,0.493516,-0.000244,0.002441,0.001953,0,0,0,0
8.139289,1.718750,-0.058594,0.007812,0.000000,0.000000,-0.041435,-0.002564,0.001343,0.493516,-0.000732,-0.000732,-0.000732,0,0,0,0
8.149061,1.718750,-0.058594,0.007812,0.000000,0.000000,-0.042063,-0.002564,0.001343,0.493516,-0.000244,0.002441,-0.001221,0,0,0,0
8.158824,1.718750,-0.058594,0.007812,0.000000,0.000000,-0.043320,-0.002441,0.001221,0.493408,0.000244,-0.000732,0.001465,0,0,0,0
8.168586,1.718750,-0.058594,0.003906,0.000000,0.000000,-0.044186,-0.002564,0.001343,0.493516,0.001953,0.000732,-0.000244,0,0,0,0
8.178389,1.718750,-0.058594,0.007812,0.000000,0.000000,-0.042170,-0.002564,0.001343,0.493516,0.000732,-0.000244,0.000977,0,0,0,0
8.188117,1.718750,-0.058594,0.007812,0.000000,0.000000,-0.043156,-0.002564,0.001343,0.493516,-0.000244,0.001221,-0.000244,0,0,0,0
8.197883,1.718750,-0.058594,0.007812,0.000000,0.000000,-0.043320,-0.002564,0.001343,0.493516,-0.000244,0.001221,0.002441,0,0,0,0
8.207647,1.718750,-0.058594,0.007812,0.000000,0.000000,-0.041861,-0.002564,0.001343,0.493516,-0.000732,0.000244,0.000977,0,0,0,0
8.217413,1.718750,-0.058594,0.007812,0.000000,0.000000,-0.042864,-0.002564,0.001343,0.493516,0.002441,-0.000732,0.001465,0,0,0,0
8.227181,1.718750,-0.058594,0.003906,0.000000,0.000000,-0.043673,-0.002564,0.001343,0.493516,0.000244,-0.002197,0.000488,0,0,0,0
8.236945,1.718750,-0.058594,0.003906,0.000000,0.000000,-0.044189,-0.002564,0.001343,0.493516,-0.001221,-0.001221,0.000488,0,0,0,0
8.246710,1.718750,-0.058594,0.007812,0.000000,0.000000,-0.041880,-0.002564,0.001343,0.493516,0.000244,-0.000244,0.000977,0,0,0,0
8.256476,1.718750,-0.058594,0.003906,0.000000,0.000000,-0.043158,-0.002564,0.001343,0.493516,-0.000244,0.003418,0.001465,0,0,0,0
8.266241,1.718750,-0.058594,0.003906,0.000000,0.000000,-0.043911,-0.002564,0.001343,0.493516,-0.000244,-0.001709,0.000488,0,0,0,0
8.276007,1.718750,-0.058594,0.007812,0.000000,0.000000,-0.041731,-0.002564,0.001343,0.493516,0.000732,-0.001221,0.000488,0,0,0,0
8.285772,1.718750,-0.058594,0.007812,0.000000,0.000000,-0.042440,-0.002564,0.001343,0.493516,-0.000244,0.001221,-0.001221,0,0,0,0
8.295538,1.718750,-0.058594,0.003906,0.000000,0.000000,-0.043619,-0.002503,0.001404,0.493516,0.001953,0.000244,0.000488,0,0,0,0
8.305305,1.718750,-0.058594,0.007812,0.000000,0.000000,-0.041445,-0.002503,0.001404,0.493516,-0.000732,0.000244,-0.001221,0,0,0,0
8.315070,1.718750,-0.058594,0.007812,0.000000,0.000000,-0.042204,-0.002503,0.001404,0.493516,-0.000732,-0.000732,0.001465,0,0,0,0
8.324834,1.718750,-0.058594,0.003906,0.000000,0.000000,-0.043373,-0.002503,0.001404,0.493516,0.001465,0.002930,0.001465,0,0,0,0
8.334601,1.718750,-0.058594,0.003906,0.000000,0.000000,-0.044161,-0.002503,0.001404,0.493516,0.001465,0.000732,-0.000244,0,0,0,0
8.344366,1.718750,-0.058594,0.007812,0.000000,0.000000,-0.042009,-0.002503,0.001404,0.493516,-0.001709,-0.001709,-0.000732,0,0,0,0
8.354132,1.718750,-0.058594,0.007812,0.000000,0.000000,-0.041985,-0.002503,0.001404,0.493516,0.000732,-0.001221,-0.001221,0,0,0,0
8.363897,1.718750,-0.058594,0.003906,0.000000,0.000000,-0.042824,-0.002503,0.001404,0.493516,-0.000732,-0.000732,-0.001221,0,0,0,0
8.373663,1.718750,-0.058594,0.007812,0.000000,0.000000,-0.041290,-0.002503,0.001404,0.493516,-0.002441,0.001709,-0.000732,0,0,0,0
8.383437,1.718750,-0.058594,0.007812,0.000000,0.000000,-0.042067,-0.002503,0.001404,0.493516,0.000732,0.000244,0.002441,0,0,0,0
8.393194,1.718750,-0.058594,0.003906,0.000000,0.000000,-0.043009,-0.002503,0.001404,0.493516,-0.000244,0.000732,0.000977,0,0,0,0
8.402960,1.718750,-0.058594,0.003906,0.000000,0.000000,-0.043488,-0.002503,0.001404,0.493516,0.000244,-0.000732,-0.000244,0,0,0,0
8.412725,1.718750,-0.058594,0.007812,0.000000,0.000000,-0.041344,-0.002503,0.001404,0.493516,-0.001221,-0.000732,-0.000244,0,0,0,0
8.422491,1.718750,-0.058594,0.003906,0.000000,0.000000,-0.042233,-0.002503,0.001404,0.493516,0.001465,0.000244,-0.000244,0,0,0,0
8.432258,1.718750,-0.058594,0.003906,0.000000,0.000000,-0.042746,-0.002503,0.001404,0.493516,0.000732,0.002441,-0.001221,0,0,0,0
8.442022,1.718750,-0.058594,0.007812,0.000000,0.000000,-0.040632,-0.002503,0.001404,0.493516,-0.000244,-0.001709,-0.001221,0,0,0,0
8.451788,1.718750,-0.058594,0.007812,0.000000,0.000000,-0.041676,-0.002503,0.001404,0.493516,0.001465,-0.000732,-0.000732,0,0,0,0
8.461559,1.718750,-0.058594,0.003906,0.000000,0.000000,-0.042580,-0.002441,0.001221,0.493408,-0.001221,-0.001709,-0.001221,0,0,0,0
8.471321,1.718750,-0.058594,0.003906,0.000000,0.000000,-0.042934,-0.002503,0.001404,0.493516,-0.000732,0.001221,-0.000244,0,0,0,0
8.481085,1.718750,-0.058594,0.007812,0.000000,0.000000,-0.040834,-0.002503,0.001404,0.493516,0.000732,0.000732,-0.002197,0,0,0,0
8.490851,1.718750,-0.058594,0.003906,0.000000,0.000000,-0.041618,-0.002503,0.001404,0.493516,-0.000732,-0.001709,0.001465,0,0,0,0
8.500616,1.718750,-0.058594,0.003906,0.000000,0.000000,-0.042772,-0.002503,0.001404,0.493516,-0.002930,-0.000244,-0.001221,0,0,0,0
8.510382,1.718750,-0.058594,0.007812,0.000000,0.000000,-0.041353,-0.002503,0.001404,0.493516,0.001465,0.001221,0.000488,0,0,0,0
8.520147,1.718750,-0.058594,0.003906,0.000000,0.000000,-0.042215,-0.002503,0.001404,0.493516,-0.001221,-0.000244,-0.002686,0,0,0,0
8.529917,1.718750,-0.058594,0.003906,0.000000,0.000000,-0.043055,-0.002503,0.001404,0.493516,-0.001221,-0.000244,-0.000244,0,0,0,0
8.539680,1.718750,-0.058594,0.007812,0.000000,0.000000,-0.040720,-0.002503,0.001404,0.493516,-0.001709,-0.001221,0.000977,0,0,0,0
8.549447,1.718750,-0.058594,0.003906,0.000000,0.000000,-0.041773,-0.002503,0.001404,0.493516,0.000244,-0.002197,-0.000244,0,0,0,0
8.559210,1.718750,-0.058594,0.003906,0.000000,0.000000,-0.042576,-0.002503,0.001404,0.493516,-0.001221,0.002441,0.000977,0,0,0,0
8.568975,1.718750,-0.058594,0.003906,0.000000,0.000000,-0.043581,-0.002503,0.001404,0.493516,0.001953,-0.000244,-0.000732,0,0,0,0
8.578741,1.718750,-0.058594,0.003906,0.000000,0.000000,-0.040995,-0.002442,0.001404,0.493516,-0.000244,-0.000732,0.000488,0,0,0,0
8.588511,1.718750,-0.058594,0.003906,0.000000,0.000000,-0.042629,-0.002442,0.001404,0.493516,0.000732,0.000244,0.003174,0,0,0,0
8.598273,1.718750,-0.058594,0.003906,0.000000,0.000000,-0.043756,-0.002442,0.001404,0.493516,-0.002930,-0.001221,0.001953,0,0,0,0
8.608038,1.718750,-0.058594,0.003906,0.000000,0.000000,-0.040905,-0.002442,0.001404,0.493516,-0.001221,0.001221,-0.001221,0,0,0,0
8.617806,1.718750,-0.058594,0.003906,0.000000,0.000000,-0.041601,-0.002442,0.001404,0.493516,0.000732,-0.001709,-0.000732,0,0,0,0
8.627569,1.718750,-0.058594,0.003906,0.000000,0.000000,-0.042559,-0.002442,0.001404,0.493516,0.000244,0.001221,-0.000244,0,0,0,0
8.637334,1.718750,-0.058594,0.003906,0.000000,0.000000,-0.043329,-0.002442,0.001404,0.493516,-0.001221,-0.001221,-0.001709,0,0,0,0
8.647100,1.718750,-0.058594,0.003906,0.000000,0.000000,-0.040583,-0.002442,0.001404,0.493516,-0.000244,-0.001709,0.000488,0,0,0,0
8.656865,1.718750,-0.058594,0.003906,0.000000,0.000000,-0.041233,-0.002442,0.001404,0.493516,0.000732,0.000244,-0.001221,0,0,0,0
8.666633,1.718750,-0.058594,0.003906,0.000000,0.000000,-0.042847,-0.002442,0.001404,0.493516,0.002930,-0.001221,-0.000244,0,0,0,0
8.676400,1.718750,-0.058594,0.003906,0.000000,0.000000,-0.040178,-0.002442,0.001404,0.493462,0.000732,-0.000732,-0.001221,0,0,0,0
8.686163,1.718750,-0.058594,0.003906,0.000000,0.000000,-0.041136,-0.002442,0.001404,0.493462,0.000244,0.000244,0.000488,0,0,0,0
8.695928,1.718750,-0.058594,0.003906,0.000000,0.000000,-0.041960,-0.002442,0.001404,0.493462,0.002441,0.002441,0.000488,0,0,0,0
8.705695,1.718750,-0.058594,0.003906,0.000000,0.000000,-0.042736,-0.002442,0.001404,0.493462,0.001953,0.001221,0.000977,0,0,0,0
8.715460,1.718750,-0.058594,0.003906,0.000000,0.000000,-0.040039,-0.002442,0.001404,0.493462,0.002441,0.001221,-0.000244,0,0,0,0
8.725225,1.718750,-0.058594,0.003906,0.000000,0.000000,-0.040565,-0.002381,0.001404,0.493462,-0.001709,-0.000732,0.003174,0,0,0,0
8.734991,1.718750,-0.058594,0.003906,0.000000,0.000000,-0.041462,-0.002381,0.001404,0.493462,0.003418,-0.000244,-0.000244,0,0,0,0
8.744757,1.718750,-0.058594,0.003906,0.000000,0.000000,-0.040018,-0.002381,0.001404,0.493462,0.004150,0.003418,0.001465,0,0,0,0
8.754522,1.718750,-0.058594,0.003906,0.000000,0.000000,-0.040707,-0.002381,0.001404,0.493462,0.002930,0.000732,-0.000732,0,0,0,0
8.764288,1.718750,-0.058594,0.003906,0.000000,0.000000,-0.041059,-0.002381,0.001404,0.493462,-0.000244,0.001221,-0.000244,0,0,0,0
8.774054,1.718750,-0.058594,0.003906,0.000000,0.000000,-0.038557,-0.002381,0.001404,0.493462,0.000732,0.000732,0.001465,0,0,0,0
8.783826,1.718750,-0.058594,0.003906,0.000000,0.000000,-0.039480,-0.002381,0.001404,0.493462,0.000244,0.000732,0.000977,0,0,0,0
8.793586,1.718750,-0.058594,0.003906,0.000000,0.000000,-0.040077,-0.002381,0.001404,0.493462,0.000732,0.002441,-0.000244,0,0,0,0
8.803350,1.718750,-0.058594,0.003906,0.000000,0.000000,-0.040812,-0.002381,0.001404,0.493462,0.000244,0.000244,0.000488,0,0,0,0
8.813116,1.718750,-0.058594,0.003906,0.000000,0.000000,-0.038145,-0.002381,0.001404,0.493462,0.001953,0.000732,0.000977,0,0,0,0
8.822881,1.718750,-0.058594,0.003906,0.000000,0.000000,-0.038464,-0.002381,0.001404,0.493462,0.000732,0.000244,0.000488,0,0,0,0
8.832653,1.718750,-0.058594,0.003906,0.000000,0.000000,-0.039219,-0.002197,0.001221,0.493408,-0.000732,-0.000244,0.000488,0,0,0,0
8.842414,1.718750,-0.058594,0.007812,0.000000,0.000000,-0.036648,-0.002381,0.001404,0.493462,0.000732,0.002441,0.000977,0,0,0,0
8.852179,1.718750,-0.058594,0.003906,0.000000,0.000000,-0.037403,-0.002381,0.001404,0.493462,0.002441,-0.002686,0.003662,0,0,0,0
8.861944,1.718750,-0.058594,0.003906,0.000000,0.000000,-0.038038,-0.002381,0.001404,0.493462,0.000244,-0.002197,0.001465,0,0,0,0
8.871709,1.718750,-0.058594,0.003906,0.000000,0.000000,-0.039110,-0.002381,0.001404,0.493462,0.002441,-0.000244,-0.000244,0,0,0,0
8.881477,1.718750,-0.058594,0.007812,0.000000,0.000000,-0.036974,-0.002381,0.001404,0.493462,-0.000732,0.001221,-0.000244,0,0,0,0
8.891240,1.718750,-0.058594,0.003906,0.000000,0.000000,-0.037882,-0.002381,0.001404,0.493462,0.001465,0.001709,0.001465,0,0,0,0
8.901009,1.718750,-0.058594,0.003906,0.000000,0.000000,-0.038513,-0.002381,0.001404,0.493462,0.002930,0.002930,-0.000732,0,0,0,0
8.910773,1.718750,-0.058594,0.007812,0.000000,0.000000,-0.036358,-0.002381,0.001404,0.493462,0.000244,-0.000732,0.001953,0,0,0,0
8.920538,1.718750,-0.058594,0.007812,0.000000,0.000000,-0.036964,-0.002381,0.001404,0.493462,0.001465,0.001221,-0.000244,0,0,0,0
8.930303,1.718750,-0.058594,0.003906,0.000000,0.000000,-0.037729,-0.002381,0.001404,0.493462,0.000244,-0.001221,0.001953,0,0,0,0
8.940069,1.718750,-0.058594,0.003906,0.000000,0.000000,-0.038769,-0.002381,0.001404,0.493462,-0.000732,-0.000732,0.000977,0,0,0,0
8.949838,1.718750,-0.058594,0.007812,0.000000,0.000000,-0.036760,-0.002381,0.001404,0.493462,-0.000244,-0.001221,0.003174,0,0,0,0
8.959602,1.718750,-0.058594,0.007812,0.000000,0.000000,-0.037384,-0.002381,0.001404,0.493462,-0.000732,-0.003174,0.000977,0,0,0,0
8.969367,1.718750,-0.058594,0.003906,0.000000,0.000000,-0.037897,-0.002381,0.001404,0.493462,-0.000244,0.001221,0.001465,0,0,0,0
8.979133,1.718750,-0.058594,0.007812,0.000000,0.000000,-0.035175,-0.002381,0.001404,0.493462,0.004639,-0.000732,-0.001221,0,0,0,0
8.988897,1.718750,-0.058594,0.007812,0.000000,0.000000,-0.035845,-0.002381,0.001404,0.493462,0.000732,0.002930,-0.001221,0,0,0,0
8.998665,1.718750,-0.058594,0.007812,0.000000,0.000000,-0.036581,-0.002381,0.001404,0.493462,-0.000244,-0.001709,-0.000732,0,0,0,0
9.008429,1.718750,-0.058594,0.003906,0.000000,0.000000,-0.037119,-0.002381,0.001404,0.493462,0.000244,-0.001221,0.000488,0,0,0,0
9.018195,1.718750,-0.058594,0.007812,0.000000,0.000000,-0.035435,-0.002381,0.001404,0.493462,-0.001221,0.000732,0.001953,0,0,0,0
9.027962,1.718750,-0.058594,0.007812,0.000000,0.000000,-0.035925,-0.002381,0.001404,0.493462,0.000732,-0.001709,-0.002197,0,0,0,0
9.037725,1.718750,-0.058594,0.003906,0.000000,0.000000,-0.036993,-0.002381,0.001404,0.493462,-0.000732,0.002930,-0.003418,0,0,0,0
9.047491,1.718750,-0.058594,0.007812,0.000000,0.000000,-0.034988,-0.002381,0.001404,0.493462,0.000244,-0.001221,-0.000732,0,0,0,0
9.057257,1.718750,-0.058594,0.007812,0.000000,0.000000,-0.036167,-0.002381,0.001404,0.493462,-0.000732,-0.000244,0.000488,0,0,0,0
9.067021,1.718750,-0.058594,0.003906,0.000000,0.000000,-0.036840,-0.002381,0.001404,0.493462,0.004150,0.002930,-0.000244,0,0,0,0
9.076792,1.718750,-0.058594,0.003906,0.000000,0.000000,-0.037401,-0.002381,0.001404,0.493462,-0.003906,0.000244,-0.000732,0,0,0,0
9.086555,1.718750,-0.058594,0.007812,0.000000,0.000000,-0.035631,-0.002381,0.001404,0.493462,0.001953,0.000732,0.000488,0,0,0,0
9.096319,1.718750,-0.058594,0.003906,0.000000,0.000000,-0.036669,-0.002381,0.001404,0.493462,-0.002441,-0.003174,-0.000244,0,0,0,0
9.106085,1.718750,-0.058594,0.003906,0.000000,0.000000,-0.037624,-0.002381,0.001404,0.493462,-0.002930,-0.000244,-0.000244,0,0,0,0
9.115853,1.718750,-0.058594,0.007812,0.000000,0.000000,-0.035595,-0.002381,0.001404,0.493462,-0.000732,0.002441,-0.000244,0,0,0,0
9.125619,1.718750,-0.058594,0.007812,0.000000,0.000000,-0.036688,-0.002381,0.001404,0.493462,-0.000732,-0.001221,0.000977,0,0,0,0
9.135386,1.718750,-0.058594,0.003906,0.000000,0.000000,-0.038797,-0.002197,0.001221,0.493408,0.001465,-0.000732,-0.001221,0,0,0,0
9.145148,1.718750,-0.058594,0.007812,0.000000,0.000000,-0.036604,-0.002381,0.001404,0.493462,0.000732,-0.001709,0.001953,0,0,0,0
9.154914,1.718750,-0.058594,0.003906,0.000000,0.000000,-0.037197,-0.002381,0.001404,0.493462,-0.001221,0.002441,-0.001221,0,0,0,0
9.164678,1.718750,-0.058594,0.003906,0.000000,0.000000,-0.037775,-0.002381,0.001404,0.493462,0.000732,0.000244,0.000977,0,0,0,0
9.174445,1.718750,-0.058594,0.003906,0.000000,0.000000,-0.038658,-0.002381,0.001404,0.493462,-0.000732,-0.000244,-0.000244,0,0,0,0
9.184214,1.718750,-0.058594,0.007812,0.000000,0.000000,-0.036186,-0.002381,0.001404,0.493462,0.000244,-0.002686,0.000488,0,0,0,0
9.193976,1.718750,-0.058594,0.003906,0.000000,0.000000,-0.036802,-0.002381,0.001404,0.493462,-0.001709,-0.001221,-0.000732,0,0,0,0
9.203742,1.718750,-0.058594,0.003906,0.000000,0.000000,-0.037598,-0.002381,0.001404,0.493462,-0.000244,-0.002686,-0.000244,0,0,0,0
9.213507,1.718750,-0.058594,0.003906,0.000000,0.000000,-0.037029,-0.002381,0.001404,0.493462,0.002930,-0.001221,0.000977,0,0,0,0
9.223273,1.718750,-0.058594,0.003906,0.000000,0.000000,-0.037981,-0.002381,0.001404,0.493462,0.000732,0.002441,-0.002686,0,0,0,0
9.233038,1.718750,-0.058594,0.003906,0.000000,0.000000,-0.038548,-0.002381,0.001404,0.493462,-0.001221,-0.001709,0.000488,0,0,0,0
9.242807,1.718750,-0.058594,0.003906,0.000000,0.000000,-0.039240,-0.002381,0.001404,0.493462,0.001465,0.001221,-0.001709,0,0,0,0
9.252569,1.718750,-0.058594,0.003906,0.000000,0.000000,-0.036926,-0.002381,0.001404,0.493462,0.000732,-0.000732,-0.000732,0,0,0,0
9.262335,1.718750,-0.058594,0.003906,0.000000,0.000000,-0.037777,-0.002381,0.001404,0.493462,-0.000732,0.000244,0.000488,0,0,0,0
9.272100,1.718750,-0.058594,0.003906,0.000000,0.000000,-0.038187,-0.002381,0.001404,0.493462,-0.001709,0.000244,-0.000244,0,0,0,0
9.281865,1.718750,-0.058594,0.007812,0.000000,0.000000,-0.035694,-0.002381,0.001404,0.493462,0.000732,0.001221,-0.001221,0,0,0,0
9.291632,1.718750,-0.058594,0.003906,0.000000,0.000000,-0.037548,-0.002381,0.001404,0.493462,-0.000732,0.000244,-0.002197,0,0,0,0
9.301397,1.718750,-0.058594,0.003906,0.000000,0.000000,-0.038420,-0.002381,0.001404,0.493462,-0.001221,-0.000732,-0.000244,0,0,0,0
9.311163,1.718750,-0.058594,0.007812,0.000000,0.000000,-0.035542,-0.002381,0.001404,0.493462,-0.001709,0.000732,0.003174,0,0,0,0
9.320929,1.718750,-0.058594,0.003906,0.000000,0.000000,-0.036489,-0.002381,0.001404,0.493462,-0.000732,-0.000732,-0.000244,0,0,0,0
9.330697,1.718750,-0.058594,0.003906,0.000000,0.000000,-0.037237,-0.002381,0.001404,0.493462,0.000732,-0.000244,-0.000732,0,0,0,0
9.340460,1.718750,-0.058594,0.003906,0.000000,0.000000,-0.037687,-0.002381,0.001404,0.493462,-0.000732,0.001709,0.001465,0,0,0,0
9.350226,1.718750,-0.058594,0.007812,0.000000,0.000000,-0.035704,-0.002381,0.001404,0.493462,-0.001709,-0.002197,-0.000244,0,0,0,0
9.359991,1.718750,-0.058594,0.003906,0.000000,0.000000,-0.036274,-0.002381,0.001404,0.493462,0.000244,-0.002197,0.001465,0,0,0,0
9.369757,1.718750,-0.058594,0.003906,0.000000,0.000000,-0.038651,-0.002381,0.001404,0.493462,0.001465,0.002930,-0.000244,0,0,0,0
9.379522,1.718750,-0.058594,0.003906,0.000000,0.000000,-0.036081,-0.002381,0.001404,0.493462,-0.000244,-0.000244,0.001465,0,0,0,0
9.389288,1.718750,-0.058594,0.003906,0.000000,0.000000,-0.036779,-0.002381,0.001404,0.493462,0.001953,-0.000244,0.000488,0,0,0,0
9.399054,1.718750,-0.058594,0.003906,0.000000,0.000000,-0.037451,-0.002381,0.001404,0.493462,0.000732,0.001221,-0.000732,0,0,0,0
9.408819,1.718750,-0.058594,0.003906,0.000000,0.000000,-0.038277,-0.002381,0.001404,0.493516,0.000732,0.003418,0.000977,0,0,0,0
9.418587,1.718750,-0.058594,0.003906,0.000000,0.000000,-0.035837,-0.002381,0.001404,0.493516,-0.003418,-0.000244,-0.001709,0,0,0,0
9.428354,1.718750,-0.058594,0.003906,0.000000,0.000000,-0.036678,-0.002381,0.001404,0.493516,0.001953,0.000244,0.000488,0,0,0,0
9.438115,1.718750,-0.058594,0.003906,0.000000,0.000000,-0.037403,-0.002381,0.001404,0.493516,-0.000732,0.000732,-0.001221,0,0,0,0
9.447882,1.718750,-0.058594,0.003906,0.000000,0.000000,-0.036354,-0.002381,0.001404,0.493516,0.000732,-0.000244,0.001465,0,0,0,0
9.457650,1.718750,-0.058594,0.003906,0.000000,0.000000,-0.036791,-0.002381,0.001404,0.493516,0.001465,0.002441,-0.000244,0,0,0,0
9.467412,1.718750,-0.058594,0.003906,0.000000,0.000000,-0.037107,-0.002381,0.001404,0.493516,0.002930,0.002441,-0.000244,0,0,0,0
9.477182,1.718750,-0.058594,0.003906,0.000000,0.000000,-0.037628,-0.002381,0.001404,0.493516,0.001465,0.000244,-0.000732,0,0,0,0
9.486945,1.718750,-0.058594,0.003906,0.000000,0.000000,-0.034691,-0.002381,0.001404,0.493516,0.001953,-0.000732,0.001465,0,0,0,0
9.496709,1.718750,-0.058594,0.003906,0.000000,0.000000,-0.035532,-0.002381,0.001404,0.493516,-0.000244,0.001709,0.000488,0,0,0,0
9.506481,1.718750,-0.058594,0.003906,0.000000,0.000000,-0.036165,-0.002197,0.001221,0.493408,0.001953,-0.000732,-0.000244,0,0,0,0
9.516244,1.718750,-0.058594,0.007812,0.000000,0.000000,-0.033661,-0.002381,0.001404,0.493516,0.002930,-0.001709,0.001465,0,0,0,0
9.526007,1.718750,-0.058594,0.003906,0.000000,0.000000,-0.034508,-0.002381,0.001404,0.493516,-0.002930,-0.001221,0.001465,0,0,0,0
9.535776,1.718750,-0.058594,0.003906,0.000000,0.000000,-0.035505,-0.002381,0.001404,0.493516,0.000244,0.001221,0.001465,0,0,0,0
9.545538,1.718750,-0.058594,0.007812,0.000000,0.000000,-0.033051,-0.002381,0.001404,0.493516,0.002441,0.001221,0.000488,0,0,0,0
9.555303,1.718750,-0.058594,0.007812,0.000000,0.000000,-0.033484,-0.002319,0.001404,0.493516,-0.001221,0.002930,0.000977,0,0,0,0
9.565069,1.718750,-0.058594,0.003906,0.000000,0.000000,-0.034311,-0.002319,0.001404,0.493516,-0.000732,0.001221,-0.000244,0,0,0,0
9.574836,1.718750,-0.058594,0.003906,0.000000,0.000000,-0.034403,-0.002319,0.001404,0.493516,0.002441,-0.000244,0.000488,0,0,0,0
9.584606,1.718750,-0.058594,0.007812,0.000000,0.000000,-0.032124,-0.002319,0.001404,0.493516,-0.000244,-0.002197,-0.000244,0,0,0,0
9.594366,1.718750,-0.058594,0.007812,0.000000,0.000000,-0.033073,-0.002319,0.001404,0.493516,0.000732,-0.001221,0.001465,0,0,0,0
9.604132,1.718750,-0.058594,0.003906,0.000000,0.000000,-0.033657,-0.002319,0.001404,0.493516,0.001465,-0.000732,-0.000244,0,0,0,0
9.613898,1.718750,-0.058594,0.007812,0.000000,0.000000,-0.031603,-0.002319,0.001404,0.493516,0.001465,-0.000244,0.000977,0,0,0,0
9.623662,1.718750,-0.058594,0.007812,0.000000,0.000000,-0.032637,-0.002319,0.001404,0.493516,-0.001221,0.000732,-0.000244,0,0,0,0
9.633428,1.718750,-0.058594,0.007812,0.000000,0.000000,-0.033068,-0.002319,0.001404,0.493516,0.000732,0.001709,0.000977,0,0,0,0
9.643194,1.718750,-0.058594,0.003906,0.000000,0.000000,-0.033594,-0.002319,0.001404,0.493516,0.000244,0.001221,0.001465,0,0,0,0
9.652960,1.718750,-0.058594,0.007812,0.000000,0.000000,-0.031622,-0.002319,0.001404,0.493516,-0.003906,0.000732,0.001953,0,0,0,0
9.662725,1.718750,-0.058594,0.007812,0.000000,0.000000,-0.032206,-0.002319,0.001404,0.493516,0.003418,-0.001709,0.001465,0,0,0,0
9.672491,1.718750,-0.058594,0.007812,0.000000,0.000000,-0.032991,-0.002319,0.001404,0.493516,-0.000732,-0.000732,-0.001221,0,0,0,0
9.682257,1.718750,-0.058594,0.007812,0.000000,0.000000,-0.030167,-0.002319,0.001404,0.493516,-0.002441,0.001709,0.000488,0,0,0,0
9.692022,1.718750,-0.058594,0.007812,0.000000,0.000000,-0.030874,-0.002319,0.001404,0.493516,0.000732,-0.001709,0.001465,0,0,0,0
9.701787,1.718750,-0.058594,0.007812,0.000000,0.000000,-0.031418,-0.002319,0.001404,0.493516,0.000244,0.001221,0.001465,0,0,0,0
9.711555,1.718750,-0.058594,0.007812,0.000000,0.000000,-0.032381,-0.002319,0.001404,0.493516,0.000244,0.000244,-0.001709,0,0,0,0
9.721320,1.718750,-0.058594,0.007812,0.000000,0.000000,-0.030588,-0.002319,0.001404,0.493516,-0.001221,0.001709,0.000977,0,0,0,0
9.731084,1.718750,-0.058594,0.007812,0.000000,0.000000,-0.031321,-0.002319,0.001404,0.493516,-0.000244,0.001221,-0.001221,0,0,0,0
9.740852,1.718750,-0.058594,0.007812,0.000000,0.000000,-0.032057,-0.002319,0.001404,0.493516,-0.000732,0.000244,0.000977,0,0,0,0
9.750616,1.718750,-0.058594,0.007812,0.000000,0.000000,-0.030291,-0.002319,0.001404,0.493516,0.000244,0.002930,-0.000244,0,0,0,0
9.760382,1.718750,-0.058594,0.007812,0.000000,0.000000,-0.030127,-0.002319,0.001404,0.493516,0.000244,0.000732,-0.000244,0,0,0,0
9.770147,1.718750,-0.058594,0.007812,0.000000,0.000000,-0.030823,-0.002319,0.001404,0.493516,-0.001709,-0.000244,-0.001709,0,0,0,0
9.779916,1.718750,-0.058594,0.007812,0.000000,0.000000,-0.031378,-0.002319,0.001404,0.493516,0.000732,-0.003906,-0.000244,0,0,0,0
9.789678,1.718750,-0.058594,0.007812,0.000000,0.000000,-0.030031,-0.002319,0.001404,0.493516,0.001465,-0.000244,-0.001221,0,0,0,0
9.799443,1.718750,-0.058594,0.007812,0.000000,0.000000,-0.030560,-0.002319,0.001404,0.493516,-0.003418,-0.000244,0.000488,0,0,0,0
9.809219,1.718750,-0.058594,0.007812,0.000000,0.000000,-0.031178,-0.002319,0.001404,0.493516,0.000732,-0.000244,-0.000244,0,0,0,0
9.818976,1.718750,-0.058594,0.007812,0.000000,0.000000,-0.029634,-0.002319,0.001404,0.493516,-0.000244,-0.002197,0.000488,0,0,0,0
9.828741,1.718750,-0.058594,0.007812,0.000000,0.000000,-0.030222,-0.002319,0.001404,0.493516,-0.000732,-0.001221,-0.000244,0,0,0,0
9.838506,1.718750,-0.058594,0.007812,0.000000,0.000000,-0.029850,-0.002319,0.001404,0.493516,-0.001221,0.001221,0.003174,0,0,0,0
9.848272,1.718750,-0.058594,0.007812,0.000000,0.000000,-0.028742,-0.002319,0.001404,0.493516,0.002441,-0.000732,0.001465,0,0,0,0
9.858038,1.718750,-0.058594,0.007812,0.000000,0.000000,-0.029228,-0.002319,0.001404,0.493516,0.000732,0.001221,-0.000732,0,0,0,0
9.867803,1.718750,-0.058594,0.007812,0.000000,0.000000,-0.029970,-0.002319,0.001404,0.493516,0.000732,-0.001709,0.000488,0,0,0,0
9.877569,1.718750,-0.058594,0.007812,0.000000,0.000000,-0.030651,-0.002319,0.001404,0.493516,-0.003418,-0.000244,-0.001221,0,0,0,0
9.887334,1.718750,-0.058594,0.007812,0.000000,0.000000,-0.029518,-0.002319,0.001404,0.493462,-0.001221,0.001709,0.000488,0,0,0,0
9.897099,1.718750,-0.058594,0.007812,0.000000,0.000000,-0.030008,-0.002319,0.001404,0.493462,0.001465,-0.000732,-0.001709,0,0,0,0
9.906867,1.718750,-0.058594,0.007812,0.000000,0.000000,-0.030457,-0.002319,0.001404,0.493462,-0.003906,-0.000244,-0.000732,0,0,0,0
9.916638,1.718750,-0.058594,0.007812,0.000000,0.000000,-0.028797,-0.002319,0.001404,0.493462,0.002441,-0.000732,-0.000244,0,0,0,0
9.926396,1.718750,-0.058594,0.007812,0.000000,0.000000,-0.028923,-0.002319,0.001404,0.493462,-0.002930,0.002441,0.000977,0,0,0,0
9.936162,1.718750,-0.058594,0.007812,0.000000,0.000000,-0.029762,-0.002319,0.001404,0.493462,0.000732,-0.000244,0.001465,0,0,0,0
9.945930,1.718750,-0.058594,0.007812,0.000000,0.000000,-0.030085,-0.002319,0.001404,0.493462,-0.002930,-0.000244,-0.001221,0,0,0,0
9.955693,1.718750,-0.058594,0.007812,0.000000,0.000000,-0.028715,-0.002319,0.001404,0.493462,-0.002441,-0.000732,0.000488,0,0,0,0
9.965460,1.718750,-0.058594,0.007812,0.000000,0.000000,-0.029352,-0.002319,0.001404,0.493462,-0.001709,0.000244,-0.002197,0,0,0,0
9.975225,1.718750,-0.058594,0.007812,0.000000,0.000000,-0.030012,-0.002319,0.001404,0.493462,0.002441,0.002441,0.002441,0,0,0,0
9.984996,1.718750,-0.058594,0.007812,0.000000,0.000000,-0.028519,-0.002319,0.001404,0.493462,-0.000244,-0.000244,-0.001709,0,0,0,0
9.994756,1.718750,-0.058594,0.007812,0.000000,0.000000,-0.027676,-0.002319,0.001404,0.493462,-0.001221,-0.000244,-0.000732,0,0,0,0
10.004521,1.718750,-0.058594,0.007812,0.000000,0.000000,-0.028502,-0.002319,0.001404,0.493462,-0.000732,-0.001709,-0.000244,0,0,0,0
10.014287,1.718750,-0.058594,0.007812,0.000000,0.000000,-0.029411,-0.002319,0.001404,0.493462,-0.001709,-0.002197,0.000977,0,0,0,0
10.024054,1.718750,-0.058594,0.007812,0.000000,0.000000,-0.028156,-0.002319,0.001404,0.493462,-0.000244,-0.000732,0.000488,0,0,0,0
10.033819,1.718750,-0.058594,0.007812,0.000000,0.000000,-0.028284,-0.002319,0.001404,0.493462,-0.000732,-0.001221,0.000977,0,0,0,0
10.043584,1.718750,-0.058594,0.007812,0.000000,0.000000,-0.029005,-0.002319,0.001404,0.493462,0.000732,0.002441,0.001465,0,0,0,0
10.053349,1.718750,-0.058594,0.007812,0.000000,0.000000,-0.027775,-0.002319,0.001404,0.493462,0.000732,0.001221,0.000977,0,0,0,0
10.063116,1.718750,-0.058594,0.007812,0.000000,0.000000,-0.028637,-0.002319,0.001404,0.493462,0.001465,-0.000732,0.001953,0,0,0,0
10.072884,1.718750,-0.058594,0.007812,0.000000,0.000000,-0.028692,-0.002319,0.001404,0.493462,-0.000732,0.000244,0.001465,0,0,0,0
10.082649,1.718750,-0.058594,0.007812,0.000000,0.000000,-0.029514,-0.002319,0.001404,0.493462,0.000732,0.003418,0.003174,0,0,0,0
10.092413,1.718750,-0.058594,0.007812,0.000000,0.000000,-0.028101,-0.002319,0.001404,0.493462,0.002441,0.000732,-0.001709,0,0,0,0
10.102179,1.718750,-0.058594,0.007812,0.000000,0.000000,-0.028885,-0.002319,0.001404,0.493462,0.002930,0.000732,-0.000732,0,0,0,0
10.111945,1.718750,-0.058594,0.007812,0.000000,0.000000,-0.029922,-0.002319,0.001404,0.493462,-0.001221,0.002930,-0.000244,0,0,0,0
10.121709,1.718750,-0.058594,0.007812,0.000000,0.000000,-0.028372,-0.002319,0.001404,0.493462,0.001953,-0.000244,0.000488,0,0,0,0
10.131475,1.718750,-0.058594,0.007812,0.000000,0.000000,-0.028379,-0.002319,0.001404,0.493462,-0.000244,-0.000732,0.000488,0,0,0,0
10.141241,1.718750,-0.058594,0.007812,0.000000,0.000000,-0.029142,-0.002319,0.001404,0.493462,0.002441,0.001709,-0.000244,0,0,0,0
10.151011,1.718750,-0.058594,0.007812,0.000000,0.000000,-0.029480,-0.002319,0.001404,0.493462,-0.000244,-0.001709,-0.002686,0,0,0,0
10.160772,1.718750,-0.058594,0.007812,0.000000,0.000000,-0.028082,-0.002319,0.001404,0.493462,-0.001221,0.002441,0.000977,0,0,0,0
10.170537,1.718750,-0.058594,0.007812,0.000000,0.000000,-0.028757,-0.002319,0.001404,0.493462,-0.001221,-0.001709,0.001953,0,0,0,0
10.180307,1.718750,-0.058594,0.007812,0.000000,0.000000,-0.029312,-0.002197,0.001221,0.493408,0.000244,-0.000244,0.001953,0,0,0,0
10.190069,1.718750,-0.058594,0.007812,0.000000,0.000000,-0.027880,-0.002319,0.001404,0.493462,-0.000732,0.000244,0.000488,0,0,0,0
10.199835,1.718750,-0.058594,0.007812,0.000000,0.000000,-0.028349,-0.002319,0.001404,0.493462,0.001953,0.000244,-0.000732,0,0,0,0
10.209600,1.718750,-0.058594,0.007812,0.000000,0.000000,-0.029127,-0.002319,0.001404,0.493462,-0.001221,0.002930,0.001465,0,0,0,0
10.219365,1.718750,-0.058594,0.007812,0.000000,0.000000,-0.028360,-0.002319,0.001404,0.493462,-0.001221,0.000732,0.001953,0,0,0,0
10.229132,1.718750,-0.058594,0.007812,0.000000,0.000000,-0.029232,-0.002319,0.001404,0.493462,-0.000244,-0.000244,0.001465,0,0,0,0
10.238897,1.718750,-0.058594,0.007812,0.000000,0.000000,-0.029865,-0.002319,0.001404,0.493462,-0.000244,0.000732,0.001465,0,0,0,0
10.248662,1.718750,-0.058594,0.007812,0.000000,0.000000,-0.030468,-0.002319,0.001404,0.493462,-0.000244,-0.000244,-0.002197,0,0,0,0
10.258428,1.718750,-0.058594,0.007812,0.000000,0.000000,-0.029114,-0.002319,0.001404,0.493462,0.000244,-0.002686,-0.001709,0,0,0,0
10.268194,1.718750,-0.058594,0.007812,0.000000,0.000000,-0.029871,-0.002319,0.001404,0.493462,-0.002930,0.001221,-0.000732,0,0,0,0
10.277963,1.718750,-0.058594,0.007812,0.000000,0.000000,-0.030365,-0.002319,0.001404,0.493462,0.002441,0.001221,0.000488,0,0,0,0
10.287724,1.718750,-0.058594,0.007812,0.000000,0.000000,-0.028847,-0.002319,0.001404,0.493462,-0.001709,0.000244,-0.001221,0,0,0,0
10.297490,1.718750,-0.058594,0.007812,0.000000,0.000000,-0.029430,-0.002319,0.001404,0.493462,-0.000732,-0.000244,-0.001221,0,0,0,0
10.307258,1.718750,-0.058594,0.007812,0.000000,0.000000,-0.030804,-0.002319,0.001404,0.493462,-0.000244,0.001221,-0.000732,0,0,0,0
10.317021,1.718750,-0.058594,0.007812,0.000000,0.000000,-0.031170,-0.002319,0.001404,0.493462,-0.002441,0.000244,-0.001709,0,0,0,0
10.326786,1.718750,-0.058594,0.007812,0.000000,0.000000,-0.029434,-0.002319,0.001404,0.493462,-0.001221,0.000244,-0.001221,0,0,0,0
10.336553,1.718750,-0.058594,0.007812,0.000000,0.000000,-0.030390,-0.002319,0.001404,0.493462,0.000244,-0.000244,0.000488,0,0,0,0
10.346320,1.718750,-0.058594,0.007812,0.000000,0.000000,-0.031036,-0.002258,0.001404,0.493462,0.001465,-0.001221,0.000488,0,0,0,0
10.356085,1.718750,-0.058594,0.007812,0.000000,0.000000,-0.029568,-0.002258,0.001404,0.493462,-0.000244,0.000732,-0.000732,0,0,0,0
10.365849,1.718750,-0.058594,0.007812,0.000000,0.000000,-0.030054,-0.002258,0.001404,0.493462,-0.002930,-0.000732,-0.001221,0,0,0,0
10.375615,1.718750,-0.058594,0.007812,0.000000,0.000000,-0.030672,-0.002258,0.001404,0.493462,0.001465,0.001221,-0.000732,0,0,0,0
10.385387,1.718750,-0.058594,0.007812,0.000000,0.000000,-0.029305,-0.002258,0.001404,0.493462,-0.000732,0.000244,0.000488,0,0,0,0
10.395146,1.718750,-0.058594,0.007812,0.000000,0.000000,-0.029770,-0.002258,0.001404,0.493462,-0.002930,-0.001709,0.001465,0,0,0,0
10.404913,1.718750,-0.058594,0.007812,0.000000,0.000000,-0.030678,-0.002259,0.001404,0.493408,-0.000732,-0.001221,-0.001709,0,0,0,0
10.414678,1.718750,-0.058594,0.007812,0.000000,0.000000,-0.031267,-0.002259,0.001404,0.493408,0.002441,-0.000244,-0.002197,0,0,0,0
10.424444,1.718750,-0.058594,0.007812,0.000000,0.000000,-0.029886,-0.002259,0.001404,0.493408,0.000244,0.000244,-0.003418,0,0,0,0
10.434210,1.718750,-0.058594,0.007812,0.000000,0.000000,-0.030567,-0.002259,0.001404,0.493408,-0.003906,-0.000244,0.000977,0,0,0,0
10.443975,1.718750,-0.058594,0.007812,0.000000,0.000000,-0.031366,-0.002259,0.001404,0.493408,-0.002441,-0.000244,-0.001709,0,0,0,0
10.453741,1.718750,-0.058594,0.007812,0.000000,0.000000,-0.029903,-0.002259,0.001404,0.493408,-0.001221,0.000732,-0.001221,0,0,0,0
10.463506,1.718750,-0.058594,0.007812,0.000000,0.000000,-0.031168,-0.002259,0.001404,0.493408,0.001465,-0.000732,-0.000732,0,0,0,0
10.473272,1.718750,-0.058594,0.007812,0.000000,0.000000,-0.031994,-0.002259,0.001404,0.493408,-0.000732,0.000244,-0.001221,0,0,0,0
10.483041,1.718750,-0.058594,0.007812,0.000000,0.000000,-0.032368,-0.002259,0.001404,0.493408,0.003418,0.000732,-0.000732,0,0,0,0
10.492802,1.718750,-0.058594,0.007812,0.000000,0.000000,-0.030096,-0.002259,0.001404,0.493408,0.000732,0.000732,0.004150,0,0,0,0
10.502569,1.718750,-0.058594,0.007812,0.000000,0.000000,-0.030779,-0.002259,0.001404,0.493408,-0.002441,-0.000244,-0.001709,0,0,0,0
10.512334,1.718750,-0.058594,0.007812,0.000000,0.000000,-0.031450,-0.002259,0.001404,0.493408,-0.001221,-0.002197,-0.000732,0,0,0,0
10.522099,1.718750,-0.058594,0.007812,0.000000,0.000000,-0.029709,-0.002259,0.001404,0.493408,0.000244,0.000244,0.000488,0,0,0,0
10.531866,1.718750,-0.058594,0.007812,0.000000,0.000000,-0.030247,-0.002259,0.001404,0.493408,0.002441,-0.000244,-0.000732,0,0,0,0
10.541631,1.718750,-0.058594,0.007812,0.000000,0.000000,-0.031363,-0.002259,0.001404,0.493408,0.003418,-0.002197,-0.001221,0,0,0,0
10.551402,1.718750,-0.058594,0.003906,0.000000,0.000000,-0.031872,-0.002197,0.001221,0.493164,0.002441,0.000732,-0.000244,0,0,0,0
10.561162,1.718750,-0.058594,0.007812,0.000000,0.000000,-0.029560,-0.002198,0.001343,0.493408,-0.000732,-0.002197,-0.000732,0,0,0,0
10.570927,1.718750,-0.058594,0.007812,0.000000,0.000000,-0.030407,-0.002198,0.001343,0.493408,-0.003906,-0.000244,-0.002197,0,0,0,0
10.580694,1.718750,-0.058594,0.007812,0.000000,0.000000,-0.030748,-0.002198,0.001343,0.493408,-0.002441,0.001709,0.001465,0,0,0,0
10.590459,1.718750,-0.058594,0.007812,0.000000,0.000000,-0.028648,-0.002198,0.001343,0.493408,-0.000244,-0.002686,-0.000244,0,0,0,0
10.600224,1.718750,-0.058594,0.007812,0.000000,0.000000,-0.029299,-0.002198,0.001343,0.493408,-0.000244,0.000244,-0.000244,0,0,0,0
10.609990,1.718750,-0.058594,0.007812,0.000000,0.000000,-0.029943,-0.002198,0.001343,0.493408,0.001953,0.000244,0.003662,0,0,0,0
10.619757,1.718750,-0.058594,0.007812,0.000000,0.000000,-0.028803,-0.002198,0.001343,0.493408,0.000244,0.001221,-0.000732,0,0,0,0
10.629522,1.718750,-0.058594,0.007812,0.000000,0.000000,-0.029554,-0.002198,0.001343,0.493408,-0.001221,0.000244,-0.000732,0,0,0,0
10.639287,1.718750,-0.058594,0.007812,0.000000,0.000000,-0.030149,-0.002198,0.001343,0.493408,-0.001221,0.000732,0.001465,0,0,0,0
10.649056,1.718750,-0.058594,0.007812,0.000000,0.000000,-0.030933,-0.002198,0.001343,0.493408,0.002441,0.000732,0.001953,0,0,0,0
10.658820,1.718750,-0.058594,0.007812,0.000000,0.000000,-0.028694,-0.002198,0.001343,0.493408,-0.001221,0.000732,0.000488,0,0,0,0
10.668586,1.718750,-0.058594,0.007812,0.000000,0.000000,-0.029018,-0.002198,0.001343,0.493408,0.002441,-0.000732,-0.001221,0,0,0,0
10.678352,1.718750,-0.058594,0.007812,0.000000,0.000000,-0.029335,-0.002198,0.001343,0.493408,0.000244,0.000732,0.000977,0,0,0,0
10.688116,1.718750,-0.058594,0.007812,0.000000,0.000000,-0.027872,-0.002198,0.001343,0.493408,-0.000244,-0.000732,0.001953,0,0,0,0
10.697881,1.718750,-0.058594,0.007812,0.000000,0.000000,-0.029890,-0.002198,0.001343,0.493408,-0.001221,-0.000244,0.000488,0,0,0,0
10.707648,1.718750,-0.058594,0.003906,0.000000,0.000000,-0.030720,-0.002198,0.001343,0.493408,0.002441,-0.001709,0.000488,0,0,0,0
10.717414,1.718750,-0.058594,0.003906,0.000000,0.000000,-0.031292,-0.002259,0.001282,0.493408,0.000488,-0.001221,-0.000244,0,0,0,0
10.727177,1.718750,-0.058594,0.007812,0.000000,0.000000,-0.029152,-0.002259,0.001282,0.493408,-0.000488,0.001709,0.002441,0,0,0,0
10.736943,1.718750,-0.058594,0.007812,0.000000,0.000000,-0.029663,-0.002259,0.001282,0.493408,0.000488,-0.001221,0.000977,0,0,0,0
10.746708,1.718750,-0.058594,0.007812,0.000000,0.000000,-0.030714,-0.002259,0.001282,0.493408,0.000488,-0.000244,-0.001221,0,0,0,0
10.756475,1.718750,-0.058594,0.007812,0.000000,0.000000,-0.028841,-0.002259,0.001282,0.493408,0.000488,0.000732,-0.000732,0,0,0,0
10.766240,1.718750,-0.058594,0.007812,0.000000,0.000000,-0.029734,-0.002259,0.001282,0.493408,-0.004639,0.000244,0.000977,0,0,0,0
10.776006,1.718750,-0.058594,0.007812,0.000000,0.000000,-0.029800,-0.002259,0.001282,0.493408,0.001221,-0.000732,0.000488,0,0,0,0
10.785781,1.718750,-0.058594,0.007812,0.000000,0.000000,-0.028030,-0.002259,0.001282,0.493408,0.002686,0.001221,0.000488,0,0,0,0
10.795536,1.718750,-0.058594,0.007812,0.000000,0.000000,-0.028778,-0.002259,0.001282,0.493408,0.000488,-0.000732,0.000488,0,0,0,0
10.805303,1.718750,-0.058594,0.007812,0.000000,0.000000,-0.029579,-0.002259,0.001282,0.493408,0.001221,-0.000244,-0.000732,0,0,0,0
10.815068,1.718750,-0.058594,0.007812,0.000000,0.000000,-0.029993,-0.002259,0.001282,0.493408,0.001709,0.000244,-0.000732,0,0,0,0
10.824834,1.718750,-0.058594,0.007812,0.000000,0.000000,-0.028255,-0.002198,0.001282,0.493408,0.001709,0.000244,0.000977,0,0,0,0
10.834599,1.718750,-0.058594,0.007812,0.000000,0.000000,-0.028868,-0.002198,0.001282,0.493408,-0.000488,0.000244,-0.000244,0,0,0,0
10.844365,1.718750,-0.058594,0.007812,0.000000,0.000000,-0.029602,-0.002198,0.001282,0.493408,-0.001953,-0.000244,0.001465,0,0,0,0
10.854134,1.718750,-0.058594,0.007812,0.000000,0.000000,-0.027742,-0.001953,0.001221,0.493164,-0.000977,0.000732,0.000488,0,0,0,0
10.863897,1.718750,-0.058594,0.007812,0.000000,0.000000,-0.028128,-0.002198,0.001282,0.493408,0.002197,0.000244,-0.001221,0,0,0,0
10.873662,1.718750,-0.058594,0.007812,0.000000,0.000000,-0.028629,-0.002198,0.001282,0.493408,-0.000488,-0.001221,-0.002197,0,0,0,0
10.884412,1.718750,-0.058594,0.007812,0.000000,0.000000,-0.029507,-0.002198,0.001282,0.493408,0.000488,0.000732,-0.000732,0,0,0,0
10.893193,1.718750,-0.058594,0.007812,0.000000,0.000000,-0.028254,-0.002198,0.001282,0.493408,0.000488,0.001709,0.000977,0,0,0,0
10.902960,1.718750,-0.058594,0.007812,0.000000,0.000000,-0.028919,-0.002198,0.001282,0.493408,0.002686,0.002441,0.000488,0,0,0,0
10.912724,1.718750,-0.058594,0.007812,0.000000,0.000000,-0.029524,-0.002198,0.001282,0.493408,0.001709,0.002441,-0.001221,0,0,0,0
10.922490,1.718750,-0.058594,0.007812,0.000000,0.000000,-0.027924,-0.002198,0.001282,0.493408,-0.002686,-0.000732,0.001465,0,0,0,0
10.932256,1.718750,-0.058594,0.007812,0.000000,0.000000,-0.028883,-0.002198,0.001282,0.493408,-0.002686,-0.000244,0.000977,0,0,0,0
10.942021,1.718750,-0.058594,0.007812,0.000000,0.000000,-0.029518,-0.002198,0.001282,0.493408,-0.000977,0.000732,-0.001221,0,0,0,0
10.951791,1.718750,-0.058594,0.007812,0.000000,0.000000,-0.029980,-0.002198,0.001282,0.493408,-0.001465,-0.000732,-0.000244,0,0,0,0
10.961552,1.718750,-0.058594,0.007812,0.000000,0.000000,-0.028778,-0.002198,0.001282,0.493408,0.000000,0.001221,0.001465,0,0,0,0
10.971319,1.718750,-0.058594,0.007812,0.000000,0.000000,-0.029280,-0.002198,0.001282,0.493408,-0.000488,-0.000244,0.001465,0,0,0,0
10.981084,1.718750,-0.058594,0.007812,0.000000,0.000000,-0.029589,-0.002198,0.001282,0.493408,-0.000977,-0.000244,0.000977,0,0,0,0
10.990849,1.718750,-0.058594,0.007812,0.000000,0.000000,-0.028353,-0.002198,0.001282,0.493408,-0.001953,0.001709,-0.002197,0,0,0,0
11.000615,1.718750,-0.058594,0.007812,0.000000,0.000000,-0.029480,-0.002198,0.001282,0.493408,-0.001465,0.003418,0.001953,0,0,0,0
11.010381,1.718750,-0.058594,0.003906,0.000000,0.000000,-0.031826,-0.002198,0.001282,0.493408,0.000000,0.000732,0.001465,0,0,0,0
11.020149,1.718750,-0.058594,0.007812,0.000000,0.000000,-0.029720,-0.002198,0.001282,0.493408,0.001221,0.001709,-0.001221,0,0,0,0
11.029912,1.718750,-0.058594,0.007812,0.000000,0.000000,-0.030033,-0.002198,0.001282,0.493408,-0.000488,0.000244,-0.001221,0,0,0,0
11.039678,1.718750,-0.058594,0.007812,0.000000,0.000000,-0.030485,-0.002198,0.001282,0.493408,-0.001465,0.002930,0.000488,0,0,0,0
11.049445,1.718750,-0.058594,0.003906,0.000000,0.000000,-0.031460,-0.002198,0.001282,0.493408,0.001709,0.001709,-0.001709,0,0,0,0
11.059209,1.718750,-0.058594,0.007812,0.000000,0.000000,-0.029438,-0.002198,0.001282,0.493408,-0.001953,0.002441,0.000977,0,0,0,0
11.068974,1.718750,-0.058594,0.007812,0.000000,0.000000,-0.030100,-0.002198,0.001282,0.493408,-0.002686,-0.000244,0.000488,0,0,0,0
11.078741,1.718750,-0.058594,0.007812,0.000000,0.000000,-0.030540,-0.002198,0.001282,0.493408,-0.004150,-0.000244,0.001465,0,0,0,0
11.088506,1.718750,-0.058594,0.007812,0.000000,0.000000,-0.028959,-0.002198,0.001282,0.493408,0.001709,0.000732,0.000488,0,0,0,0
11.098272,1.718750,-0.058594,0.007812,0.000000,0.000000,-0.029707,-0.002198,0.001282,0.493408,0.002197,0.000244,0.001953,0,0,0,0
11.108037,1.718750,-0.058594,0.007812,0.000000,0.000000,-0.030148,-0.002198,0.001282,0.493408,-0.000488,0.000244,0.001953,0,0,0,0
11.117805,1.718750,-0.058594,0.007812,0.000000,0.000000,-0.030846,-0.002198,0.001282,0.493408,-0.000488,-0.001709,-0.000732,0,0,0,0
11.127568,1.718750,-0.058594,0.007812,0.000000,0.000000,-0.028704,-0.002198,0.001282,0.493408,0.000488,-0.000244,0.000977,0,0,0,0
11.137333,1.718750,-0.058594,0.007812,0.000000,0.000000,-0.029276,-0.002198,0.001282,0.493408,0.001221,-0.001709,0.001953,0,0,0,0
11.147098,1.718750,-0.058594,0.007812,0.000000,0.000000,-0.029894,-0.002198,0.001282,0.493408,-0.004150,-0.001221,0.000488,0,0,0,0
11.156868,1.718750,-0.058594,0.007812,0.000000,0.000000,-0.028217,-0.002198,0.001282,0.493408,-0.001465,0.000244,-0.001221,0,0,0,0
11.166630,1.718750,-0.058594,0.003906,0.000000,0.000000,-0.030687,-0.002198,0.001282,0.493408,0.001221,0.001221,0.001465,0,0,0,0
11.176397,1.718750,-0.058594,0.003906,0.000000,0.000000,-0.031685,-0.002198,0.001282,0.493408,0.003174,0.002441,0.001465,0,0,0,0
11.186168,1.718750,-0.058594,0.007812,0.000000,0.000000,-0.029554,-0.002198,0.001282,0.493408,0.002197,0.001221,0.000488,0,0,0,0
11.195928,1.718750,-0.058594,0.007812,0.000000,0.000000,-0.030491,-0.002198,0.001282,0.493408,0.000488,-0.000732,0.000977,0,0,0,0
11.205692,1.718750,-0.058594,0.007812,0.000000,0.000000,-0.031126,-0.002198,0.001282,0.493408,0.000000,-0.000732,-0.000244,0,0,0,0
11.215459,1.718750,-0.058594,0.003906,0.000000,0.000000,-0.031801,-0.002198,0.001282,0.493408,-0.000977,-0.001709,0.000488,0,0,0,0
11.225227,1.718750,-0.058594,0.007812,0.000000,0.000000,-0.029921,-0.002198,0.001282,0.493408,0.000488,0.001221,0.000488,0,0,0,0
11.234989,1.718750,-0.058594,0.007812,0.000000,0.000000,-0.030661,-0.002198,0.001282,0.493408,0.001221,-0.000244,0.001953,0,0,0,0
11.244756,1.718750,-0.058594,0.003906,0.000000,0.000000,-0.032333,-0.002198,0.001282,0.493408,0.002686,-0.000732,-0.000244,0,0,0,0
11.254521,1.718750,-0.058594,0.007812,0.000000,0.000000,-0.030260,-0.002198,0.001282,0.493408,0.000488,-0.000244,-0.000732,0,0,0,0
11.264286,1.718750,-0.058594,0.007812,0.000000,0.000000,-0.030954,-0.002198,0.001282,0.493408,0.001709,0.001221,-0.000732,0,0,0,0
11.274052,1.718750,-0.058594,0.007812,0.000000,0.000000,-0.031397,-0.002198,0.001282,0.493408,-0.000977,0.000732,-0.002197,0,0,0,0
11.283819,1.718750,-0.058594,0.003906,0.000000,0.000000,-0.032227,-0.002197,0.001282,0.493462,0.001221,-0.000244,-0.000244,0,0,0,0
11.293583,1.718750,-0.058594,0.007812,0.000000,0.000000,-0.030252,-0.002197,0.001282,0.493462,0.000000,-0.001709,0.000977,0,0,0,0
11.303350,1.718750,-0.058594,0.007812,0.000000,0.000000,-0.030863,-0.002197,0.001282,0.493462,0.000000,0.000732,-0.000244,0,0,0,0
11.313115,1.718750,-0.058594,0.007812,0.000000,0.000000,-0.031237,-0.002197,0.001282,0.493462,0.000488,-0.000732,0.001953,0,0,0,0
11.322881,1.718750,-0.058594,0.007812,0.000000,0.000000,-0.030182,-0.002197,0.001282,0.493462,0.000000,0.000244,0.001953,0,0,0,0
11.332646,1.718750,-0.058594,0.007812,0.000000,0.000000,-0.030979,-0.002197,0.001282,0.493462,0.001221,-0.000244,0.001953,0,0,0,0
11.342411,1.718750,-0.058594,0.003906,0.000000,0.000000,-0.031569,-0.002197,0.001282,0.493462,0.000000,0.000732,-0.000244,0,0,0,0
11.352178,1.718750,-0.058594,0.007812,0.000000,0.000000,-0.029402,-0.002197,0.001282,0.493462,0.001709,-0.001221,-0.000244,0,0,0,0
11.361944,1.718750,-0.058594,0.007812,0.000000,0.000000,-0.029919,-0.002197,0.001282,0.493462,0.000488,0.000732,0.001953,0,0,0,0
11.371708,1.718750,-0.058594,0.007812,0.000000,0.000000,-0.030386,-0.002197,0.001282,0.493462,0.001709,0.000732,-0.001221,0,0,0,0
11.381475,1.718750,-0.058594,0.003906,0.000000,0.000000,-0.030924,-0.002197,0.001282,0.493462,-0.000488,0.000244,-0.000244,0,0,0,0
11.391240,1.718750,-0.058594,0.007812,0.000000,0.000000,-0.028820,-0.002197,0.001282,0.493462,0.001221,-0.001221,0.000977,0,0,0,0
11.401008,1.718750,-0.058594,0.007812,0.000000,0.000000,-0.029957,-0.002197,0.001282,0.493462,0.001221,-0.000732,0.000977,0,0,0,0
11.410772,1.718750,-0.058594,0.003906,0.000000,0.000000,-0.030764,-0.002197,0.001282,0.493462,0.000488,0.001709,-0.000244,0,0,0,0
11.420537,1.718750,-0.058594,0.007812,0.000000,0.000000,-0.028812,-0.002258,0.001282,0.493462,0.002686,0.003906,0.000977,0,0,0,0
11.430307,1.718750,-0.058594,0.007812,0.000000,0.000000,-0.029497,-0.002258,0.001282,0.493462,-0.000488,-0.000244,-0.000244,0,0,0,0
11.440068,1.718750,-0.058594,0.007812,0.000000,0.000000,-0.030273,-0.002258,0.001282,0.493462,-0.001953,-0.000244,0.000488,0,0,0,0
11.449837,1.718750,-0.058594,0.003906,0.000000,0.000000,-0.030798,-0.002258,0.001282,0.493462,0.001221,-0.000732,-0.000732,0,0,0,0
11.459600,1.718750,-0.058594,0.007812,0.000000,0.000000,-0.028753,-0.002258,0.001282,0.493462,0.000488,-0.001221,0.000977,0,0,0,0
11.469365,1.718750,-0.058594,0.007812,0.000000,0.000000,-0.029173,-0.002258,0.001282,0.493462,0.001221,0.000732,-0.001221,0,0,0,0
11.479131,1.718750,-0.058594,0.003906,0.000000,0.000000,-0.030434,-0.002258,0.001282,0.493462,0.000000,-0.000732,-0.000244,0,0,0,0
11.488896,1.718750,-0.058594,0.007812,0.000000,0.000000,-0.028082,-0.002258,0.001282,0.493462,0.000488,-0.001709,0.000977,0,0,0,0
11.498668,1.718750,-0.058594,0.007812,0.000000,0.000000,-0.028688,-0.002258,0.001282,0.493462,-0.002686,0.000244,0.004150,0,0,0,0
11.508427,1.718750,-0.058594,0.007812,0.000000,0.000000,-0.028923,-0.002258,0.001282,0.493462,-0.003174,0.000732,-0.001221,0,0,0,0
11.518196,1.718750,-0.058594,0.007812,0.000000,0.000000,-0.029449,-0.002258,0.001282,0.493462,0.003174,-0.000244,0.000488,0,0,0,0
11.527972,1.718750,-0.058594,0.007812,0.000000,0.000000,-0.027103,-0.002197,0.001221,0.493408,-0.001465,-0.000732,0.001465,0,0,0,0
11.537724,1.718750,-0.058594,0.007812,0.000000,0.000000,-0.027840,-0.002258,0.001282,0.493462,0.001221,-0.000244,0.000488,0,0,0,0
11.547490,1.718750,-0.058594,0.007812,0.000000,0.000000,-0.028898,-0.002258,0.001282,0.493462,-0.001465,-0.001709,-0.002197,0,0,0,0
11.557260,1.718750,-0.058594,0.007812,0.000000,0.000000,-0.026386,-0.002258,0.001282,0.493462,-0.001953,0.001709,-0.000732,0,0,0,0
11.567021,1.718750,-0.058594,0.007812,0.000000,0.000000,-0.026773,-0.002258,0.001282,0.493462,0.000488,-0.001709,0.001465,0,0,0,0
11.576786,1.718750,-0.058594,0.007812,0.000000,0.000000,-0.027319,-0.002258,0.001282,0.493462,0.001221,0.000244,0.002441,0,0,0,0
11.586559,1.718750,-0.058594,0.007812,0.000000,0.000000,-0.025595,-0.002258,0.001282,0.493462,-0.001465,-0.000732,-0.000244,0,0,0,0
11.596319,1.718750,-0.058594,0.007812,0.000000,0.000000,-0.025928,-0.002258,0.001282,0.493462,0.000000,0.001709,0.000488,0,0,0,0
11.606083,1.718750,-0.058594,0.007812,0.000000,0.000000,-0.026611,-0.002258,0.001282,0.493462,-0.000488,0.000732,-0.002686,0,0,0,0
11.615851,1.718750,-0.058594,0.007812,0.000000,0.000000,-0.027559,-0.002258,0.001282,0.493462,-0.003662,0.000732,-0.000244,0,0,0,0
11.625615,1.718750,-0.058594,0.007812,0.000000,0.000000,-0.025805,-0.002258,0.001282,0.493462,-0.004150,-0.002686,-0.001221,0,0,0,0
11.635382,1.718750,-0.058594,0.007812,0.000000,0.000000,-0.025877,-0.002258,0.001282,0.493462,0.002686,-0.000732,-0.001221,0,0,0,0
11.645146,1.718750,-0.058594,0.007812,0.000000,0.000000,-0.026262,-0.002258,0.001282,0.493462,0.000488,0.000244,0.001953,0,0,0,0
11.654912,1.718750,-0.058594,0.007812,0.000000,0.000000,-0.024567,-0.002258,0.001282,0.493462,-0.000977,-0.001221,-0.000732,0,0,0,0
11.664677,1.718750,-0.058594,0.007812,0.000000,0.000000,-0.025421,-0.002258,0.001282,0.493462,0.000488,0.003418,-0.000732,0,0,0,0
11.674443,1.718750,-0.058594,0.007812,0.000000,0.000000,-0.026657,-0.002258,0.001282,0.493462,0.000000,-0.002686,0.001953,0,0,0,0
11.684211,1.718750,-0.058594,0.007812,0.000000,0.000000,-0.027225,-0.002258,0.001282,0.493462,-0.003174,0.000244,0.001465,0,0,0,0
11.693974,1.718750,-0.058594,0.007812,0.000000,0.000000,-0.025839,-0.002258,0.001282,0.493462,0.000488,-0.000244,-0.001221,0,0,0,0
11.703739,1.718750,-0.058594,0.007812,0.000000,0.000000,-0.026302,-0.002258,0.001282,0.493462,0.000488,-0.000244,-0.000732,0,0,0,0
11.713506,1.718750,-0.058594,0.007812,0.000000,0.000000,-0.026007,-0.002258,0.001221,0.493462,-0.003174,-0.001709,-0.001709,0,0,0,0
11.723270,1.718750,-0.058594,0.007812,0.000000,0.000000,-0.024624,-0.002258,0.001221,0.493462,-0.000977,0.002441,-0.000732,0,0,0,0
11.733036,1.718750,-0.058594,0.007812,0.000000,0.000000,-0.025028,-0.002258,0.001221,0.493462,0.001709,-0.000244,-0.000244,0,0,0,0
11.742802,1.718750,-0.058594,0.007812,0.000000,0.000000,-0.025457,-0.002258,0.001221,0.493462,0.000000,-0.000244,-0.000244,0,0,0,0
11.752567,1.718750,-0.058594,0.007812,0.000000,0.000000,-0.024300,-0.002258,0.001221,0.493462,-0.002686,0.001221,-0.000244,0,0,0,0
11.762390,1.718750,-0.058594,0.007812,0.000000,0.000000,-0.024633,-0.002197,0.001221,0.493408,-0.001465,0.000244,-0.001709,0,0,0,0
11.772099,1.718750,-0.058594,0.007812,0.000000,0.000000,-0.025167,-0.002258,0.001221,0.493462,-0.001465,-0.000732,-0.001709,0,0,0,0
11.781865,1.718750,-0.058594,0.007812,0.000000,0.000000,-0.025908,-0.002258,0.001221,0.493462,-0.000488,-0.000244,-0.002197,0,0,0,0
11.791631,1.718750,-0.058594,0.007812,0.000000,0.000000,-0.024042,-0.002258,0.001221,0.493462,0.000000,-0.001709,-0.000732,0,0,0,0
11.801397,1.718750,-0.058594,0.007812,0.000000,0.000000,-0.024830,-0.002258,0.001221,0.493462,0.000000,-0.000732,-0.001221,0,0,0,0
11.811162,1.718750,-0.058594,0.007812,0.000000,0.000000,-0.025326,-0.002258,0.001221,0.493462,-0.000977,-0.000732,0.000488,0,0,0,0
11.820927,1.718750,-0.058594,0.007812,0.000000,0.000000,-0.024307,-0.002258,0.001221,0.493462,0.001221,0.000244,-0.001221,0,0,0,0
11.830693,1.718750,-0.058594,0.007812,0.000000,0.000000,-0.025091,-0.002258,0.001221,0.493462,0.002197,-0.000732,0.003174,0,0,0,0
11.840459,1.718750,-0.058594,0.007812,0.000000,0.000000,-0.025795,-0.002258,0.001221,0.493462,-0.001953,0.001221,-0.000244,0,0,0,0
11.850224,1.718750,-0.058594,0.007812,0.000000,0.000000,-0.026266,-0.002258,0.001221,0.493462,0.001221,-0.001709,0.000977,0,0,0,0
11.859989,1.718750,-0.058594,0.007812,0.000000,0.000000,-0.025297,-0.002258,0.001221,0.493462,0.000000,0.000732,-0.001221,0,0,0,0
11.869756,1.718750,-0.058594,0.007812,0.000000,0.000000,-0.025705,-0.002258,0.001221,0.493462,0.001709,-0.000732,0.000488,0,0,0,0
11.879521,1.718750,-0.058594,0.007812,0.000000,0.000000,-0.026245,-0.002258,0.001221,0.493462,-0.001465,0.000244,-0.000732,0,0,0,0
11.889287,1.718750,-0.058594,0.007812,0.000000,0.000000,-0.025196,-0.002258,0.001221,0.493462,0.000488,-0.001221,-0.002197,0,0,0,0
11.899053,1.718750,-0.058594,0.007812,0.000000,0.000000,-0.025831,-0.002258,0.001221,0.493462,0.000000,-0.000244,0.000488,0,0,0,0
11.908822,1.718750,-0.058594,0.007812,0.000000,0.000000,-0.026361,-0.002258,0.001221,0.493462,-0.002686,0.004883,0.000977,0,0,0,0
11.918587,1.718750,-0.058594,0.007812,0.000000,0.000000,-0.026459,-0.002258,0.001221,0.493462,0.000488,-0.000244,-0.001709,0,0,0,0
11.928356,1.718750,-0.058594,0.007812,0.000000,0.000000,-0.025108,-0.002258,0.001221,0.493462,0.000000,0.000732,0.001465,0,0,0,0
11.938116,1.718750,-0.058594,0.007812,0.000000,0.000000,-0.025434,-0.002258,0.001221,0.493462,0.002197,-0.000732,-0.002197,0,0,0,0
11.947882,1.718750,-0.058594,0.007812,0.000000,0.000000,-0.025341,-0.002258,0.001221,0.493462,0.001221,-0.000244,-0.001221,0,0,0,0
11.957646,1.718750,-0.058594,0.007812,0.000000,0.000000,-0.024433,-0.002258,0.001221,0.493462,0.000000,0.001221,-0.001709,0,0,0,0
11.967414,1.718750,-0.058594,0.007812,0.000000,0.000000,-0.024908,-0.002258,0.001221,0.493462,-0.003662,0.000244,0.001465,0,0,0,0
11.977176,1.718750,-0.058594,0.007812,0.000000,0.000000,-0.024963,-0.002258,0.001221,0.493462,-0.000488,0.000244,0.000488,0,0,0,0
11.986943,1.718750,-0.058594,0.007812,0.000000,0.000000,-0.023462,-0.002258,0.001221,0.493462,0.000488,-0.002197,-0.000244,0,0,0,0
11.996708,1.718750,-0.058594,0.007812,0.000000,0.000000,-0.023863,-0.002258,0.001221,0.493462,-0.001465,0.000732,0.000488,0,0,0,0
12.006474,1.718750,-0.058594,0.007812,0.000000,0.000000,-0.024397,-0.002258,0.001221,0.493462,0.000000,-0.000244,0.001953,0,0,0,0
12.016241,1.718750,-0.058594,0.007812,0.000000,0.000000,-0.024755,-0.002258,0.001221,0.493462,0.000488,0.000732,-0.001221,0,0,0,0
12.026006,1.718750,-0.058594,0.007812,0.000000,0.000000,-0.022842,-0.002258,0.001221,0.493462,0.003174,0.001709,-0.001221,0,0,0,0
12.035771,1.718750,-0.058594,0.007812,0.000000,0.000000,-0.023630,-0.002259,0.001221,0.493408,0.002197,0.000732,-0.000244,0,0,0,0
12.045537,1.718750,-0.058594,0.007812,0.000000,0.000000,-0.024332,-0.002259,0.001221,0.493408,0.002686,-0.001221,-0.000244,0,0,0,0
12.055304,1.718750,-0.058594,0.007812,0.000000,0.000000,-0.023050,-0.002259,0.001221,0.493408,0.001221,0.000244,0.000488,0,0,0,0
12.065067,1.718750,-0.058594,0.007812,0.000000,0.000000,-0.023722,-0.002259,0.001221,0.493408,0.002197,0.001221,0.001465,0,0,0,0
12.074833,1.718750,-0.058594,0.007812,0.000000,0.000000,-0.024229,-0.002259,0.001221,0.493408,0.000000,-0.001709,0.000977,0,0,0,0
12.084602,1.718750,-0.058594,0.007812,0.000000,0.000000,-0.024345,-0.002259,0.001221,0.493408,0.002686,0.000732,-0.001709,0,0,0,0
12.094365,1.718750,-0.058594,0.007812,0.000000,0.000000,-0.023560,-0.002259,0.001221,0.493408,0.001221,0.001221,-0.000244,0,0,0,0
12.104131,1.718750,-0.058594,0.007812,0.000000,0.000000,-0.023838,-0.002259,0.001221,0.493408,0.000000,0.000732,0.003662,0,0,0,0
12.113896,1.718750,-0.058594,0.007812,0.000000,0.000000,-0.024408,-0.002259,0.001221,0.493408,-0.000488,-0.001221,0.001465,0,0,0,0
12.123661,1.718750,-0.058594,0.007812,0.000000,0.000000,-0.023327,-0.002259,0.001221,0.493408,-0.000488,0.000732,-0.000732,0,0,0,0
12.133431,1.718750,-0.058594,0.007812,0.000000,0.000000,-0.023964,-0.002197,0.001221,0.493164,0.001709,0.000244,-0.001709,0,0,0,0
12.143193,1.718750,-0.058594,0.007812,0.000000,0.000000,-0.025213,-0.002259,0.001221,0.493408,-0.001465,-0.000244,0.001465,0,0,0,0
12.152958,1.718750,-0.058594,0.007812,0.000000,0.000000,-0.024229,-0.002259,0.001221,0.493408,-0.001465,0.001221,-0.002686,0,0,0,0
12.162723,1.718750,-0.058594,0.007812,0.000000,0.000000,-0.024441,-0.002259,0.001221,0.493408,-0.002686,0.000244,0.000488,0,0,0,0
12.172492,1.718750,-0.058594,0.007812,0.000000,0.000000,-0.024895,-0.002259,0.001221,0.493408,-0.001465,0.000244,0.001465,0,0,0,0
12.182256,1.718750,-0.058594,0.007812,0.000000,0.000000,-0.026520,-0.002259,0.001221,0.493408,0.000488,0.002930,0.000488,0,0,0,0
12.192022,1.718750,-0.058594,0.007812,0.000000,0.000000,-0.024950,-0.002259,0.001221,0.493408,0.000000,-0.002197,0.001953,0,0,0,0
12.201787,1.718750,-0.058594,0.007812,0.000000,0.000000,-0.025608,-0.002259,0.001221,0.493408,-0.001953,0.001709,0.000977,0,0,0,0
12.211552,1.718750,-0.058594,0.007812,0.000000,0.000000,-0.026178,-0.002259,0.001221,0.493408,-0.002686,0.001221,0.002441,0,0,0,0
12.221317,1.718750,-0.058594,0.007812,0.000000,0.000000,-0.024782,-0.002259,0.001221,0.493408,-0.000488,-0.000244,-0.001221,0,0,0,0
12.231083,1.718750,-0.058594,0.007812,0.000000,0.000000,-0.025438,-0.002259,0.001221,0.493408,-0.000488,0.000244,0.000977,0,0,0,0
12.240848,1.718750,-0.058594,0.007812,0.000000,0.000000,-0.026226,-0.002259,0.001221,0.493408,-0.000488,0.001709,0.000488,0,0,0,0
12.250651,1.718750,-0.058594,0.007812,0.000000,0.000000,-0.026472,-0.002259,0.001221,0.493408,0.000000,0.000732,0.000488,0,0,0,0
12.260381,1.718750,-0.058594,0.007812,0.000000,0.000000,-0.024801,-0.002259,0.001221,0.493408,0.000000,-0.000732,-0.001221,0,0,0,0
12.270146,1.718750,-0.058594,0.007812,0.000000,0.000000,-0.024990,-0.002259,0.001221,0.493408,-0.000977,0.001709,0.000977,0,0,0,0
12.279911,1.718750,-0.058594,0.007812,0.000000,0.000000,-0.025536,-0.002259,0.001221,0.493408,0.000488,-0.001221,0.000977,0,0,0,0
12.289677,1.718750,-0.058594,0.007812,0.000000,0.000000,-0.023901,-0.002259,0.001221,0.493408,-0.000977,0.000244,-0.000732,0,0,0,0
12.299444,1.718750,-0.058594,0.007812,0.000000,0.000000,-0.024729,-0.002259,0.001221,0.493408,0.000488,-0.000244,0.000977,0,0,0,0
12.309209,1.718750,-0.058594,0.007812,0.000000,0.000000,-0.025473,-0.002259,0.001221,0.493408,-0.000488,-0.001709,0.000977,0,0,0,0
12.318974,1.718750,-0.058594,0.007812,0.000000,0.000000,-0.024227,-0.002259,0.001221,0.493408,-0.003174,-0.000244,0.000977,0,0,0,0
12.328744,1.718750,-0.058594,0.007812,0.000000,0.000000,-0.024628,-0.002259,0.001221,0.493408,-0.000977,-0.000732,0.000488,0,0,0,0
12.338505,1.718750,-0.058594,0.007812,0.000000,0.000000,-0.024988,-0.002259,0.001221,0.493408,0.001221,-0.001221,0.001465,0,0,0,0
12.348273,1.718750,-0.058594,0.007812,0.000000,0.000000,-0.025328,-0.002259,0.001221,0.493408,-0.000488,0.001221,-0.001221,0,0,0,0
12.358036,1.718750,-0.058594,0.007812,0.000000,0.000000,-0.024240,-0.002259,0.001221,0.493408,-0.000977,-0.003174,-0.000732,0,0,0,0
12.367803,1.718750,-0.058594,0.007812,0.000000,0.000000,-0.024694,-0.002259,0.001221,0.493408,-0.002686,0.001221,0.001953,0,0,0,0
12.377570,1.718750,-0.058594,0.007812,0.000000,0.000000,-0.025417,-0.002259,0.001221,0.493408,0.000000,0.000732,0.000977,0,0,0,0
12.387333,1.718750,-0.058594,0.007812,0.000000,0.000000,-0.024084,-0.002259,0.001221,0.493408,0.002686,-0.002197,-0.000244,0,0,0,0
12.397098,1.718750,-0.058594,0.007812,0.000000,0.000000,-0.024815,-0.002259,0.001221,0.493408,-0.003174,-0.000244,0.003174,0,0,0,0
