time,pos_x,pos_y,pos_z,vel_x,vel_y,vel_z,att_phi,att_theta,att_psi,rate_p,rate_q,rate_r,cmd_thrust,cmd_roll,cmd_pitch,cmd_yaw
25.552385,-0.878906,-2.179688,0.007812,0.000000,0.000000,-0.011724,0.009035,0.005676,-0.116556,0.000488,-0.000244,-0.000732,0,0,0,0
25.561167,-0.878906,-2.179688,0.007812,0.000000,0.000000,-0.011984,0.009035,0.005676,-0.116556,0.000000,0.001953,-0.002197,0,0,0,0
25.570930,-0.878906,-2.179688,0.007812,0.000000,0.000000,-0.011044,0.009035,0.005676,-0.116556,-0.000488,-0.000244,0.000488,0,0,0,0
25.580696,-0.878906,-2.179688,0.007812,0.000000,0.000000,-0.011456,0.009035,0.005676,-0.116556,0.000000,0.000732,0.002686,0,0,0,0
25.590462,-0.878906,-2.179688,0.007812,0.000000,0.000000,-0.012074,0.009035,0.005676,-0.116556,-0.000488,0.002930,-0.001221,0,0,0,0
25.600227,-0.878906,-2.179688,0.007812,0.000000,0.000000,-0.011221,0.009035,0.005676,-0.116556,0.002197,0.000244,0.003174,0,0,0,0
25.609995,-0.878906,-2.179688,0.007812,0.000000,0.000000,-0.011992,0.009035,0.005676,-0.116556,0.002197,0.001953,0.000000,0,0,0,0
25.619759,-0.878906,-2.179688,0.007812,0.000000,0.000000,-0.013239,0.009035,0.005676,-0.116556,0.000000,0.000732,0.000977,0,0,0,0
25.629528,-0.878906,-2.179688,0.007812,0.000000,0.000000,-0.013245,0.009035,0.005676,-0.116556,0.000488,0.000732,0.000488,0,0,0,0
25.639290,-0.878906,-2.179688,0.007812,0.000000,0.000000,-0.011927,0.009035,0.005676,-0.116556,-0.001221,-0.000732,0.000977,0,0,0,0
25.649055,-0.878906,-2.179688,0.007812,0.000000,0.000000,-0.012457,0.009035,0.005676,-0.116556,0.002197,0.000244,0.000977,0,0,0,0
25.658821,-0.878906,-2.179688,0.007812,0.000000,0.000000,-0.012812,0.009035,0.005676,-0.116556,0.000000,-0.003662,-0.000732,0,0,0,0
25.668589,-0.878906,-2.179688,0.007812,0.000000,0.000000,-0.012060,0.009035,0.005676,-0.116556,-0.000488,0.000732,-0.003174,0,0,0,0
25.678352,-0.878906,-2.179688,0.007812,0.000000,0.000000,-0.012421,0.009035,0.005676,-0.116556,0.000977,0.000244,-0.000732,0,0,0,0
25.688118,-0.878906,-2.179688,0.007812,0.000000,0.000000,-0.012634,0.009035,0.005676,-0.116556,0.000488,0.000244,0.000488,0,0,0,0
25.698881,-0.878906,-2.179688,0.007812,0.000000,0.000000,-0.011566,0.009035,0.005676,-0.116556,-0.002686,0.001221,0.001465,0,0,0,0
25.707649,-0.878906,-2.179688,0.007812,0.000000,0.000000,-0.011768,0.009035,0.005676,-0.116556,-0.000488,0.000244,0.000488,0,0,0,0
25.717417,-0.878906,-2.179688,0.007812,0.000000,0.000000,-0.011951,0.009035,0.005676,-0.116556,0.002686,0.000732,0.002686,0,0,0,0
25.727182,-0.878906,-2.179688,0.007812,0.000000,0.000000,-0.011972,0.009035,0.005676,-0.116556,-0.001221,-0.001709,0.000000,0,0,0,0
25.736950,-0.878906,-2.179688,0.007812,0.000000,0.000000,-0.011206,0.009035,0.005676,-0.116556,0.000000,-0.000732,0.000488,0,0,0,0
25.746714,-0.878906,-2.179688,0.007812,0.000000,0.000000,-0.011179,0.009035,0.005676,-0.116556,0.000000,0.002930,-0.000732,0,0,0,0
25.756479,-0.878906,-2.179688,0.007812,0.000000,0.000000,-0.011330,0.009035,0.005676,-0.116556,0.000977,0.000732,-0.001221,0,0,0,0
25.766243,-0.878906,-2.179688,0.007812,0.000000,0.000000,-0.010605,0.009035,0.005676,-0.116495,-0.001221,0.001953,0.003662,0,0,0,0
25.776009,-0.878906,-2.179688,0.007812,0.000000,0.000000,-0.010576,0.009035,0.005676,-0.116495,0.000000,0.001221,-0.002197,0,0,0,0
25.785774,-0.878906,-2.179688,0.007812,0.000000,0.000000,-0.011093,0.009035,0.005676,-0.116495,-0.001221,0.001953,-0.001709,0,0,0,0
25.795542,-0.878906,-2.179688,0.007812,0.000000,0.000000,-0.011461,0.009035,0.005676,-0.116495,0.001465,-0.000732,0.000977,0,0,0,0
25.805309,-0.878906,-2.179688,0.007812,0.000000,0.000000,-0.010611,0.008789,0.005615,-0.116455,0.000000,0.000732,0.000977,0,0,0,0
25.815071,-0.878906,-2.179688,0.007812,0.000000,0.000000,-0.010736,0.009035,0.005676,-0.116495,0.003174,0.000244,0.001953,0,0,0,0
25.824839,-0.878906,-2.179688,0.007812,0.000000,0.000000,-0.011049,0.009035,0.005676,-0.116495,0.000977,0.001221,0.001465,0,0,0,0
25.834604,-0.878906,-2.179688,0.007812,0.000000,0.000000,-0.010714,0.009035,0.005676,-0.116495,0.000977,-0.000732,-0.001221,0,0,0,0
25.844372,-0.878906,-2.179688,0.007812,0.000000,0.000000,-0.011127,0.009035,0.005676,-0.116495,0.000977,-0.000244,-0.000732,0,0,0,0
25.854134,-0.878906,-2.179688,0.007812,0.000000,0.000000,-0.010944,0.009035,0.005676,-0.116495,0.000488,0.000732,0.000977,0,0,0,0
25.863899,-0.878906,-2.179688,0.007812,0.000000,0.000000,-0.010763,0.009035,0.005676,-0.116495,-0.002686,-0.001221,-0.000732,0,0,0,0
25.873665,-0.878906,-2.179688,0.007812,0.000000,0.000000,-0.011185,0.009035,0.005676,-0.116495,0.000488,0.001953,-0.003174,0,0,0,0
25.883430,-0.878906,-2.179688,0.007812,0.000000,0.000000,-0.011477,0.009035,0.005676,-0.116495,-0.003174,0.001221,-0.001221,0,0,0,0
25.893194,-0.878906,-2.179688,0.007812,0.000000,0.000000,-0.011724,0.009035,0.005676,-0.116495,0.000977,0.002441,-0.001221,0,0,0,0
25.902964,-0.878906,-2.179688,0.007812,0.000000,0.000000,-0.011274,0.009035,0.005676,-0.116495,-0.001709,0.003418,0.000000,0,0,0,0
25.912727,-0.878906,-2.179688,0.007812,0.000000,0.000000,-0.011652,0.009035,0.005676,-0.116495,-0.001709,0.000732,0.000000,0,0,0,0
25.922493,-0.878906,-2.179688,0.007812,0.000000,0.000000,-0.011810,0.009035,0.005676,-0.116495,-0.000488,-0.000732,-0.001709,0,0,0,0
25.932259,-0.878906,-2.179688,0.007812,0.000000,0.000000,-0.009417,0.009035,0.005676,-0.116495,-0.001221,0.002441,-0.001221,0,0,0,0
25.942026,-0.878906,-2.179688,0.007812,0.000000,0.000000,-0.009293,0.009035,0.005676,-0.116495,0.001465,-0.000732,-0.001221,0,0,0,0
25.951790,-0.878906,-2.179688,0.007812,0.000000,0.000000,-0.009520,0.009035,0.005676,-0.116495,-0.000488,0.002930,0.000977,0,0,0,0
25.961557,-0.878906,-2.179688,0.007812,0.000000,0.000000,-0.009447,0.009035,0.005676,-0.116495,0.000000,0.000732,0.000488,0,0,0,0
25.971321,-0.878906,-2.179688,0.007812,0.000000,0.000000,-0.009193,0.009035,0.005676,-0.116495,0.000488,0.000244,0.000000,0,0,0,0
25.981087,-0.878906,-2.179688,0.007812,0.000000,0.000000,-0.009609,0.009035,0.005676,-0.116495,0.002197,-0.000244,0.001953,0,0,0,0
25.990852,-0.878906,-2.179688,0.007812,0.000000,0.000000,-0.009991,0.009035,0.005676,-0.116495,0.001465,-0.000244,0.000488,0,0,0,0
26.000618,-0.878906,-2.179688,0.007812,0.000000,0.000000,-0.009609,0.009096,0.005737,-0.116495,0.001465,-0.000244,-0.001221,0,0,0,0
26.010384,-0.878906,-2.179688,0.007812,0.000000,0.000000,-0.009300,0.009096,0.005737,-0.116495,-0.002197,-0.001221,0.001465,0,0,0,0
26.020149,-0.878906,-2.179688,0.007812,0.000000,0.000000,-0.009094,0.009096,0.005737,-0.116495,0.002197,0.002441,-0.000732,0,0,0,0
26.029919,-0.878906,-2.179688,0.007812,0.000000,0.000000,-0.009138,0.009096,0.005737,-0.116495,-0.001709,0.002441,-0.001709,0,0,0,0
26.039680,-0.878906,-2.179688,0.007812,0.000000,0.000000,-0.008869,0.009096,0.005737,-0.116495,0.001465,0.001221,0.000977,0,0,0,0
26.049446,-0.878906,-2.179688,0.007812,0.000000,0.000000,-0.008789,0.009096,0.005737,-0.116495,-0.001221,-0.000732,0.001953,0,0,0,0
26.059212,-0.878906,-2.179688,0.007812,0.000000,0.000000,-0.008902,0.009096,0.005737,-0.116495,-0.001221,0.002441,0.001953,0,0,0,0
26.068977,-0.878906,-2.179688,0.007812,0.000000,0.000000,-0.008844,0.009096,0.005737,-0.116495,-0.001709,-0.001221,0.003174,0,0,0,0
26.078745,-0.878906,-2.179688,0.007812,0.000000,0.000000,-0.008667,0.009096,0.005737,-0.116495,0.001465,0.000244,0.000488,0,0,0,0
26.088509,-0.878906,-2.179688,0.007812,0.000000,0.000000,-0.008507,0.009096,0.005737,-0.116495,0.000000,0.002441,-0.001221,0,0,0,0
26.098274,-0.878906,-2.179688,0.007812,0.000000,0.000000,-0.007742,0.009096,0.005737,-0.116495,0.000488,0.001953,0.000977,0,0,0,0
26.108044,-0.878906,-2.179688,0.007812,0.000000,0.000000,-0.008034,0.009033,0.005615,-0.116455,-0.001709,-0.001709,0.000977,0,0,0,0
26.117805,-0.878906,-2.179688,0.007812,0.000000,0.000000,-0.008270,0.009096,0.005737,-0.116495,0.000000,-0.000244,0.000000,0,0,0,0
26.127571,-0.878906,-2.179688,0.007812,0.000000,0.000000,-0.008299,0.009096,0.005737,-0.116495,0.001465,-0.000732,0.002686,0,0,0,0
26.137337,-0.878906,-2.179688,0.007812,0.000000,0.000000,-0.008240,0.009096,0.005737,-0.116495,0.000977,-0.000244,0.000000,0,0,0,0
26.147104,-0.878906,-2.179688,0.007812,0.000000,0.000000,-0.008556,0.009096,0.005737,-0.116495,0.000977,0.002930,0.000488,0,0,0,0
26.156870,-0.878906,-2.179688,0.007812,0.000000,0.000000,-0.009007,0.009096,0.005737,-0.116495,-0.000488,0.000244,0.001465,0,0,0,0
26.166634,-0.878906,-2.179688,0.007812,0.000000,0.000000,-0.008266,0.009096,0.005737,-0.116495,0.001465,-0.000244,0.000977,0,0,0,0
26.176399,-0.878906,-2.179688,0.007812,0.000000,0.000000,-0.008276,0.009096,0.005737,-0.116495,0.002197,0.003418,-0.000732,0,0,0,0
26.186167,-0.878906,-2.179688,0.007812,0.000000,0.000000,-0.008215,0.009096,0.005737,-0.116495,0.000488,0.001221,0.001465,0,0,0,0
26.195930,-0.878906,-2.179688,0.007812,0.000000,0.000000,-0.008575,0.009096,0.005737,-0.116495,-0.000488,-0.000244,0.002686,0,0,0,0
26.205696,-0.878906,-2.179688,0.007812,0.000000,0.000000,-0.008131,0.009096,0.005737,-0.116495,-0.000488,0.001221,-0.000732,0,0,0,0
26.215462,-0.878906,-2.179688,0.007812,0.000000,0.000000,-0.008337,0.009096,0.005737,-0.116495,-0.001221,0.001221,0.001465,0,0,0,0
26.225229,-0.878906,-2.179688,0.007812,0.000000,0.000000,-0.008244,0.009096,0.005737,-0.116495,-0.003662,0.000244,-0.001221,0,0,0,0
26.234995,-0.878906,-2.179688,0.007812,0.000000,0.000000,-0.007938,0.009096,0.005737,-0.116495,-0.001221,-0.000732,-0.001709,0,0,0,0
26.244759,-0.878906,-2.179688,0.007812,0.000000,0.000000,-0.007498,0.009096,0.005737,-0.116495,0.000488,0.000732,0.001465,0,0,0,0
26.254524,-0.878906,-2.179688,0.007812,0.000000,0.000000,-0.007853,0.009096,0.005737,-0.116495,0.000977,0.000244,0.001465,0,0,0,0
26.264290,-0.878906,-2.179688,0.007812,0.000000,0.000000,-0.007610,0.009096,0.005737,-0.116495,-0.001709,-0.001221,0.001953,0,0,0,0
26.274055,-0.878906,-2.179688,0.007812,0.000000,0.000000,-0.007757,0.009096,0.005737,-0.116495,0.002197,0.001221,-0.000732,0,0,0,0
26.283821,-0.878906,-2.179688,0.007812,0.000000,0.000000,-0.007662,0.009096,0.005737,-0.116495,-0.001709,-0.000244,-0.000732,0,0,0,0
26.293587,-0.878906,-2.179688,0.007812,0.000000,0.000000,-0.007559,0.009096,0.005737,-0.116495,-0.001221,0.003906,-0.000732,0,0,0,0
26.303352,-0.878906,-2.179688,0.007812,0.000000,0.000000,-0.007502,0.009096,0.005737,-0.116495,0.001465,0.000732,0.000000,0,0,0,0
26.313118,-0.878906,-2.179688,0.007812,0.000000,0.000000,-0.007439,0.009096,0.005737,-0.116495,-0.000488,0.001221,0.000000,0,0,0,0
26.322884,-0.878906,-2.179688,0.007812,0.000000,0.000000,-0.006943,0.009096,0.005737,-0.116495,0.000488,0.002441,0.001465,0,0,0,0
26.332649,-0.878906,-2.179688,0.007812,0.000000,0.000000,-0.007126,0.009096,0.005737,-0.116495,0.000977,0.001953,0.000000,0,0,0,0
26.342415,-0.878906,-2.179688,0.007812,0.000000,0.000000,-0.007370,0.009096,0.005737,-0.116495,0.002197,0.000244,0.001465,0,0,0,0
26.352180,-0.878906,-2.179688,0.007812,0.000000,0.000000,-0.007668,0.009096,0.005737,-0.116495,-0.001709,0.001953,0.000000,0,0,0,0
26.361946,-0.878906,-2.179688,0.007812,0.000000,0.000000,-0.008070,0.009096,0.005737,-0.116495,0.001465,-0.000732,0.000488,0,0,0,0
26.371712,-0.878906,-2.179688,0.007812,0.000000,0.000000,-0.008116,0.009096,0.005737,-0.116495,0.000000,0.001221,0.000000,0,0,0,0
26.381477,-0.878906,-2.179688,0.007812,0.000000,0.000000,-0.008699,0.009096,0.005737,-0.116495,0.000488,0.002930,0.000488,0,0,0,0
26.391243,-0.878906,-2.179688,0.007812,0.000000,0.000000,-0.009134,0.009096,0.005737,-0.116495,-0.000488,-0.000732,0.000977,0,0,0,0
26.401009,-0.878906,-2.179688,0.007812,0.000000,0.000000,-0.007782,0.009096,0.005737,-0.116495,-0.000488,-0.001709,0.001953,0,0,0,0
26.410778,-0.878906,-2.179688,0.007812,0.000000,0.000000,-0.007908,0.009033,0.005615,-0.116455,-0.001709,0.000244,-0.000732,0,0,0,0
26.420540,-0.878906,-2.179688,0.007812,0.000000,0.000000,-0.008303,0.009096,0.005737,-0.116495,-0.002686,-0.000244,-0.001709,0,0,0,0
26.430307,-0.878906,-2.179688,0.007812,0.000000,0.000000,-0.008659,0.009096,0.005737,-0.116495,-0.002197,-0.000732,0.000488,0,0,0,0
26.440071,-0.878906,-2.179688,0.007812,0.000000,0.000000,-0.008623,0.009096,0.005737,-0.116495,-0.001221,-0.000732,-0.001709,0,0,0,0
26.449837,-0.878906,-2.179688,0.007812,0.000000,0.000000,-0.008852,0.009095,0.005737,-0.116421,-0.001221,0.000732,0.003662,0,0,0,0
26.459602,-0.878906,-2.179688,0.007812,0.000000,0.000000,-0.009253,0.009095,0.005737,-0.116421,-0.001221,-0.000732,0.001953,0,0,0,0
26.469368,-0.878906,-2.179688,0.007812,0.000000,0.000000,-0.009312,0.009095,0.005737,-0.116421,0.000977,-0.002197,0.001953,0,0,0,0
26.479136,-0.878906,-2.179688,0.007812,0.000000,0.000000,-0.008514,0.009095,0.005737,-0.116421,0.001465,0.000244,0.000000,0,0,0,0
26.488899,-0.878906,-2.179688,0.007812,0.000000,0.000000,-0.008659,0.009095,0.005737,-0.116421,0.000488,-0.000732,0.001465,0,0,0,0
26.498665,-0.878906,-2.179688,0.007812,0.000000,0.000000,-0.008436,0.009095,0.005737,-0.116421,0.001465,0.000732,-0.000732,0,0,0,0
26.508430,-0.878906,-2.179688,0.007812,0.000000,0.000000,-0.008839,0.009095,0.005737,-0.116421,0.000488,-0.000732,0.000977,0,0,0,0
26.518196,-0.878906,-2.179688,0.007812,0.000000,0.000000,-0.008739,0.009095,0.005737,-0.116421,0.000488,-0.001221,0.000488,0,0,0,0
26.527962,-0.878906,-2.179688,0.007812,0.000000,0.000000,-0.008734,0.009095,0.005737,-0.116421,-0.001221,0.001221,0.000000,0,0,0,0
26.537727,-0.878906,-2.179688,0.007812,0.000000,0.000000,-0.008799,0.009095,0.005737,-0.116421,-0.001221,-0.002197,-0.000732,0,0,0,0
26.547493,-0.878906,-2.179688,0.007812,0.000000,0.000000,-0.009109,0.009095,0.005737,-0.116421,0.001465,-0.000244,0.003174,0,0,0,0
26.557259,-0.878906,-2.179688,0.007812,0.000000,0.000000,-0.007511,0.009034,0.005676,-0.116421,0.002197,-0.001221,-0.001709,0,0,0,0
26.567024,-0.878906,-2.179688,0.007812,0.000000,0.000000,-0.007780,0.009034,0.005615,-0.116421,-0.001221,-0.004395,0.000000,0,0,0,0
26.576790,-0.878906,-2.179688,0.007812,0.000000,0.000000,-0.007915,0.009034,0.005615,-0.116421,-0.001709,0.000244,-0.002197,0,0,0,0
26.586555,-0.878906,-2.179688,0.007812,0.000000,0.000000,-0.007898,0.009034,0.005615,-0.116421,-0.000488,0.001221,0.000000,0,0,0,0
26.596325,-0.878906,-2.179688,0.007812,0.000000,0.000000,-0.008343,0.009034,0.005615,-0.116421,-0.001709,-0.001221,0.000488,0,0,0,0
26.606087,-0.878906,-2.179688,0.007812,0.000000,0.000000,-0.008528,0.009034,0.005615,-0.116421,-0.000488,-0.000244,-0.000732,0,0,0,0
26.615854,-0.878906,-2.179688,0.007812,0.000000,0.000000,-0.008787,0.009034,0.005615,-0.116421,-0.000488,0.002441,0.000488,0,0,0,0
26.625618,-0.878906,-2.179688,0.007812,0.000000,0.000000,-0.009018,0.009034,0.005615,-0.116421,0.000000,0.000732,0.001465,0,0,0,0
26.635386,-0.878906,-2.179688,0.007812,0.000000,0.000000,-0.007776,0.009034,0.005615,-0.116421,0.000000,0.000732,-0.004395,0,0,0,0
26.645149,-0.878906,-2.179688,0.007812,0.000000,0.000000,-0.008093,0.009034,0.005615,-0.116421,0.000488,0.000244,-0.000732,0,0,0,0
26.654915,-0.878906,-2.179688,0.007812,0.000000,0.000000,-0.008633,0.009034,0.005615,-0.116421,0.001465,0.001221,-0.001221,0,0,0,0
26.664682,-0.878906,-2.179688,0.007812,0.000000,0.000000,-0.008894,0.009034,0.005615,-0.116421,0.002197,-0.000244,0.000000,0,0,0,0
26.674444,-0.878906,-2.179688,0.007812,0.000000,0.000000,-0.008949,0.009034,0.005615,-0.116421,0.002197,-0.002197,0.000488,0,0,0,0
26.684214,-0.878906,-2.179688,0.007812,0.000000,0.000000,-0.009369,0.009034,0.005615,-0.116421,0.000000,-0.001221,-0.000732,0,0,0,0
26.693979,-0.878906,-2.179688,0.007812,0.000000,0.000000,-0.009827,0.009034,0.005615,-0.116421,0.003174,0.001221,0.002686,0,0,0,0
26.703751,-0.878906,-2.179688,0.007812,0.000000,0.000000,-0.009701,0.009034,0.005615,-0.116421,-0.002197,0.002441,0.001953,0,0,0,0
26.713511,-0.878906,-2.179688,0.007812,0.000000,0.000000,-0.008610,0.008789,0.005615,-0.116211,0.001465,-0.000732,0.000000,0,0,0,0
26.723274,-0.878906,-2.179688,0.007812,0.000000,0.000000,-0.008545,0.009034,0.005615,-0.116421,-0.002197,-0.001709,0.000000,0,0,0,0
26.733040,-0.878906,-2.179688,0.007812,0.000000,0.000000,-0.008606,0.009034,0.005615,-0.116421,0.000488,-0.000732,0.000000,0,0,0,0
26.742805,-0.878906,-2.179688,0.007812,0.000000,0.000000,-0.009052,0.009034,0.005615,-0.116421,0.000000,0.002930,0.000977,0,0,0,0
26.752571,-0.878906,-2.179688,0.007812,0.000000,0.000000,-0.009352,0.009034,0.005615,-0.116421,-0.000488,0.000732,-0.000732,0,0,0,0
26.762337,-0.878906,-2.179688,0.007812,0.000000,0.000000,-0.009947,0.009034,0.005615,-0.116421,-0.000488,0.001953,0.001465,0,0,0,0
26.772102,-0.878906,-2.179688,0.007812,0.000000,0.000000,-0.009933,0.009034,0.005615,-0.116421,-0.000488,-0.000732,0.000977,0,0,0,0
26.781870,-0.878906,-2.179688,0.007812,0.000000,0.000000,-0.010376,0.009034,0.005615,-0.116421,-0.000488,-0.000732,0.001465,0,0,0,0
26.791634,-0.878906,-2.179688,0.007812,0.000000,0.000000,-0.010223,0.009034,0.005615,-0.116421,0.000000,-0.001221,0.001465,0,0,0,0
26.801399,-0.878906,-2.179688,0.007812,0.000000,0.000000,-0.010164,0.009034,0.005615,-0.116421,0.001465,-0.003174,0.000488,0,0,0,0
26.811165,-0.878906,-2.179688,0.007812,0.000000,0.000000,-0.010019,0.009034,0.005615,-0.116421,-0.000488,0.000244,-0.000732,0,0,0,0
26.820930,-0.878906,-2.179688,0.007812,0.000000,0.000000,-0.010330,0.009034,0.005554,-0.116421,0.000488,-0.002686,0.000000,0,0,0,0
26.830696,-0.878906,-2.179688,0.007812,0.000000,0.000000,-0.010551,0.009034,0.005554,-0.116421,-0.000488,-0.000244,0.000000,0,0,0,0
26.840462,-0.878906,-2.179688,0.007812,0.000000,0.000000,-0.010721,0.009034,0.005554,-0.116421,0.002686,-0.000732,0.000977,0,0,0,0
26.850225,-0.878906,-2.179688,0.007812,0.000000,0.000000,-0.010851,0.009034,0.005554,-0.116421,0.001465,0.000732,0.001953,0,0,0,0
26.859993,-0.878906,-2.179688,0.007812,0.000000,0.000000,-0.010895,0.009034,0.005554,-0.116421,0.001465,-0.000732,0.001465,0,0,0,0
26.869759,-0.878906,-2.179688,0.007812,0.000000,0.000000,-0.009283,0.009034,0.005554,-0.116421,0.003174,-0.000732,0.001465,0,0,0,0
26.879524,-0.878906,-2.179688,0.007812,0.000000,0.000000,-0.009497,0.009034,0.005554,-0.116421,0.003662,0.000732,0.000488,0,0,0,0
26.889290,-0.878906,-2.179688,0.007812,0.000000,0.000000,-0.009680,0.009034,0.005554,-0.116421,0.001465,-0.001221,0.000488,0,0,0,0
26.899055,-0.878906,-2.179688,0.007812,0.000000,0.000000,-0.009247,0.009034,0.005554,-0.116421,-0.001221,-0.002686,0.000488,0,0,0,0
26.908821,-0.878906,-2.179688,0.007812,0.000000,0.000000,-0.009127,0.009034,0.005554,-0.116421,0.000000,0.001221,-0.001221,0,0,0,0
26.918587,-0.878906,-2.179688,0.007812,0.000000,0.000000,-0.009398,0.009034,0.005554,-0.116421,0.000977,0.000732,-0.001221,0,0,0,0
26.928352,-0.878906,-2.179688,0.007812,0.000000,0.000000,-0.009638,0.009034,0.005554,-0.116421,0.000977,-0.000732,0.000000,0,0,0,0
26.938120,-0.878906,-2.179688,0.007812,0.000000,0.000000,-0.009083,0.009034,0.005554,-0.116421,0.001465,-0.000244,0.000977,0,0,0,0
26.947884,-0.878906,-2.179688,0.007812,0.000000,0.000000,-0.008516,0.009034,0.005554,-0.116421,0.000000,0.001221,0.000000,0,0,0,0
26.957649,-0.878906,-2.179688,0.007812,0.000000,0.000000,-0.008574,0.009034,0.005554,-0.116421,-0.001709,-0.001221,0.000977,0,0,0,0
26.967415,-0.878906,-2.179688,0.007812,0.000000,0.000000,-0.008545,0.009034,0.005554,-0.116421,0.002686,-0.000244,-0.001709,0,0,0,0
26.977180,-0.878906,-2.179688,0.007812,0.000000,0.000000,-0.008823,0.009034,0.005554,-0.116421,0.000488,0.001953,0.001465,0,0,0,0
26.986946,-0.878906,-2.179688,0.007812,0.000000,0.000000,-0.008894,0.009034,0.005554,-0.116421,-0.001709,0.001221,0.000488,0,0,0,0
26.996714,-0.878906,-2.179688,0.007812,0.000000,0.000000,-0.008936,0.009034,0.005554,-0.116421,0.000488,0.002441,0.000488,0,0,0,0
27.006477,-0.878906,-2.179688,0.007812,0.000000,0.000000,-0.008579,0.009034,0.005554,-0.116421,0.000000,-0.000244,-0.001221,0,0,0,0
27.016245,-0.878906,-2.179688,0.007812,0.000000,0.000000,-0.008896,0.008789,0.005371,-0.116211,0.004150,-0.001221,-0.001221,0,0,0,0
27.026009,-0.878906,-2.179688,0.007812,0.000000,0.000000,-0.009451,0.009034,0.005554,-0.116421,0.001465,0.000244,0.000000,0,0,0,0
27.035774,-0.878906,-2.179688,0.007812,0.000000,0.000000,-0.008760,0.009034,0.005554,-0.116421,0.001465,0.000732,-0.001221,0,0,0,0
27.045540,-0.878906,-2.179688,0.007812,0.000000,0.000000,-0.008949,0.009034,0.005554,-0.116421,0.000488,-0.000732,0.000977,0,0,0,0
27.055305,-0.878906,-2.179688,0.007812,0.000000,0.000000,-0.009369,0.009034,0.005554,-0.116421,-0.002197,-0.000732,0.000977,0,0,0,0
27.065071,-0.878906,-2.179688,0.007812,0.000000,0.000000,-0.009384,0.009034,0.005554,-0.116421,-0.001709,-0.000244,0.000000,0,0,0,0
27.074839,-0.878906,-2.179688,0.007812,0.000000,0.000000,-0.009794,0.009034,0.005554,-0.116421,0.000977,-0.001221,-0.001221,0,0,0,0
27.084604,-0.878906,-2.179688,0.007812,0.000000,0.000000,-0.010141,0.009034,0.005554,-0.116421,-0.001221,-0.000244,0.000488,0,0,0,0
27.094372,-0.878906,-2.179688,0.007812,0.000000,0.000000,-0.009872,0.009034,0.005554,-0.116421,0.000000,-0.000244,0.000977,0,0,0,0
27.104134,-0.878906,-2.179688,0.007812,0.000000,0.000000,-0.009727,0.009034,0.005554,-0.116421,-0.002197,0.002930,0.001465,0,0,0,0
27.113899,-0.878906,-2.179688,0.007812,0.000000,0.000000,-0.009943,0.009034,0.005554,-0.116421,0.002197,-0.002686,-0.001709,0,0,0,0
27.123665,-0.878906,-2.179688,0.007812,0.000000,0.000000,-0.010307,0.009034,0.005554,-0.116421,-0.001709,-0.001221,-0.001709,0,0,0,0
27.133430,-0.878906,-2.179688,0.007812,0.000000,0.000000,-0.009808,0.009034,0.005554,-0.116421,-0.000488,0.000244,0.000000,0,0,0,0
27.143196,-0.878906,-2.179688,0.007812,0.000000,0.000000,-0.010036,0.009034,0.005554,-0.116421,0.000977,0.001953,0.001465,0,0,0,0
27.152962,-0.878906,-2.179688,0.007812,0.000000,0.000000,-0.010008,0.009034,0.005554,-0.116421,-0.001221,0.001953,0.000488,0,0,0,0
27.162727,-0.878906,-2.179688,0.007812,0.000000,0.000000,-0.010300,0.009034,0.005554,-0.116421,-0.001709,-0.001709,-0.001221,0,0,0,0
27.172493,-0.878906,-2.179688,0.007812,0.000000,0.000000,-0.009718,0.009034,0.005554,-0.116421,0.004150,0.001953,0.001465,0,0,0,0
27.182259,-0.878906,-2.179688,0.007812,0.000000,0.000000,-0.009546,0.009034,0.005554,-0.116421,-0.002197,0.002930,0.003662,0,0,0,0
27.192024,-0.878906,-2.179688,0.007812,0.000000,0.000000,-0.009981,0.009034,0.005554,-0.116421,-0.000488,0.002441,0.000000,0,0,0,0
27.201790,-0.878906,-2.179688,0.007812,0.000000,0.000000,-0.009363,0.009034,0.005554,-0.116421,-0.000488,0.001221,0.001465,0,0,0,0
27.211555,-0.878906,-2.179688,0.007812,0.000000,0.000000,-0.009554,0.009034,0.005554,-0.116421,0.001465,0.000732,0.000000,0,0,0,0
27.221321,-0.878906,-2.179688,0.007812,0.000000,0.000000,-0.009895,0.009034,0.005554,-0.116421,0.002197,-0.001709,0.001953,0,0,0,0
27.231087,-0.878906,-2.179688,0.007812,0.000000,0.000000,-0.009203,0.009034,0.005554,-0.116421,0.000488,0.001221,-0.000732,0,0,0,0
27.240852,-0.878906,-2.179688,0.007812,0.000000,0.000000,-0.009953,0.009034,0.005554,-0.116421,0.000000,-0.001709,0.000977,0,0,0,0
27.250618,-0.878906,-2.179688,0.007812,0.000000,0.000000,-0.009794,0.009034,0.005554,-0.116421,0.000977,0.003906,0.001953,0,0,0,0
27.260384,-0.878906,-2.179688,0.007812,0.000000,0.000000,-0.010672,0.009095,0.005615,-0.116421,-0.002686,0.000244,0.003174,0,0,0,0
27.270149,-0.878906,-2.179688,0.007812,0.000000,0.000000,-0.009993,0.009095,0.005615,-0.116421,-0.002197,0.001953,-0.001221,0,0,0,0
27.279915,-0.878906,-2.179688,0.007812,0.000000,0.000000,-0.010244,0.009095,0.005615,-0.116421,-0.002197,0.001221,0.000488,0,0,0,0
27.289680,-0.878906,-2.179688,0.007812,0.000000,0.000000,-0.010494,0.009095,0.005615,-0.116421,-0.001221,0.002930,-0.001709,0,0,0,0
27.299446,-0.878906,-2.179688,0.007812,0.000000,0.000000,-0.009945,0.009095,0.005615,-0.116421,0.001465,-0.000732,-0.002197,0,0,0,0
27.309214,-0.878906,-2.179688,0.007812,0.000000,0.000000,-0.009731,0.009095,0.005615,-0.116421,-0.002686,0.001953,0.000977,0,0,0,0
27.318979,-0.878906,-2.179688,0.007812,0.000000,0.000000,-0.009523,0.009033,0.005615,-0.116211,0.001465,-0.002197,0.000488,0,0,0,0
27.328741,-0.878906,-2.179688,0.007812,0.000000,0.000000,-0.009609,0.009095,0.005615,-0.116421,-0.001221,-0.001221,-0.000732,0,0,0,0
27.338509,-0.878906,-2.179688,0.007812,0.000000,0.000000,-0.009983,0.009095,0.005615,-0.116481,0.000488,0.001221,-0.001221,0,0,0,0
27.348274,-0.878906,-2.179688,0.007812,0.000000,0.000000,-0.010010,0.009095,0.005615,-0.116481,0.001465,0.000732,0.000488,0,0,0,0
27.358040,-0.878906,-2.179688,0.007812,0.000000,0.000000,-0.010353,0.009095,0.005615,-0.116481,-0.002686,0.001953,0.000977,0,0,0,0
27.367805,-0.878906,-2.179688,0.007812,0.000000,0.000000,-0.009884,0.009095,0.005615,-0.116481,0.000000,0.001953,0.000977,0,0,0,0
27.377571,-0.878906,-2.179688,0.007812,0.000000,0.000000,-0.010122,0.009095,0.005615,-0.116481,-0.001221,0.000244,0.001953,0,0,0,0
27.387337,-0.878906,-2.179688,0.007812,0.000000,0.000000,-0.010399,0.009095,0.005615,-0.116481,0.000000,0.002441,-0.003174,0,0,0,0
27.397104,-0.878906,-2.179688,0.007812,0.000000,0.000000,-0.010639,0.009095,0.005615,-0.116481,0.004150,0.002930,0.000488,0,0,0,0
27.406866,-0.878906,-2.179688,0.007812,0.000000,0.000000,-0.009729,0.009095,0.005615,-0.116481,-0.002197,0.001953,-0.001709,0,0,0,0
27.416634,-0.878906,-2.179688,0.007812,0.000000,0.000000,-0.009853,0.009095,0.005615,-0.116481,0.001465,0.001221,0.001465,0,0,0,0
27.426399,-0.878906,-2.179688,0.007812,0.000000,0.000000,-0.010017,0.009095,0.005615,-0.116481,-0.001221,-0.000732,-0.000732,0,0,0,0
27.436165,-0.878906,-2.179688,0.007812,0.000000,0.000000,-0.008844,0.009095,0.005615,-0.116481,-0.001709,-0.000732,0.003174,0,0,0,0
27.445930,-0.878906,-2.179688,0.007812,0.000000,0.000000,-0.009050,0.009095,0.005615,-0.116481,-0.001709,0.001221,0.000488,0,0,0,0
27.455696,-0.878906,-2.179688,0.007812,0.000000,0.000000,-0.009306,0.009095,0.005615,-0.116481,0.000000,0.001953,0.000488,0,0,0,0
27.465462,-0.878906,-2.179688,0.007812,0.000000,0.000000,-0.008528,0.009095,0.005615,-0.116481,-0.001221,-0.000732,-0.002197,0,0,0,0
27.475227,-0.878906,-2.179688,0.007812,0.000000,0.000000,-0.008657,0.009095,0.005615,-0.116481,0.000000,0.001953,0.000000,0,0,0,0
27.484995,-0.878906,-2.179688,0.007812,0.000000,0.000000,-0.008686,0.009095,0.005615,-0.116481,0.002197,0.001953,-0.000732,0,0,0,0
27.494759,-0.878906,-2.179688,0.007812,0.000000,0.000000,-0.008873,0.009095,0.005615,-0.116481,0.000977,-0.000244,0.000977,0,0,0,0
27.504524,-0.878906,-2.179688,0.007812,0.000000,0.000000,-0.008354,0.009095,0.005615,-0.116481,0.001465,0.000732,0.000000,0,0,0,0
27.514294,-0.878906,-2.179688,0.007812,0.000000,0.000000,-0.008366,0.009095,0.005615,-0.116481,0.000000,0.000732,-0.001221,0,0,0,0
27.524055,-0.878906,-2.179688,0.007812,0.000000,0.000000,-0.008965,0.009095,0.005615,-0.116481,0.001465,0.001221,0.000977,0,0,0,0
27.533821,-0.878906,-2.179688,0.007812,0.000000,0.000000,-0.007868,0.009095,0.005615,-0.116481,0.002197,0.001953,-0.001709,0,0,0,0
27.543587,-0.878906,-2.179688,0.007812,0.000000,0.000000,-0.008226,0.009095,0.005615,-0.116481,0.000977,0.002441,-0.000732,0,0,0,0
27.553352,-0.878906,-2.179688,0.007812,0.000000,0.000000,-0.008614,0.009095,0.005615,-0.116481,0.001465,0.001953,-0.000732,0,0,0,0
27.563120,-0.878906,-2.179688,0.007812,0.000000,0.000000,-0.008770,0.009095,0.005615,-0.116481,-0.000488,0.002930,-0.000732,0,0,0,0
27.572884,-0.878906,-2.179688,0.007812,0.000000,0.000000,-0.009281,0.009095,0.005615,-0.116481,-0.001709,-0.000244,0.000488,0,0,0,0
27.582649,-0.878906,-2.179688,0.007812,0.000000,0.000000,-0.009769,0.009095,0.005615,-0.116481,0.000488,0.001221,-0.000732,0,0,0,0
27.592415,-0.878906,-2.179688,0.007812,0.000000,0.000000,-0.010162,0.009095,0.005615,-0.116481,-0.000488,-0.003174,0.000488,0,0,0,0
27.602179,-0.878906,-2.179688,0.007812,0.000000,0.000000,-0.009130,0.009095,0.005615,-0.116481,0.000000,-0.000732,0.000977,0,0,0,0
27.611944,-0.878906,-2.179688,0.007812,0.000000,0.000000,-0.009264,0.009095,0.005615,-0.116481,-0.000488,-0.001709,0.000000,0,0,0,0
27.621714,-0.878906,-2.179688,0.007812,0.000000,0.000000,-0.009624,0.009095,0.005615,-0.116481,-0.001709,0.000244,-0.000732,0,0,0,0
27.631477,-0.878906,-2.179688,0.007812,0.000000,0.000000,-0.008862,0.009095,0.005615,-0.116481,-0.001221,0.003906,0.000977,0,0,0,0
27.641243,-0.878906,-2.179688,0.007812,0.000000,0.000000,-0.008976,0.009095,0.005615,-0.116481,0.000000,0.000244,0.000488,0,0,0,0
27.651009,-0.878906,-2.179688,0.007812,0.000000,0.000000,-0.009233,0.009095,0.005615,-0.116481,0.000000,-0.001221,0.000000,0,0,0,0
27.660774,-0.878906,-2.179688,0.007812,0.000000,0.000000,-0.009693,0.009095,0.005615,-0.116481,0.000488,0.002441,0.000488,0,0,0,0
27.670540,-0.878906,-2.179688,0.007812,0.000000,0.000000,-0.008644,0.009095,0.005615,-0.116481,-0.000488,0.000244,0.001465,0,0,0,0
27.680305,-0.878906,-2.179688,0.007812,0.000000,0.000000,-0.008898,0.009095,0.005615,-0.116481,0.003174,-0.001709,-0.001221,0,0,0,0
27.690073,-0.878906,-2.179688,0.007812,0.000000,0.000000,-0.009415,0.009033,0.005615,-0.116455,0.001465,0.001221,0.001465,0,0,0,0
27.699837,-0.878906,-2.179688,0.007812,0.000000,0.000000,-0.008772,0.009095,0.005615,-0.116481,0.001465,0.001953,-0.002197,0,0,0,0
27.709602,-0.878906,-2.179688,0.007812,0.000000,0.000000,-0.008860,0.009095,0.005615,-0.116481,0.002686,0.002930,0.000977,0,0,0,0
27.719368,-0.878906,-2.179688,0.007812,0.000000,0.000000,-0.009325,0.009095,0.005615,-0.116481,0.000488,0.002441,0.000488,0,0,0,0
27.729134,-0.878906,-2.179688,0.007812,0.000000,0.000000,-0.009384,0.009095,0.005615,-0.116481,0.000977,-0.000732,0.001465,0,0,0,0
27.738899,-0.878906,-2.179688,0.007812,0.000000,0.000000,-0.008493,0.009095,0.005615,-0.116481,0.002197,0.001953,0.001953,0,0,0,0
27.748665,-0.878906,-2.179688,0.007812,0.000000,0.000000,-0.008848,0.009095,0.005615,-0.116481,0.000488,0.000244,0.000977,0,0,0,0
27.758444,-0.878906,-2.179688,0.007812,0.000000,0.000000,-0.008999,0.008973,0.005554,-0.116421,-0.001709,0.001221,0.000000,0,0,0,0
27.768213,-0.878906,-2.179688,0.007812,0.000000,0.000000,-0.008633,0.008973,0.005554,-0.116421,-0.002197,0.000732,0.000977,0,0,0,0
27.777964,-0.878906,-2.179688,0.007812,0.000000,0.000000,-0.008926,0.008973,0.005554,-0.116421,-0.002686,-0.001221,0.000000,0,0,0,0
27.787727,-0.878906,-2.179688,0.007812,0.000000,0.000000,-0.008574,0.008973,0.005554,-0.116421,-0.002197,0.001953,-0.003174,0,0,0,0
27.797495,-0.878906,-2.179688,0.007812,0.000000,0.000000,-0.008310,0.008973,0.005554,-0.116421,0.000000,-0.001709,0.000000,0,0,0,0
27.807259,-0.878906,-2.179688,0.007812,0.000000,0.000000,-0.008020,0.008973,0.005554,-0.116421,-0.002197,-0.000732,-0.000732,0,0,0,0
27.817022,-0.878906,-2.179688,0.007812,0.000000,0.000000,-0.008097,0.008973,0.005554,-0.116421,0.000000,0.000244,0.000000,0,0,0,0
27.826790,-0.878906,-2.179688,0.007812,0.000000,0.000000,-0.008120,0.008973,0.005554,-0.116421,0.001465,-0.000732,-0.002197,0,0,0,0
27.836555,-0.878906,-2.179688,0.007812,0.000000,0.000000,-0.008057,0.008973,0.005554,-0.116421,-0.003662,-0.001221,-0.001709,0,0,0,0
27.846319,-0.878906,-2.179688,0.007812,0.000000,0.000000,-0.008287,0.008973,0.005554,-0.116421,0.000977,-0.002197,0.000977,0,0,0,0
27.856087,-0.878906,-2.179688,0.007812,0.000000,0.000000,-0.008362,0.008973,0.005554,-0.116421,-0.001221,0.000732,0.000488,0,0,0,0
27.865854,-0.878906,-2.179688,0.007812,0.000000,0.000000,-0.007740,0.008973,0.005554,-0.116421,-0.001709,-0.001221,0.000977,0,0,0,0
27.875620,-0.878906,-2.179688,0.007812,0.000000,0.000000,-0.007980,0.008973,0.005554,-0.116421,0.002197,0.003418,-0.001709,0,0,0,0
27.885382,-0.878906,-2.179688,0.007812,0.000000,0.000000,-0.007778,0.008973,0.005554,-0.116421,0.000488,0.002930,0.000488,0,0,0,0
27.895149,-0.878906,-2.179688,0.007812,0.000000,0.000000,-0.007904,0.008973,0.005554,-0.116421,0.000977,-0.001221,0.000000,0,0,0,0
27.904915,-0.878906,-2.179688,0.007812,0.000000,0.000000,-0.007719,0.008973,0.005554,-0.116421,0.000000,-0.000244,0.000488,0,0,0,0
27.914680,-0.878906,-2.179688,0.007812,0.000000,0.000000,-0.008205,0.008973,0.005554,-0.116421,-0.004395,-0.002686,0.000000,0,0,0,0
27.924444,-0.878906,-2.179688,0.007812,0.000000,0.000000,-0.008360,0.008973,0.005554,-0.116421,-0.004395,-0.002197,0.001465,0,0,0,0
27.934216,-0.878906,-2.179688,0.007812,0.000000,0.000000,-0.007885,0.008973,0.005554,-0.116421,-0.003174,0.000732,0.001953,0,0,0,0
27.943979,-0.878906,-2.179688,0.007812,0.000000,0.000000,-0.007771,0.008973,0.005554,-0.116421,-0.001221,0.001221,0.001953,0,0,0,0
27.953747,-0.878906,-2.179688,0.007812,0.000000,0.000000,-0.008101,0.008973,0.005554,-0.116421,-0.001221,0.000244,-0.001221,0,0,0,0
27.963511,-0.878906,-2.179688,0.007812,0.000000,0.000000,-0.007502,0.008973,0.005493,-0.116421,0.001465,0.001953,-0.001709,0,0,0,0
27.973272,-0.878906,-2.179688,0.007812,0.000000,0.000000,-0.007282,0.008973,0.005493,-0.116421,-0.002197,-0.001709,-0.000732,0,0,0,0
27.983040,-0.878906,-2.179688,0.007812,0.000000,0.000000,-0.007524,0.008973,0.005493,-0.116421,-0.002197,-0.000732,0.001465,0,0,0,0
27.992809,-0.878906,-2.179688,0.007812,0.000000,0.000000,-0.007500,0.008973,0.005493,-0.116421,-0.002197,0.000732,-0.001221,0,0,0,0
28.002569,-0.878906,-2.179688,0.007812,0.000000,0.000000,-0.007229,0.008973,0.005493,-0.116421,-0.000488,-0.001221,0.000000,0,0,0,0
28.012337,-0.878906,-2.179688,0.007812,0.000000,0.000000,-0.007681,0.008912,0.005493,-0.116421,0.001465,0.002441,0.000488,0,0,0,0
28.022102,-0.878906,-2.179688,0.007812,0.000000,0.000000,-0.008051,0.008912,0.005493,-0.116421,-0.002686,-0.000732,-0.002686,0,0,0,0
28.031866,-0.878906,-2.179688,0.007812,0.000000,0.000000,-0.007725,0.008912,0.005493,-0.116421,-0.002686,-0.000244,0.000488,0,0,0,0
28.041634,-0.878906,-2.179688,0.007812,0.000000,0.000000,-0.007498,0.008912,0.005493,-0.116421,0.000488,-0.000732,0.001465,0,0,0,0
28.051397,-0.878906,-2.179688,0.007812,0.000000,0.000000,-0.007675,0.008912,0.005493,-0.116421,0.003174,-0.000732,0.000000,0,0,0,0
28.061167,-0.878906,-2.179688,0.007812,0.000000,0.000000,-0.008184,0.008912,0.005493,-0.116421,0.001465,-0.000732,0.000000,0,0,0,0
28.070930,-0.878906,-2.179688,0.007812,0.000000,0.000000,-0.007959,0.008912,0.005493,-0.116421,0.002197,-0.000732,-0.000732,0,0,0,0
28.080696,-0.878906,-2.179688,0.007812,0.000000,0.000000,-0.008549,0.008912,0.005493,-0.116421,-0.002197,0.001953,0.000977,0,0,0,0
28.090462,-0.878906,-2.179688,0.007812,0.000000,0.000000,-0.008661,0.008912,0.005493,-0.116421,-0.002686,-0.000244,0.001465,0,0,0,0
28.100227,-0.878906,-2.179688,0.007812,0.000000,0.000000,-0.008492,0.008912,0.005493,-0.116421,0.000977,0.000244,-0.001221,0,0,0,0
28.109991,-0.878906,-2.179688,0.007812,0.000000,0.000000,-0.008904,0.008912,0.005493,-0.116421,0.000977,-0.002197,-0.000732,0,0,0,0
28.119759,-0.878906,-2.179688,0.007812,0.000000,0.000000,-0.009470,0.008912,0.005493,-0.116421,-0.003174,-0.001221,-0.002686,0,0,0,0
28.129526,-0.878906,-2.179688,0.007812,0.000000,0.000000,-0.009661,0.008912,0.005493,-0.116421,-0.003174,0.003418,0.001465,0,0,0,0
28.139290,-0.878906,-2.179688,0.007812,0.000000,0.000000,-0.009541,0.008912,0.005493,-0.116421,-0.001221,-0.000732,-0.001709,0,0,0,0
28.149055,-0.878906,-2.179688,0.007812,0.000000,0.000000,-0.009850,0.008912,0.005493,-0.116421,-0.000488,0.001221,0.000977,0,0,0,0
28.158821,-0.878906,-2.179688,0.007812,0.000000,0.000000,-0.009495,0.008912,0.005493,-0.116421,-0.001221,-0.000244,0.001465,0,0,0,0
28.168587,-0.878906,-2.179688,0.007812,0.000000,0.000000,-0.009169,0.008912,0.005493,-0.116421,0.001465,-0.000244,-0.001709,0,0,0,0
28.178352,-0.878906,-2.179688,0.007812,0.000000,0.000000,-0.009573,0.008912,0.005493,-0.116421,0.002686,0.001953,-0.000732,0,0,0,0
28.188118,-0.878906,-2.179688,0.007812,0.000000,0.000000,-0.009769,0.008912,0.005493,-0.116421,-0.000488,0.001221,0.001953,0,0,0,0
28.197884,-0.878906,-2.179688,0.007812,0.000000,0.000000,-0.008448,0.008912,0.005493,-0.116421,0.000000,-0.002197,-0.002197,0,0,0,0
28.207647,-0.878906,-2.179688,0.007812,0.000000,0.000000,-0.008345,0.008912,0.005493,-0.116421,-0.001221,-0.000244,-0.000732,0,0,0,0
28.217415,-0.878906,-2.179688,0.007812,0.000000,0.000000,-0.008509,0.008912,0.005493,-0.116421,-0.001221,0.002441,-0.001221,0,0,0,0
28.227180,-0.878906,-2.179688,0.007812,0.000000,0.000000,-0.008698,0.008912,0.005493,-0.116421,0.000488,0.001221,0.000977,0,0,0,0
28.236944,-0.878906,-2.179688,0.007812,0.000000,0.000000,-0.008469,0.008912,0.005493,-0.116421,0.000977,0.001953,0.002686,0,0,0,0
28.246712,-0.878906,-2.179688,0.007812,0.000000,0.000000,-0.008638,0.008912,0.005493,-0.116421,0.000488,-0.002197,-0.001221,0,0,0,0
28.256479,-0.878906,-2.179688,0.007812,0.000000,0.000000,-0.009130,0.008912,0.005493,-0.116421,0.002197,0.000244,0.000488,0,0,0,0
28.266243,-0.878906,-2.179688,0.007812,0.000000,0.000000,-0.008783,0.008912,0.005493,-0.116421,0.001465,-0.000244,0.000488,0,0,0,0
28.276009,-0.878906,-2.179688,0.007812,0.000000,0.000000,-0.008505,0.008912,0.005493,-0.116421,-0.001709,0.003418,0.000000,0,0,0,0
28.285774,-0.878906,-2.179688,0.007812,0.000000,0.000000,-0.008511,0.008912,0.005493,-0.116421,-0.002197,-0.001221,0.000488,0,0,0,0
28.295544,-0.878906,-2.179688,0.007812,0.000000,0.000000,-0.008842,0.008912,0.005493,-0.116421,-0.001709,0.001953,0.000977,0,0,0,0
28.305304,-0.878906,-2.179688,0.007812,0.000000,0.000000,-0.008511,0.008912,0.005493,-0.116421,-0.002197,-0.001221,0.000488,0,0,0,0
28.315069,-0.878906,-2.179688,0.007812,0.000000,0.000000,-0.008835,0.008912,0.005493,-0.116421,-0.003662,0.000244,0.000977,0,0,0,0
28.324837,-0.878906,-2.179688,0.007812,0.000000,0.000000,-0.008989,0.008912,0.005493,-0.116421,-0.002686,0.001221,0.000000,0,0,0,0
28.334602,-0.878906,-2.179688,0.007812,0.000000,0.000000,-0.008371,0.008912,0.005493,-0.116421,-0.000488,-0.000732,-0.000732,0,0,0,0
28.344370,-0.878906,-2.179688,0.007812,0.000000,0.000000,-0.008539,0.008912,0.005493,-0.116421,-0.003174,-0.000732,-0.002686,0,0,0,0
28.354134,-0.878906,-2.179688,0.007812,0.000000,0.000000,-0.009253,0.008912,0.005493,-0.116421,0.000488,-0.002197,-0.000732,0,0,0,0
28.363901,-0.878906,-2.179688,0.007812,0.000000,0.000000,-0.009426,0.008789,0.005371,-0.116211,0.000977,0.000244,0.000488,0,0,0,0
28.373663,-0.878906,-2.179688,0.007812,0.000000,0.000000,-0.008972,0.008912,0.005493,-0.116421,0.002197,0.001953,-0.001221,0,0,0,0
28.383429,-0.878906,-2.179688,0.007812,0.000000,0.000000,-0.009298,0.008912,0.005493,-0.116421,0.002197,0.000244,-0.000732,0,0,0,0
28.393194,-0.878906,-2.179688,0.007812,0.000000,0.000000,-0.009474,0.008912,0.005493,-0.116421,0.001465,0.001221,0.000977,0,0,0,0
28.402964,-0.878906,-2.179688,0.007812,0.000000,0.000000,-0.009039,0.008912,0.005493,-0.116421,0.002686,0.001221,-0.000732,0,0,0,0
28.412727,-0.878906,-2.179688,0.007812,0.000000,0.000000,-0.009171,0.008912,0.005493,-0.116421,0.002197,0.001221,0.000000,0,0,0,0
28.422491,-0.878906,-2.179688,0.007812,0.000000,0.000000,-0.009491,0.008912,0.005432,-0.116421,0.001465,-0.000732,0.000488,0,0,0,0
28.432259,-0.878906,-2.179688,0.007812,0.000000,0.000000,-0.009642,0.008912,0.005432,-0.116421,-0.001221,-0.002197,0.000000,0,0,0,0
28.442022,-0.878906,-2.179688,0.007812,0.000000,0.000000,-0.009745,0.008912,0.005432,-0.116421,0.000977,-0.000732,0.000000,0,0,0,0
28.451790,-0.878906,-2.179688,0.007812,0.000000,0.000000,-0.009752,0.008912,0.005432,-0.116421,0.002686,-0.001709,0.003174,0,0,0,0
28.461555,-0.878906,-2.179688,0.007812,0.000000,0.000000,-0.009937,0.008912,0.005432,-0.116421,-0.002197,0.003418,-0.000732,0,0,0,0
28.471331,-0.878906,-2.179688,0.007812,0.000000,0.000000,-0.009491,0.008912,0.005432,-0.116421,0.000000,-0.000244,0.000977,0,0,0,0
28.481087,-0.878906,-2.179688,0.007812,0.000000,0.000000,-0.009535,0.008912,0.005432,-0.116421,0.000977,0.000732,0.000000,0,0,0,0
28.490850,-0.878906,-2.179688,0.007812,0.000000,0.000000,-0.009640,0.008912,0.005432,-0.116421,-0.000488,-0.000244,0.001953,0,0,0,0
28.500618,-0.878906,-2.179688,0.007812,0.000000,0.000000,-0.008924,0.008912,0.005432,-0.116421,-0.001221,0.001221,0.000000,0,0,0,0
28.510384,-0.878906,-2.179688,0.007812,0.000000,0.000000,-0.008987,0.008912,0.005432,-0.116421,-0.002197,0.000732,0.001465,0,0,0,0
28.520147,-0.878906,-2.179688,0.007812,0.000000,0.000000,-0.009117,0.008912,0.005432,-0.116421,0.000000,-0.002197,-0.001709,0,0,0,0
28.529915,-0.878906,-2.179688,0.007812,0.000000,0.000000,-0.009348,0.008912,0.005432,-0.116421,0.001465,-0.000244,-0.000732,0,0,0,0
28.539679,-0.878906,-2.179688,0.007812,0.000000,0.000000,-0.008860,0.008912,0.005432,-0.116421,-0.000488,0.002441,0.000488,0,0,0,0
28.549444,-0.878906,-2.179688,0.007812,0.000000,0.000000,-0.008986,0.008912,0.005432,-0.116421,0.000000,0.002930,0.000000,0,0,0,0
28.559212,-0.878906,-2.179688,0.007812,0.000000,0.000000,-0.009199,0.008912,0.005432,-0.116421,0.001465,-0.003662,-0.001709,0,0,0,0
28.568977,-0.878906,-2.179688,0.007812,0.000000,0.000000,-0.008780,0.008912,0.005432,-0.116421,-0.001221,0.000732,0.001953,0,0,0,0
28.578743,-0.878906,-2.179688,0.007812,0.000000,0.000000,-0.008682,0.008912,0.005432,-0.116421,0.000000,-0.001709,0.000977,0,0,0,0
28.588509,-0.878906,-2.179688,0.007812,0.000000,0.000000,-0.009094,0.008912,0.005432,-0.116421,0.000977,0.000732,0.000977,0,0,0,0
28.598282,-0.878906,-2.179688,0.007812,0.000000,0.000000,-0.009058,0.008912,0.005432,-0.116421,0.002197,-0.001221,-0.000732,0,0,0,0
28.608038,-0.878906,-2.179688,0.007812,0.000000,0.000000,-0.008564,0.008912,0.005432,-0.116421,0.002686,-0.000732,0.003662,0,0,0,0
28.617804,-0.878906,-2.179688,0.007812,0.000000,0.000000,-0.008640,0.008912,0.005432,-0.116421,0.000977,-0.000244,0.000000,0,0,0,0
28.627569,-0.878906,-2.179688,0.007812,0.000000,0.000000,-0.008638,0.008912,0.005432,-0.116421,-0.003174,0.001221,0.000488,0,0,0,0
28.637337,-0.878906,-2.179688,0.007812,0.000000,0.000000,-0.007948,0.008912,0.005432,-0.116421,0.000000,-0.001221,-0.001221,0,0,0,0
28.647100,-0.878906,-2.179688,0.007812,0.000000,0.000000,-0.007793,0.008912,0.005432,-0.116421,0.000000,-0.001221,0.001465,0,0,0,0
28.656868,-0.878906,-2.179688,0.007812,0.000000,0.000000,-0.007774,0.008912,0.005432,-0.116421,0.000000,0.001221,0.000000,0,0,0,0
28.666637,-0.878906,-2.179688,0.007812,0.000000,0.000000,-0.008238,0.008789,0.005371,-0.116211,0.000000,0.001953,0.001465,0,0,0,0
28.676397,-0.878906,-2.179688,0.007812,0.000000,0.000000,-0.008564,0.008912,0.005371,-0.116421,-0.003174,-0.001709,0.002686,0,0,0,0
28.686165,-0.878906,-2.179688,0.007812,0.000000,0.000000,-0.008972,0.008912,0.005371,-0.116421,-0.000488,0.000732,-0.001221,0,0,0,0
28.695929,-0.878906,-2.179688,0.007812,0.000000,0.000000,-0.009184,0.008912,0.005371,-0.116421,-0.001709,-0.002197,0.000000,0,0,0,0
28.705694,-0.878906,-2.179688,0.007812,0.000000,0.000000,-0.008562,0.008912,0.005371,-0.116421,-0.001221,-0.000732,-0.000732,0,0,0,0
28.715462,-0.878906,-2.179688,0.007812,0.000000,0.000000,-0.008684,0.008912,0.005371,-0.116421,0.001465,-0.001709,0.000000,0,0,0,0
28.725225,-0.878906,-2.179688,0.007812,0.000000,0.000000,-0.008900,0.008912,0.005371,-0.116421,-0.002197,-0.002197,-0.003174,0,0,0,0
28.734993,-0.878906,-2.179688,0.007812,0.000000,0.000000,-0.008104,0.008912,0.005371,-0.116421,-0.001709,0.003418,0.001465,0,0,0,0
28.744759,-0.878906,-2.179688,0.007812,0.000000,0.000000,-0.009897,0.008912,0.005371,-0.116421,0.000488,-0.000732,0.001953,0,0,0,0
28.754522,-0.878906,-2.179688,0.007812,0.000000,0.000000,-0.009817,0.008912,0.005371,-0.116421,-0.001709,0.000244,-0.000732,0,0,0,0
28.764290,-0.878906,-2.179688,0.007812,0.000000,0.000000,-0.009808,0.008912,0.005371,-0.116421,0.001465,-0.000732,0.001465,0,0,0,0
28.774055,-0.878906,-2.179688,0.007812,0.000000,0.000000,-0.008583,0.008912,0.005371,-0.116421,-0.001221,0.002930,0.002686,0,0,0,0
28.783823,-0.878906,-2.179688,0.007812,0.000000,0.000000,-0.008852,0.008912,0.005371,-0.116421,0.001465,-0.001221,0.001953,0,0,0,0
28.793585,-0.878906,-2.179688,0.007812,0.000000,0.000000,-0.009268,0.008912,0.005371,-0.116421,0.002197,-0.000732,-0.000732,0,0,0,0
28.803352,-0.878906,-2.179688,0.007812,0.000000,0.000000,-0.008226,0.008912,0.005371,-0.116421,-0.002686,-0.001221,-0.000732,0,0,0,0
28.813118,-0.878906,-2.179688,0.007812,0.000000,0.000000,-0.008549,0.008912,0.005371,-0.116421,0.000488,-0.000732,-0.000732,0,0,0,0
28.822882,-0.878906,-2.179688,0.007812,0.000000,0.000000,-0.008846,0.008912,0.005371,-0.116421,0.002197,0.000732,-0.001221,0,0,0,0
28.832647,-0.878906,-2.179688,0.007812,0.000000,0.000000,-0.008955,0.008912,0.005371,-0.116421,-0.001709,-0.001709,-0.000732,0,0,0,0
28.842413,-0.878906,-2.179688,0.007812,0.000000,0.000000,-0.009251,0.008912,0.005371,-0.116421,0.000000,-0.001221,0.000000,0,0,0,0
28.852180,-0.878906,-2.179688,0.007812,0.000000,0.000000,-0.009192,0.008912,0.005371,-0.116421,0.000000,0.001221,-0.000732,0,0,0,0
28.861948,-0.878906,-2.179688,0.007812,0.000000,0.000000,-0.009281,0.008912,0.005371,-0.116421,-0.001221,-0.000244,0.001953,0,0,0,0
28.871712,-0.878906,-2.179688,0.007812,0.000000,0.000000,-0.009083,0.008912,0.005371,-0.116421,-0.001709,0.002930,-0.002686,0,0,0,0
28.881475,-0.878906,-2.179688,0.007812,0.000000,0.000000,-0.009260,0.008912,0.005371,-0.116421,0.002686,0.001221,0.000977,0,0,0,0
28.891247,-0.878906,-2.179688,0.007812,0.000000,0.000000,-0.008114,0.008789,0.005371,-0.116211,-0.001221,0.001953,0.001953,0,0,0,0
28.901011,-0.878906,-2.179688,0.007812,0.000000,0.000000,-0.008394,0.008789,0.005371,-0.116211,0.002197,0.001953,0.001465,0,0,0,0
28.910774,-0.878906,-2.179688,0.007812,0.000000,0.000000,-0.008377,0.008789,0.005371,-0.116211,-0.002197,0.003418,0.000977,0,0,0,0
28.920540,-0.878906,-2.179688,0.007812,0.000000,0.000000,-0.008686,0.008789,0.005371,-0.116211,0.004150,-0.000244,0.000488,0,0,0,0
28.930304,-0.878906,-2.179688,0.007812,0.000000,0.000000,-0.008768,0.008789,0.005371,-0.116211,0.000000,-0.001221,0.001953,0,0,0,0
28.940075,-0.878906,-2.179688,0.007812,0.000000,0.000000,-0.008335,0.008789,0.005371,-0.116211,0.000488,-0.000244,-0.001709,0,0,0,0
28.949835,-0.878906,-2.179688,0.007812,0.000000,0.000000,-0.008835,0.008789,0.005371,-0.116211,0.001465,-0.001221,-0.000732,0,0,0,0
28.959600,-0.878906,-2.179688,0.007812,0.000000,0.000000,-0.009300,0.008789,0.005371,-0.116211,0.000000,-0.001221,-0.001709,0,0,0,0
28.969372,-0.878906,-2.179688,0.007812,0.000000,0.000000,-0.008871,0.008978,0.005414,-0.116376,-0.001221,0.000732,-0.001221,0,0,0,0
28.979132,-0.878906,-2.179688,0.007812,0.000000,0.000000,-0.009506,0.008789,0.005371,-0.116211,0.000000,0.000732,0.000977,0,0,0,0
28.988899,-0.878906,-2.179688,0.007812,0.000000,0.000000,-0.009501,0.008789,0.005371,-0.116211,-0.000488,0.000244,0.000977,0,0,0,0
28.998665,-0.878906,-2.179688,0.007812,0.000000,0.000000,-0.009533,0.008789,0.005371,-0.116211,0.000488,-0.000244,0.001465,0,0,0,0
29.008429,-0.878906,-2.179688,0.007812,0.000000,0.000000,-0.008783,0.008789,0.005371,-0.116211,-0.001221,-0.001709,0.000977,0,0,0,0
29.018194,-0.878906,-2.179688,0.007812,0.000000,0.000000,-0.009249,0.008789,0.005371,-0.116211,-0.000488,-0.000244,-0.001221,0,0,0,0
29.027960,-0.878906,-2.179688,0.007812,0.000000,0.000000,-0.009474,0.008789,0.005371,-0.116211,0.000488,-0.001221,-0.001221,0,0,0,0
29.037727,-0.878906,-2.179688,0.007812,0.000000,0.000000,-0.008947,0.008789,0.005371,-0.116211,-0.001709,0.000244,-0.000732,0,0,0,0
29.047491,-0.878906,-2.179688,0.007812,0.000000,0.000000,-0.009018,0.008789,0.005371,-0.116211,0.000488,0.001953,0.000488,0,0,0,0
29.057257,-0.878906,-2.179688,0.007812,0.000000,0.000000,-0.009970,0.008789,0.005371,-0.116211,-0.001221,-0.001709,0.000488,0,0,0,0
29.067024,-0.878906,-2.179688,0.007812,0.000000,0.000000,-0.010054,0.008789,0.005371,-0.116211,-0.000488,-0.001221,0.000977,0,0,0,0
29.076790,-0.878906,-2.179688,0.007812,0.000000,0.000000,-0.009087,0.008789,0.005371,-0.116211,0.000000,0.000732,-0.002197,0,0,0,0
29.086555,-0.878906,-2.179688,0.007812,0.000000,0.000000,-0.008812,0.008789,0.005371,-0.116211,0.003174,-0.000732,-0.001709,0,0,0,0
29.096319,-0.878906,-2.179688,0.007812,0.000000,0.000000,-0.008593,0.008789,0.005371,-0.116211,-0.002686,0.000244,-0.000732,0,0,0,0
29.106085,-0.878906,-2.179688,0.007812,0.000000,0.000000,-0.008165,0.008789,0.005371,-0.116211,0.000000,0.002441,-0.000732,0,0,0,0
29.115850,-0.878906,-2.179688,0.007812,0.000000,0.000000,-0.008276,0.008789,0.005371,-0.116211,-0.001709,-0.003662,0.000488,0,0,0,0
29.125616,-0.878906,-2.179688,0.007812,0.000000,0.000000,-0.008297,0.008789,0.005371,-0.116211,0.001465,0.001953,-0.001709,0,0,0,0
29.135384,-0.878906,-2.179688,0.007812,0.000000,0.000000,-0.008463,0.008789,0.005371,-0.116211,0.002686,-0.000244,0.000000,0,0,0,0
29.145147,-0.878906,-2.179688,0.007812,0.000000,0.000000,-0.008093,0.008789,0.005371,-0.116211,0.001465,0.000732,0.000977,0,0,0,0
29.154915,-0.878906,-2.179688,0.007812,0.000000,0.000000,-0.008404,0.008789,0.005371,-0.116211,-0.000488,0.002441,-0.000732,0,0,0,0
29.164684,-0.878906,-2.179688,0.007812,0.000000,0.000000,-0.008627,0.008789,0.005371,-0.116211,0.000488,-0.001221,0.000977,0,0,0,0
29.174446,-0.878906,-2.179688,0.007812,0.000000,0.000000,-0.007641,0.008789,0.005371,-0.116211,-0.001221,-0.000732,-0.000732,0,0,0,0
29.184212,-0.878906,-2.179688,0.007812,0.000000,0.000000,-0.007736,0.008789,0.005371,-0.116211,0.000488,-0.000244,-0.000732,0,0,0,0
29.193979,-0.878906,-2.179688,0.007812,0.000000,0.000000,-0.008022,0.008789,0.005371,-0.116211,-0.001221,-0.000244,-0.001709,0,0,0,0
29.203760,-0.878906,-2.179688,0.007812,0.000000,0.000000,-0.008690,0.008789,0.005371,-0.116211,0.000000,0.000732,0.000977,0,0,0,0
29.213509,-0.878906,-2.179688,0.007812,0.000000,0.000000,-0.007734,0.008789,0.005371,-0.116211,-0.001221,-0.000732,0.000000,0,0,0,0
29.223272,-0.878906,-2.179688,0.007812,0.000000,0.000000,-0.007908,0.008789,0.005371,-0.116211,-0.000488,-0.002197,-0.001221,0,0,0,0
29.233040,-0.878906,-2.179688,0.007812,0.000000,0.000000,-0.008352,0.008789,0.005371,-0.116211,-0.001709,0.000732,0.000000,0,0,0,0
29.242805,-0.878906,-2.179688,0.007812,0.000000,0.000000,-0.008066,0.008789,0.005371,-0.116211,-0.004395,0.000244,0.000977,0,0,0,0
29.252571,-0.878906,-2.179688,0.007812,0.000000,0.000000,-0.008055,0.008789,0.005371,-0.116211,0.000000,-0.001221,0.000000,0,0,0,0
29.262337,-0.878906,-2.179688,0.007812,0.000000,0.000000,-0.008263,0.008789,0.005371,-0.116211,0.003174,-0.000732,-0.000732,0,0,0,0
29.272104,-0.878906,-2.179688,0.007812,0.000000,0.000000,-0.007706,0.008978,0.005414,-0.116376,0.000000,-0.000732,0.000488,0,0,0,0
29.281866,-0.878906,-2.179688,0.007812,0.000000,0.000000,-0.007605,0.008789,0.005371,-0.116211,0.003174,0.000732,0.001465,0,0,0,0
29.291634,-0.878906,-2.179688,0.007812,0.000000,0.000000,-0.007647,0.008789,0.005371,-0.116211,0.002686,-0.000732,-0.000732,0,0,0,0
29.301397,-0.878906,-2.179688,0.007812,0.000000,0.000000,-0.007803,0.008789,0.005371,-0.116211,0.000488,-0.000244,-0.000732,0,0,0,0
29.311167,-0.878906,-2.179688,0.007812,0.000000,0.000000,-0.007347,0.008789,0.005371,-0.116211,0.000977,0.000244,0.000000,0,0,0,0
29.320932,-0.878906,-2.179688,0.007812,0.000000,0.000000,-0.007563,0.008789,0.005371,-0.116211,-0.001709,0.000732,0.000977,0,0,0,0
29.330694,-0.878906,-2.179688,0.007812,0.000000,0.000000,-0.007479,0.008789,0.005371,-0.116211,0.002197,0.001221,0.001465,0,0,0,0
29.340462,-0.878906,-2.179688,0.007812,0.000000,0.000000,-0.007324,0.008789,0.005371,-0.116211,-0.003174,0.002930,0.000000,0,0,0,0
29.350225,-0.878906,-2.179688,0.007812,0.000000,0.000000,-0.007160,0.008789,0.005371,-0.116211,0.000488,-0.001221,0.000000,0,0,0,0
29.359991,-0.878906,-2.179688,0.007812,0.000000,0.000000,-0.007624,0.008789,0.005371,-0.116211,-0.003174,0.001953,0.000000,0,0,0,0
29.369759,-0.878906,-2.179688,0.007812,0.000000,0.000000,-0.008036,0.008789,0.005371,-0.116211,0.000000,-0.000244,-0.001221,0,0,0,0
29.379532,-0.878906,-2.179688,0.007812,0.000000,0.000000,-0.007393,0.008789,0.005371,-0.116211,-0.001221,0.001221,0.000977,0,0,0,0
29.389290,-0.878906,-2.179688,0.007812,0.000000,0.000000,-0.007353,0.008789,0.005371,-0.116211,0.000488,0.000244,-0.000732,0,0,0,0
29.399054,-0.878906,-2.179688,0.007812,0.000000,0.000000,-0.007120,0.008789,0.005371,-0.116211,0.000488,0.000732,0.000977,0,0,0,0
29.408819,-0.878906,-2.179688,0.007812,0.000000,0.000000,-0.006664,0.008789,0.005371,-0.116211,0.000000,0.000244,0.000977,0,0,0,0
29.418585,-0.878906,-2.179688,0.007812,0.000000,0.000000,-0.006893,0.008789,0.005371,-0.116211,0.000488,0.000244,0.000488,0,0,0,0
29.428350,-0.878906,-2.179688,0.007812,0.000000,0.000000,-0.006929,0.008789,0.005371,-0.116211,0.001465,0.000244,-0.000732,0,0,0,0
29.438120,-0.878906,-2.179688,0.007812,0.000000,0.000000,-0.007153,0.008789,0.005371,-0.116211,-0.000488,0.001953,-0.000732,0,0,0,0
29.447884,-0.878906,-2.179688,0.007812,0.000000,0.000000,-0.007118,0.008789,0.005371,-0.116211,0.000977,0.000244,0.000000,0,0,0,0
29.457647,-0.878906,-2.179688,0.007812,0.000000,0.000000,-0.007069,0.008789,0.005371,-0.116211,0.002197,0.002930,0.000488,0,0,0,0
29.467417,-0.878906,-2.179688,0.007812,0.000000,0.000000,-0.007393,0.008789,0.005371,-0.116211,0.002197,-0.000244,0.000000,0,0,0,0
29.477180,-0.878906,-2.179688,0.007812,0.000000,0.000000,-0.007059,0.008789,0.005371,-0.116211,-0.002197,0.001221,0.000000,0,0,0,0
29.486944,-0.878906,-2.179688,0.007812,0.000000,0.000000,-0.007048,0.008789,0.005371,-0.116211,-0.001709,0.000244,-0.002686,0,0,0,0
29.496710,-0.878906,-2.179688,0.007812,0.000000,0.000000,-0.007326,0.008789,0.005371,-0.116211,-0.001709,0.001221,-0.001221,0,0,0,0
29.506477,-0.878906,-2.179688,0.007812,0.000000,0.000000,-0.006815,0.008978,0.005414,-0.116376,0.000000,0.000732,0.001465,0,0,0,0
29.516243,-0.878906,-2.179688,0.007812,0.000000,0.000000,-0.007166,0.008789,0.005371,-0.116211,-0.000488,-0.001221,0.001465,0,0,0,0
29.526009,-0.878906,-2.179688,0.007812,0.000000,0.000000,-0.007650,0.008789,0.005371,-0.116211,-0.005859,0.001221,0.000488,0,0,0,0
29.535772,-0.878906,-2.179688,0.007812,0.000000,0.000000,-0.008080,0.008789,0.005371,-0.116211,-0.001709,-0.000244,0.001465,0,0,0,0
29.545540,-0.878906,-2.179688,0.007812,0.000000,0.000000,-0.007635,0.008789,0.005371,-0.116211,-0.001221,0.001221,0.000000,0,0,0,0
29.555304,-0.878906,-2.179688,0.007812,0.000000,0.000000,-0.007811,0.008789,0.005371,-0.116211,-0.000488,0.000244,0.001953,0,0,0,0
29.565069,-0.878906,-2.179688,0.007812,0.000000,0.000000,-0.007998,0.008789,0.005371,-0.116211,-0.002686,0.000732,0.002686,0,0,0,0
29.574837,-0.878906,-2.179688,0.007812,0.000000,0.000000,-0.007366,0.008789,0.005371,-0.116211,0.000000,-0.000244,-0.000732,0,0,0,0
29.584602,-0.878906,-2.179688,0.007812,0.000000,0.000000,-0.007372,0.008789,0.005371,-0.116211,0.002197,-0.000244,0.001953,0,0,0,0
29.594370,-0.878906,-2.179688,0.007812,0.000000,0.000000,-0.007559,0.008789,0.005371,-0.116211,0.001465,-0.000732,0.000977,0,0,0,0
29.604134,-0.878906,-2.179688,0.007812,0.000000,0.000000,-0.008385,0.008789,0.005371,-0.116211,0.000977,-0.000244,0.000000,0,0,0,0
29.613897,-0.878906,-2.179688,0.007812,0.000000,0.000000,-0.007763,0.008789,0.005371,-0.116211,0.000977,0.001953,0.000488,0,0,0,0
29.623667,-0.878906,-2.179688,0.007812,0.000000,0.000000,-0.008255,0.008789,0.005371,-0.116211,0.000977,0.002441,0.001465,0,0,0,0
29.633429,-0.878906,-2.179688,0.007812,0.000000,0.000000,-0.008600,0.008789,0.005371,-0.116211,0.002197,0.000244,-0.003174,0,0,0,0
29.643194,-0.878906,-2.179688,0.007812,0.000000,0.000000,-0.007946,0.008789,0.005371,-0.116211,0.002197,0.001221,0.003174,0,0,0,0
29.652960,-0.878906,-2.179688,0.007812,0.000000,0.000000,-0.008001,0.008789,0.005371,-0.116211,0.000000,-0.001221,-0.001221,0,0,0,0
29.662725,-0.878906,-2.179688,0.007812,0.000000,0.000000,-0.007956,0.008789,0.005371,-0.116211,0.001465,-0.001221,0.001465,0,0,0,0
29.672497,-0.878906,-2.179688,0.007812,0.000000,0.000000,-0.008020,0.008789,0.005127,-0.116211,-0.002686,0.002441,-0.001709,0,0,0,0
29.682266,-0.878906,-2.179688,0.007812,0.000000,0.000000,-0.007277,0.008789,0.005127,-0.116211,-0.001221,-0.000732,0.000977,0,0,0,0
29.692022,-0.878906,-2.179688,0.007812,0.000000,0.000000,-0.007515,0.008789,0.005127,-0.116211,0.000488,0.000732,-0.001221,0,0,0,0
29.701788,-0.878906,-2.179688,0.007812,0.000000,0.000000,-0.007957,0.008789,0.005127,-0.116211,0.000488,-0.000732,-0.002197,0,0,0,0
29.711555,-0.878906,-2.179688,0.007812,0.000000,0.000000,-0.007826,0.008789,0.005127,-0.116211,-0.000488,-0.001221,-0.001221,0,0,0,0
29.721319,-0.878906,-2.179688,0.007812,0.000000,0.000000,-0.007969,0.008789,0.005127,-0.116211,-0.001221,0.001221,0.000488,0,0,0,0
29.731087,-0.878906,-2.179688,0.007812,0.000000,0.000000,-0.008255,0.008789,0.005127,-0.116211,0.000000,-0.000244,0.003662,0,0,0,0
29.740850,-0.878906,-2.179688,0.007812,0.000000,0.000000,-0.008003,0.008789,0.005127,-0.116211,-0.000488,0.000244,-0.000732,0,0,0,0
29.750618,-0.878906,-2.179688,0.007812,0.000000,0.000000,-0.008614,0.008789,0.005127,-0.116211,-0.000488,0.000732,0.000977,0,0,0,0
29.760382,-0.878906,-2.179688,0.007812,0.000000,0.000000,-0.008947,0.008789,0.005127,-0.116211,-0.000488,-0.000244,-0.000732,0,0,0,0
29.770149,-0.878906,-2.179688,0.007812,0.000000,0.000000,-0.009125,0.008789,0.005127,-0.116211,0.001465,0.001953,-0.001221,0,0,0,0
29.779915,-0.878906,-2.179688,0.007812,0.000000,0.000000,-0.008980,0.008789,0.005127,-0.116211,0.000977,-0.000732,-0.000732,0,0,0,0
29.789680,-0.878906,-2.179688,0.007812,0.000000,0.000000,-0.009457,0.008789,0.005127,-0.116211,-0.001709,0.000244,-0.000732,0,0,0,0
29.799444,-0.878906,-2.179688,0.007812,0.000000,0.000000,-0.009632,0.008789,0.005127,-0.116211,0.002197,-0.001221,-0.001709,0,0,0,0
29.809214,-0.878906,-2.179688,0.007812,0.000000,0.000000,-0.009043,0.008920,0.005350,-0.116376,0.000488,0.002930,0.000488,0,0,0,0
29.818975,-0.878906,-2.179688,0.007812,0.000000,0.000000,-0.009319,0.008789,0.005127,-0.116211,-0.002197,0.000732,0.000000,0,0,0,0
29.828741,-0.878906,-2.179688,0.007812,0.000000,0.000000,-0.009617,0.008789,0.005127,-0.116211,-0.001221,0.001221,0.001465,0,0,0,0
29.838511,-0.878906,-2.179688,0.007812,0.000000,0.000000,-0.009773,0.008789,0.005127,-0.116211,0.000488,-0.000244,0.002686,0,0,0,0
29.848272,-0.878906,-2.179688,0.007812,0.000000,0.000000,-0.009333,0.008789,0.005127,-0.116211,0.000488,-0.000732,0.000000,0,0,0,0
29.858040,-0.878906,-2.179688,0.007812,0.000000,0.000000,-0.009480,0.008789,0.005127,-0.116211,0.000000,-0.002197,0.000000,0,0,0,0
29.867804,-0.878906,-2.179688,0.007812,0.000000,0.000000,-0.009295,0.008789,0.005127,-0.116211,-0.001709,0.000244,-0.000732,0,0,0,0
29.877569,-0.878906,-2.179688,0.007812,0.000000,0.000000,-0.008675,0.008789,0.005127,-0.116211,0.000000,-0.001221,-0.001709,0,0,0,0
29.887337,-0.878906,-2.179688,0.007812,0.000000,0.000000,-0.009050,0.008789,0.005127,-0.116211,0.000488,-0.000244,0.001465,0,0,0,0
29.897100,-0.878906,-2.179688,0.007812,0.000000,0.000000,-0.009119,0.008789,0.005127,-0.116211,0.000000,-0.002686,0.000488,0,0,0,0
29.906868,-0.878906,-2.179688,0.007812,0.000000,0.000000,-0.008890,0.008789,0.005127,-0.116211,0.000000,0.001221,0.001465,0,0,0,0
29.916632,-0.878906,-2.179688,0.007812,0.000000,0.000000,-0.008251,0.008789,0.005127,-0.116211,-0.002197,0.003418,-0.001709,0,0,0,0
29.926397,-0.878906,-2.179688,0.007812,0.000000,0.000000,-0.008505,0.008789,0.005127,-0.116211,0.000488,-0.000244,-0.001221,0,0,0,0
29.936165,-0.878906,-2.179688,0.007812,0.000000,0.000000,-0.009382,0.008789,0.005127,-0.116211,0.001465,0.001221,0.001465,0,0,0,0
29.945929,-0.878906,-2.179688,0.007812,0.000000,0.000000,-0.009071,0.008789,0.005127,-0.116211,0.000977,-0.000244,-0.002197,0,0,0,0
29.955694,-0.878906,-2.179688,0.007812,0.000000,0.000000,-0.009153,0.008789,0.005127,-0.116211,0.001465,0.002441,0.001953,0,0,0,0
29.965460,-0.878906,-2.179688,0.007812,0.000000,0.000000,-0.009249,0.008789,0.005127,-0.116211,0.000977,0.000732,0.000977,0,0,0,0
29.975227,-0.878906,-2.179688,0.007812,0.000000,0.000000,-0.008732,0.008789,0.005127,-0.116211,0.000000,0.000244,0.001465,0,0,0,0
29.985001,-0.878906,-2.179688,0.007812,0.000000,0.000000,-0.009010,0.008789,0.005127,-0.116211,0.000977,-0.000244,0.001465,0,0,0,0
29.994759,-0.878906,-2.179688,0.007812,0.000000,0.000000,-0.008787,0.008789,0.005127,-0.116211,-0.000488,-0.002686,-0.000732,0,0,0,0
