time,pos_x,pos_y,pos_z,vel_x,vel_y,vel_z,att_phi,att_theta,att_psi,rate_p,rate_q,rate_r,cmd_thrust,cmd_roll,cmd_pitch,cmd_yaw
10.861934,-1.718750,-1.289062,0.007812,0.000000,0.000000,-0.029226,0.000549,-0.022280,-0.050080,0.001709,-0.001465,0.000488,0,0,0,0
10.871700,-1.718750,-1.289062,0.007812,0.000000,0.000000,-0.030020,0.000549,-0.022280,-0.050080,0.000488,-0.000488,0.000000,0,0,0,0
10.881468,-1.718750,-1.289062,0.003906,0.000000,0.000000,-0.030716,0.000549,-0.022280,-0.050080,-0.002197,0.003662,-0.001221,0,0,0,0
10.891232,-1.718750,-1.289062,0.007812,0.000000,0.000000,-0.028370,0.000549,-0.022280,-0.050080,0.000488,-0.001465,0.002197,0,0,0,0
10.901001,-1.718750,-1.289062,0.007812,0.000000,0.000000,-0.029099,0.000549,-0.022280,-0.050080,-0.000488,-0.000977,0.000488,0,0,0,0
10.910766,-1.718750,-1.289062,0.007812,0.000000,0.000000,-0.029287,0.000549,-0.022280,-0.050080,-0.003174,-0.001953,0.000977,0,0,0,0
10.920532,-1.718750,-1.289062,0.007812,0.000000,0.000000,-0.027487,0.000549,-0.022280,-0.050080,-0.002686,0.000488,0.000000,0,0,0,0
10.930295,-1.718750,-1.289062,0.007812,0.000000,0.000000,-0.027889,0.000549,-0.022280,-0.050080,-0.003662,-0.001953,0.002686,0,0,0,0
10.940063,-1.718750,-1.289062,0.007812,0.000000,0.000000,-0.028828,0.000549,-0.022280,-0.050080,-0.000977,0.000000,-0.000488,0,0,0,0
10.949832,-1.718750,-1.289062,0.007812,0.000000,0.000000,-0.029514,0.000549,-0.022280,-0.050080,0.000000,0.002197,-0.002197,0,0,0,0
10.959593,-1.718750,-1.289062,0.007812,0.000000,0.000000,-0.027672,0.000549,-0.022280,-0.050080,0.000977,0.002197,-0.001709,0,0,0,0
10.969359,-1.718750,-1.289062,0.007812,0.000000,0.000000,-0.028284,0.000549,-0.022219,-0.050080,-0.003174,0.003174,-0.001709,0,0,0,0
10.979127,-1.718750,-1.289062,0.007812,0.000000,0.000000,-0.028603,0.000549,-0.022219,-0.050080,-0.001465,0.002197,0.002197,0,0,0,0
10.988890,-1.718750,-1.289062,0.007812,0.000000,0.000000,-0.027159,0.000549,-0.022219,-0.050080,-0.000977,0.000000,-0.000488,0,0,0,0
10.998658,-1.718750,-1.289062,0.007812,0.000000,0.000000,-0.027925,0.000549,-0.022219,-0.050080,0.000488,0.000000,0.002197,0,0,0,0
11.008419,-1.718750,-1.289062,0.007812,0.000000,0.000000,-0.027199,0.000549,-0.022219,-0.050080,-0.002686,0.002197,0.000000,0,0,0,0
11.018188,-1.718750,-1.289062,0.007812,0.000000,0.000000,-0.025900,0.000549,-0.022219,-0.050080,-0.003174,0.002686,-0.001709,0,0,0,0
11.027950,-1.718750,-1.289062,0.007812,0.000000,0.000000,-0.026752,0.000549,-0.022219,-0.050080,-0.000977,0.000977,0.001465,0,0,0,0
11.037720,-1.718750,-1.289062,0.007812,0.000000,0.000000,-0.027233,0.000549,-0.022219,-0.050080,0.000000,0.000488,-0.000488,0,0,0,0
11.047483,-1.718750,-1.289062,0.007812,0.000000,0.000000,-0.027590,0.000549,-0.022219,-0.050080,-0.001465,0.000000,-0.001709,0,0,0,0
11.057247,-1.718750,-1.289062,0.007812,0.000000,0.000000,-0.026213,0.000549,-0.022219,-0.050080,0.000488,-0.003418,0.000977,0,0,0,0
11.067013,-1.718750,-1.289062,0.007812,0.000000,0.000000,-0.026934,0.000549,-0.022219,-0.050080,-0.001465,-0.002441,0.002197,0,0,0,0
11.076785,-1.718750,-1.289062,0.007812,0.000000,0.000000,-0.027641,0.000549,-0.022219,-0.050080,0.001709,-0.000488,0.001465,0,0,0,0
11.086545,-1.718750,-1.289062,0.007812,0.000000,0.000000,-0.025606,0.000549,-0.022219,-0.050080,0.002686,0.001465,0.000977,0,0,0,0
11.096309,-1.718750,-1.289062,0.007812,0.000000,0.000000,-0.026213,0.000549,-0.022219,-0.050080,0.000488,-0.000488,-0.001221,0,0,0,0
11.106075,-1.718750,-1.289062,0.007812,0.000000,0.000000,-0.026991,0.000549,-0.022219,-0.050080,0.000488,-0.002441,-0.002686,0,0,0,0
11.115846,-1.718750,-1.289062,0.007812,0.000000,0.000000,-0.027605,0.000549,-0.022219,-0.050080,0.002686,0.000000,-0.000488,0,0,0,0
11.125609,-1.718750,-1.289062,0.007812,0.000000,0.000000,-0.026762,0.000549,-0.022219,-0.050080,0.001709,-0.000977,0.000000,0,0,0,0
11.135374,-1.718750,-1.289062,0.007812,0.000000,0.000000,-0.027376,0.000488,-0.022217,-0.050049,-0.000977,-0.001465,0.002686,0,0,0,0
11.145138,-1.718750,-1.289062,0.007812,0.000000,0.000000,-0.027668,0.000549,-0.022219,-0.050080,-0.001465,0.000000,0.001465,0,0,0,0
11.154907,-1.718750,-1.289062,0.007812,0.000000,0.000000,-0.026405,0.000549,-0.022219,-0.050080,0.002197,-0.001465,0.000977,0,0,0,0
11.164670,-1.718750,-1.289062,0.007812,0.000000,0.000000,-0.026194,0.000549,-0.022219,-0.050080,-0.000488,0.000000,-0.001221,0,0,0,0
11.174434,-1.718750,-1.289062,0.007812,0.000000,0.000000,-0.026676,0.000549,-0.022280,-0.050080,0.000000,0.002197,-0.001221,0,0,0,0
11.184200,-1.718750,-1.289062,0.007812,0.000000,0.000000,-0.025410,0.000549,-0.022280,-0.050080,-0.000977,-0.000977,-0.000488,0,0,0,0
11.193966,-1.718750,-1.289062,0.007812,0.000000,0.000000,-0.025501,0.000549,-0.022280,-0.050080,-0.002197,-0.000488,0.000488,0,0,0,0
11.203733,-1.718750,-1.289062,0.007812,0.000000,0.000000,-0.026388,0.000549,-0.022280,-0.050080,0.002197,-0.000488,0.000488,0,0,0,0
11.213500,-1.718750,-1.289062,0.007812,0.000000,0.000000,-0.026815,0.000549,-0.022280,-0.050080,0.000000,-0.001465,-0.001709,0,0,0,0
11.223265,-1.718750,-1.289062,0.007812,0.000000,0.000000,-0.025623,0.000549,-0.022280,-0.050080,-0.002197,0.002197,0.000977,0,0,0,0
11.233029,-1.718750,-1.289062,0.007812,0.000000,0.000000,-0.026388,0.000549,-0.022280,-0.050080,-0.003662,0.002197,0.000977,0,0,0,0
11.242798,-1.718750,-1.289062,0.007812,0.000000,0.000000,-0.025883,0.000549,-0.022280,-0.050080,-0.005371,-0.000977,-0.001221,0,0,0,0
11.252561,-1.718750,-1.289062,0.007812,0.000000,0.000000,-0.024960,0.000549,-0.022280,-0.050080,-0.000488,0.001465,0.001465,0,0,0,0
11.262326,-1.718750,-1.289062,0.007812,0.000000,0.000000,-0.025631,0.000549,-0.022280,-0.050080,-0.001465,-0.001953,-0.001709,0,0,0,0
11.272092,-1.718750,-1.289062,0.007812,0.000000,0.000000,-0.025938,0.000549,-0.022280,-0.050080,-0.000977,-0.001953,0.000488,0,0,0,0
11.281858,-1.718750,-1.289062,0.007812,0.000000,0.000000,-0.026606,0.000549,-0.022280,-0.050080,0.000488,0.000488,-0.001221,0,0,0,0
11.291624,-1.718750,-1.289062,0.007812,0.000000,0.000000,-0.025661,0.000549,-0.022280,-0.050080,0.000000,-0.000488,0.000000,0,0,0,0
11.301394,-1.718750,-1.289062,0.007812,0.000000,0.000000,-0.026781,0.000549,-0.022280,-0.050080,-0.001465,0.000488,0.000977,0,0,0,0
11.311154,-1.718750,-1.289062,0.007812,0.000000,0.000000,-0.027445,0.000549,-0.022280,-0.050080,-0.002686,0.000000,-0.001221,0,0,0,0
11.320920,-1.718750,-1.289062,0.007812,0.000000,0.000000,-0.025764,0.000549,-0.022280,-0.050080,0.000977,0.000000,-0.001709,0,0,0,0
11.330686,-1.718750,-1.289062,0.007812,0.000000,0.000000,-0.026381,0.000549,-0.022280,-0.050080,-0.001465,-0.002441,-0.000488,0,0,0,0
11.340450,-1.718750,-1.289062,0.007812,0.000000,0.000000,-0.027084,0.000549,-0.022280,-0.050080,0.001709,-0.000977,0.000488,0,0,0,0
11.350217,-1.718750,-1.289062,0.007812,0.000000,0.000000,-0.026358,0.000549,-0.022280,-0.050080,0.000000,-0.000977,0.000488,0,0,0,0
11.359983,-1.718750,-1.289062,0.007812,0.000000,0.000000,-0.027086,0.000549,-0.022280,-0.050080,0.000488,-0.003418,0.002686,0,0,0,0
11.369748,-1.718750,-1.289062,0.007812,0.000000,0.000000,-0.027454,0.000549,-0.022280,-0.050080,-0.000488,0.002197,0.002197,0,0,0,0
11.379520,-1.718750,-1.289062,0.007812,0.000000,0.000000,-0.028086,0.000549,-0.022280,-0.050080,0.002686,-0.000977,-0.000488,0,0,0,0
11.389281,-1.718750,-1.289062,0.007812,0.000000,0.000000,-0.027111,0.000549,-0.022280,-0.050080,0.001709,0.000488,0.000977,0,0,0,0
11.399049,-1.718750,-1.289062,0.007812,0.000000,0.000000,-0.027794,0.000549,-0.022280,-0.050080,0.000977,0.000977,0.001465,0,0,0,0
11.408814,-1.718750,-1.289062,0.007812,0.000000,0.000000,-0.028236,0.000549,-0.022280,-0.050080,0.000977,-0.001953,0.000488,0,0,0,0
11.418577,-1.718750,-1.289062,0.007812,0.000000,0.000000,-0.026968,0.000549,-0.022280,-0.050080,0.002197,0.000488,0.000000,0,0,0,0
11.428341,-1.718750,-1.289062,0.007812,0.000000,0.000000,-0.027803,0.000549,-0.022280,-0.050080,0.001709,0.001465,0.002686,0,0,0,0
11.438114,-1.718750,-1.289062,0.007812,0.000000,0.000000,-0.028320,0.000488,-0.022217,-0.050049,0.004395,-0.000488,0.002686,0,0,0,0
11.447873,-1.718750,-1.289062,0.007812,0.000000,0.000000,-0.028656,0.000549,-0.022280,-0.050080,0.000488,0.000977,0.000488,0,0,0,0
11.457644,-1.718750,-1.289062,0.007812,0.000000,0.000000,-0.027761,0.000549,-0.022280,-0.050080,0.001709,-0.001465,-0.002686,0,0,0,0
11.467404,-1.718750,-1.289062,0.007812,0.000000,0.000000,-0.028254,0.000549,-0.022280,-0.050080,-0.000977,-0.000977,0.001465,0,0,0,0
11.477170,-1.718750,-1.289062,0.007812,0.000000,0.000000,-0.028189,0.000549,-0.022280,-0.050080,0.000977,-0.001953,0.000977,0,0,0,0
11.486934,-1.718750,-1.289062,0.007812,0.000000,0.000000,-0.026920,0.000549,-0.022280,-0.050080,0.000977,-0.001953,0.000977,0,0,0,0
11.496700,-1.718750,-1.289062,0.007812,0.000000,0.000000,-0.027342,0.000549,-0.022280,-0.050080,0.000977,-0.000977,0.000000,0,0,0,0
11.506466,-1.718750,-1.289062,0.007812,0.000000,0.000000,-0.027824,0.000549,-0.022280,-0.050080,0.002197,0.000000,0.000488,0,0,0,0
11.516239,-1.718750,-1.289062,0.007812,0.000000,0.000000,-0.028208,0.000549,-0.022280,-0.050080,0.000977,0.000977,-0.001221,0,0,0,0
11.525998,-1.718750,-1.289062,0.007812,0.000000,0.000000,-0.026802,0.000549,-0.022280,-0.050080,0.000000,0.002197,-0.000488,0,0,0,0
11.535763,-1.718750,-1.289062,0.007812,0.000000,0.000000,-0.027103,0.000549,-0.022280,-0.050080,0.002686,0.002197,0.000488,0,0,0,0
11.545528,-1.718750,-1.289062,0.007812,0.000000,0.000000,-0.027777,0.000549,-0.022280,-0.050080,0.000000,-0.000488,0.000488,0,0,0,0
11.555299,-1.718750,-1.289062,0.007812,0.000000,0.000000,-0.026550,0.000549,-0.022280,-0.050080,-0.002686,-0.001465,-0.002197,0,0,0,0
11.565060,-1.718750,-1.289062,0.007812,0.000000,0.000000,-0.027176,0.000549,-0.022280,-0.050080,-0.000488,-0.000977,-0.001709,0,0,0,0
11.574829,-1.718750,-1.289062,0.007812,0.000000,0.000000,-0.027571,0.000549,-0.022280,-0.050080,-0.000977,0.000000,-0.001221,0,0,0,0
11.584591,-1.718750,-1.289062,0.007812,0.000000,0.000000,-0.026251,0.000549,-0.022280,-0.050080,0.000000,-0.000977,-0.001221,0,0,0,0
11.594357,-1.718750,-1.289062,0.007812,0.000000,0.000000,-0.026476,0.000549,-0.022280,-0.050080,0.000000,0.000488,0.003174,0,0,0,0
11.604128,-1.718750,-1.289062,0.007812,0.000000,0.000000,-0.027079,0.000549,-0.022280,-0.050080,-0.000977,0.001465,0.002197,0,0,0,0
11.613889,-1.718750,-1.289062,0.007812,0.000000,0.000000,-0.027826,0.000549,-0.022280,-0.050080,-0.002197,-0.001953,0.000977,0,0,0,0
11.623653,-1.718750,-1.289062,0.007812,0.000000,0.000000,-0.026468,0.000549,-0.022280,-0.050080,-0.001465,0.000000,-0.000488,0,0,0,0
11.633420,-1.718750,-1.289062,0.007812,0.000000,0.000000,-0.026608,0.000549,-0.022280,-0.050080,0.003174,-0.000977,0.000488,0,0,0,0
11.643185,-1.718750,-1.289062,0.007812,0.000000,0.000000,-0.027107,0.000549,-0.022280,-0.050080,0.000488,0.000000,0.000000,0,0,0,0
11.652950,-1.718750,-1.289062,0.007812,0.000000,0.000000,-0.026102,0.000549,-0.022280,-0.050080,0.002686,-0.001465,0.000000,0,0,0,0
11.662721,-1.718750,-1.289062,0.007812,0.000000,0.000000,-0.026545,0.000549,-0.022280,-0.050080,-0.001465,0.000000,-0.000488,0,0,0,0
11.672481,-1.718750,-1.289062,0.007812,0.000000,0.000000,-0.027073,0.000549,-0.022280,-0.050080,0.002197,-0.001953,-0.000488,0,0,0,0
11.682253,-1.718750,-1.289062,0.007812,0.000000,0.000000,-0.027693,0.000549,-0.022280,-0.050080,0.000977,0.002686,0.000000,0,0,0,0
11.692012,-1.718750,-1.289062,0.007812,0.000000,0.000000,-0.026760,0.000549,-0.022280,-0.050080,0.000977,0.000000,-0.002197,0,0,0,0
11.701778,-1.718750,-1.289062,0.007812,0.000000,0.000000,-0.027039,0.000549,-0.022280,-0.050080,0.001709,0.002197,0.000000,0,0,0,0
11.711544,-1.718750,-1.289062,0.007812,0.000000,0.000000,-0.027456,0.000549,-0.022280,-0.050080,0.002197,0.000977,0.000000,0,0,0,0
11.721309,-1.718750,-1.289062,0.007812,0.000000,0.000000,-0.026472,0.000549,-0.022280,-0.050080,0.000977,-0.001465,-0.001709,0,0,0,0
11.733029,-1.718750,-1.289062,0.007812,0.000000,0.000000,-0.026842,0.000549,-0.022280,-0.050080,0.000000,0.000000,0.000488,0,0,0,0
11.742794,-1.718750,-1.289062,0.007812,0.000000,0.000000,-0.027792,0.000549,-0.022280,-0.050202,0.002197,0.003174,-0.000488,0,0,0,0
11.752558,-1.718750,-1.289062,0.007812,0.000000,0.000000,-0.026661,0.000549,-0.022280,-0.050202,-0.000488,-0.001465,0.000488,0,0,0,0
11.762325,-1.718750,-1.289062,0.007812,0.000000,0.000000,-0.027065,0.000549,-0.022280,-0.050202,-0.003174,0.002686,-0.001221,0,0,0,0
11.772096,-1.718750,-1.289062,0.007812,0.000000,0.000000,-0.027735,0.000549,-0.022280,-0.050202,0.000977,-0.000488,0.000000,0,0,0,0
11.781872,-1.718750,-1.289062,0.007812,0.000000,0.000000,-0.028208,0.000549,-0.022280,-0.050202,0.000977,0.000977,-0.000488,0,0,0,0
11.791622,-1.718750,-1.289062,0.007812,0.000000,0.000000,-0.025681,0.000549,-0.022280,-0.050202,-0.002197,0.000488,-0.000488,0,0,0,0
11.801388,-1.718750,-1.289062,0.007812,0.000000,0.000000,-0.025909,0.000549,-0.022280,-0.050202,-0.000488,0.004150,0.000977,0,0,0,0
11.811154,-1.718750,-1.289062,0.007812,0.000000,0.000000,-0.026447,0.000549,-0.022280,-0.050202,-0.002197,0.002686,-0.001221,0,0,0,0
11.820918,-1.718750,-1.289062,0.007812,0.000000,0.000000,-0.025616,0.000549,-0.022280,-0.050202,0.000000,0.000977,-0.000488,0,0,0,0
11.830749,-1.718750,-1.289062,0.007812,0.000000,0.000000,-0.026432,0.000549,-0.022280,-0.050202,0.000000,0.000000,-0.001709,0,0,0,0
11.840450,-1.718750,-1.289062,0.007812,0.000000,0.000000,-0.026924,0.000549,-0.022280,-0.050202,0.000000,-0.000488,0.000977,0,0,0,0
11.850222,-1.718750,-1.289062,0.007812,0.000000,0.000000,-0.025753,0.000549,-0.022280,-0.050202,0.000488,-0.001953,0.000000,0,0,0,0
11.859981,-1.718750,-1.289062,0.007812,0.000000,0.000000,-0.026304,0.000549,-0.022280,-0.050202,-0.002197,0.000000,0.000488,0,0,0,0
11.869749,-1.718750,-1.289062,0.007812,0.000000,0.000000,-0.025675,0.000549,-0.022280,-0.050202,0.000000,-0.000977,0.000977,0,0,0,0
11.879515,-1.718750,-1.289062,0.007812,0.000000,0.000000,-0.026518,0.000549,-0.022280,-0.050202,0.000488,-0.001465,0.001465,0,0,0,0
11.889281,-1.718750,-1.289062,0.007812,0.000000,0.000000,-0.025724,0.000549,-0.022280,-0.050202,0.002197,0.002686,0.000977,0,0,0,0
11.899046,-1.718750,-1.289062,0.007812,0.000000,0.000000,-0.026514,0.000549,-0.022280,-0.050202,0.001709,-0.002441,-0.001221,0,0,0,0
11.908816,-1.718750,-1.289062,0.007812,0.000000,0.000000,-0.026920,0.000488,-0.022217,-0.050049,0.000488,-0.000977,0.002197,0,0,0,0
11.918577,-1.718750,-1.289062,0.007812,0.000000,0.000000,-0.026489,0.000549,-0.022280,-0.050202,0.002197,0.001465,-0.000488,0,0,0,0
11.928346,-1.718750,-1.289062,0.007812,0.000000,0.000000,-0.027256,0.000549,-0.022280,-0.050202,0.000977,0.002197,-0.000488,0,0,0,0
11.938108,-1.718750,-1.289062,0.007812,0.000000,0.000000,-0.027779,0.000549,-0.022280,-0.050202,-0.000488,-0.001953,0.000488,0,0,0,0
11.947874,-1.718750,-1.289062,0.007812,0.000000,0.000000,-0.026411,0.000549,-0.022280,-0.050202,-0.000977,0.001465,-0.000488,0,0,0,0
11.957640,-1.718750,-1.289062,0.007812,0.000000,0.000000,-0.025707,0.000549,-0.022280,-0.050202,0.000000,0.001465,0.000000,0,0,0,0
11.967405,-1.718750,-1.289062,0.007812,0.000000,0.000000,-0.026287,0.000549,-0.022280,-0.050202,0.002197,-0.000488,0.000488,0,0,0,0
11.977171,-1.718750,-1.289062,0.007812,0.000000,0.000000,-0.027208,0.000549,-0.022280,-0.050202,0.000000,-0.001465,0.001465,0,0,0,0
11.986939,-1.718750,-1.289062,0.007812,0.000000,0.000000,-0.026403,0.000549,-0.022280,-0.050202,-0.002686,0.000488,0.000488,0,0,0,0
11.996700,-1.718750,-1.289062,0.007812,0.000000,0.000000,-0.026760,0.000549,-0.022280,-0.050202,0.000000,-0.004639,0.000488,0,0,0,0
12.006465,-1.718750,-1.289062,0.007812,0.000000,0.000000,-0.027245,0.000549,-0.022280,-0.050202,-0.003662,0.000977,-0.001709,0,0,0,0
12.016233,-1.718750,-1.289062,0.007812,0.000000,0.000000,-0.026339,0.000549,-0.022280,-0.050202,-0.000977,0.000000,0.000977,0,0,0,0
12.025996,-1.718750,-1.289062,0.007812,0.000000,0.000000,-0.026094,0.000549,-0.022280,-0.050202,0.000000,0.002197,-0.000488,0,0,0,0
12.035766,-1.718750,-1.289062,0.007812,0.000000,0.000000,-0.026861,0.000549,-0.022280,-0.050202,-0.000977,-0.001953,0.000000,0,0,0,0
12.045528,-1.718750,-1.289062,0.007812,0.000000,0.000000,-0.027363,0.000549,-0.022280,-0.050202,-0.002197,-0.002441,0.001465,0,0,0,0
12.055293,-1.718750,-1.289062,0.007812,0.000000,0.000000,-0.026037,0.000549,-0.022280,-0.050202,-0.000488,0.002686,-0.000488,0,0,0,0
12.065059,-1.718750,-1.289062,0.007812,0.000000,0.000000,-0.026653,0.000549,-0.022280,-0.050202,-0.002197,-0.000488,0.000977,0,0,0,0
12.074830,-1.718750,-1.289062,0.007812,0.000000,0.000000,-0.027163,0.000549,-0.022280,-0.050202,-0.001465,0.000000,0.001465,0,0,0,0
12.084591,-1.718750,-1.289062,0.007812,0.000000,0.000000,-0.026320,0.000549,-0.022280,-0.050202,-0.000977,-0.002441,0.000000,0,0,0,0
12.094356,-1.718750,-1.289062,0.007812,0.000000,0.000000,-0.026945,0.000549,-0.022280,-0.050202,0.001709,-0.001465,-0.001221,0,0,0,0
12.104125,-1.718750,-1.289062,0.007812,0.000000,0.000000,-0.026846,0.000549,-0.022280,-0.050202,0.002197,0.000977,-0.000488,0,0,0,0
12.113888,-1.718750,-1.289062,0.007812,0.000000,0.000000,-0.027182,0.000549,-0.022280,-0.050202,0.000977,0.000488,0.001465,0,0,0,0
12.123653,-1.718750,-1.289062,0.007812,0.000000,0.000000,-0.026217,0.000549,-0.022280,-0.050202,0.000488,0.001465,0.000000,0,0,0,0
12.133418,-1.718750,-1.289062,0.007812,0.000000,0.000000,-0.026491,0.000549,-0.022280,-0.050202,-0.002197,0.000000,0.002686,0,0,0,0
12.143184,-1.718750,-1.289062,0.007812,0.000000,0.000000,-0.026611,0.000549,-0.022280,-0.050202,0.000488,0.000488,0.000977,0,0,0,0
12.152956,-1.718750,-1.289062,0.007812,0.000000,0.000000,-0.025543,0.000549,-0.022280,-0.050202,-0.000977,0.000000,0.001465,0,0,0,0
12.162716,-1.718750,-1.289062,0.007812,0.000000,0.000000,-0.025925,0.000549,-0.022280,-0.050202,0.003174,-0.000977,-0.001221,0,0,0,0
12.172481,-1.718750,-1.289062,0.007812,0.000000,0.000000,-0.026255,0.000549,-0.022280,-0.050202,0.000488,0.000977,-0.000488,0,0,0,0
12.182251,-1.718750,-1.289062,0.007812,0.000000,0.000000,-0.025984,0.000549,-0.022280,-0.050202,-0.002197,-0.000488,0.003174,0,0,0,0
12.192012,-1.718750,-1.289062,0.007812,0.000000,0.000000,-0.025003,0.000549,-0.022280,-0.050202,0.000977,0.001465,0.000488,0,0,0,0
12.201778,-1.718750,-1.289062,0.007812,0.000000,0.000000,-0.025633,0.000549,-0.022280,-0.050202,0.000488,-0.000977,-0.001221,0,0,0,0
12.211544,-1.718750,-1.289062,0.007812,0.000000,0.000000,-0.026314,0.000549,-0.022280,-0.050202,0.001709,0.001465,-0.001221,0,0,0,0
12.221309,-1.718750,-1.289062,0.007812,0.000000,0.000000,-0.025347,0.000549,-0.022280,-0.050202,0.002197,-0.000488,0.001465,0,0,0,0
12.231080,-1.718750,-1.289062,0.007812,0.000000,0.000000,-0.026033,0.000549,-0.022280,-0.050202,0.001709,-0.000488,0.002197,0,0,0,0
12.240843,-1.718750,-1.289062,0.007812,0.000000,0.000000,-0.026150,0.000549,-0.022280,-0.050202,0.001709,0.000488,-0.001221,0,0,0,0
12.250612,-1.718750,-1.289062,0.007812,0.000000,0.000000,-0.026413,0.000549,-0.022280,-0.050202,0.003662,-0.000488,0.000977,0,0,0,0
12.260373,-1.718750,-1.289062,0.007812,0.000000,0.000000,-0.024698,0.000549,-0.022280,-0.050202,0.000488,0.000000,-0.001709,0,0,0,0
12.270138,-1.718750,-1.289062,0.007812,0.000000,0.000000,-0.025141,0.000549,-0.022280,-0.050202,0.000000,0.000977,0.000488,0,0,0,0
12.279906,-1.718750,-1.289062,0.007812,0.000000,0.000000,-0.025614,0.000488,-0.022217,-0.050049,0.000488,0.001465,0.000977,0,0,0,0
12.289671,-1.718750,-1.289062,0.007812,0.000000,0.000000,-0.024548,0.000549,-0.022280,-0.050202,-0.001465,0.000000,0.000977,0,0,0,0
12.299439,-1.718750,-1.289062,0.007812,0.000000,0.000000,-0.025187,0.000549,-0.022280,-0.050202,-0.002686,0.001465,0.000977,0,0,0,0
12.309205,-1.718750,-1.289062,0.007812,0.000000,0.000000,-0.025988,0.000549,-0.022280,-0.050202,-0.000488,0.000000,0.001465,0,0,0,0
12.318968,-1.718750,-1.289062,0.007812,0.000000,0.000000,-0.024704,0.000549,-0.022280,-0.050141,0.000977,-0.000488,-0.000488,0,0,0,0
12.328769,-1.718750,-1.289062,0.007812,0.000000,0.000000,-0.024818,0.000549,-0.022280,-0.050141,0.000977,0.003174,-0.002197,0,0,0,0
12.338495,-1.718750,-1.289062,0.007812,0.000000,0.000000,-0.024734,0.000549,-0.022280,-0.050141,-0.000488,0.000000,-0.001221,0,0,0,0
12.348262,-1.718750,-1.289062,0.007812,0.000000,0.000000,-0.025204,0.000549,-0.022280,-0.050141,-0.002197,0.001465,-0.001709,0,0,0,0
12.358030,-1.718750,-1.289062,0.007812,0.000000,0.000000,-0.024172,0.000549,-0.022280,-0.050141,0.000488,-0.002930,-0.001221,0,0,0,0
12.367795,-1.718750,-1.289062,0.007812,0.000000,0.000000,-0.024870,0.000549,-0.022280,-0.050141,-0.000488,0.000488,0.002686,0,0,0,0
12.377561,-1.718750,-1.289062,0.007812,0.000000,0.000000,-0.025358,0.000549,-0.022280,-0.050141,-0.000488,0.000488,-0.001709,0,0,0,0
12.387327,-1.718750,-1.289062,0.007812,0.000000,0.000000,-0.023869,0.000549,-0.022280,-0.050141,-0.003662,-0.001465,-0.001221,0,0,0,0
12.397093,-1.718750,-1.289062,0.007812,0.000000,0.000000,-0.024307,0.000549,-0.022280,-0.050141,0.001709,-0.000488,-0.001221,0,0,0,0
12.406860,-1.718750,-1.289062,0.007812,0.000000,0.000000,-0.024891,0.000549,-0.022280,-0.050141,0.001709,-0.000977,-0.002197,0,0,0,0
12.416624,-1.718750,-1.289062,0.007812,0.000000,0.000000,-0.025633,0.000549,-0.022280,-0.050141,-0.000488,0.000977,0.002197,0,0,0,0
12.426389,-1.718750,-1.289062,0.007812,0.000000,0.000000,-0.024372,0.000549,-0.022280,-0.050141,-0.000977,0.000000,0.000000,0,0,0,0
12.436154,-1.718750,-1.289062,0.007812,0.000000,0.000000,-0.024855,0.000549,-0.022280,-0.050141,0.001709,0.001465,0.000488,0,0,0,0
12.445923,-1.718750,-1.289062,0.007812,0.000000,0.000000,-0.025249,0.000549,-0.022280,-0.050141,0.002197,0.002197,0.000977,0,0,0,0
12.455689,-1.718750,-1.289062,0.007812,0.000000,0.000000,-0.024036,0.000549,-0.022280,-0.050141,0.003662,0.001465,-0.001709,0,0,0,0
12.465449,-1.718750,-1.289062,0.007812,0.000000,0.000000,-0.024754,0.000549,-0.022280,-0.050141,0.002197,0.000488,0.000977,0,0,0,0
12.475215,-1.718750,-1.289062,0.007812,0.000000,0.000000,-0.025066,0.000549,-0.022280,-0.050141,0.000000,-0.001953,0.000488,0,0,0,0
12.484988,-1.718750,-1.289062,0.007812,0.000000,0.000000,-0.025238,0.000549,-0.022280,-0.050141,-0.000488,0.001465,0.000977,0,0,0,0
12.494746,-1.718750,-1.289062,0.007812,0.000000,0.000000,-0.024504,0.000549,-0.022280,-0.050141,0.002197,0.000000,0.002197,0,0,0,0
12.504512,-1.718750,-1.289062,0.007812,0.000000,0.000000,-0.025169,0.000549,-0.022280,-0.050141,0.002686,-0.001465,0.000977,0,0,0,0
12.514285,-1.718750,-1.289062,0.007812,0.000000,0.000000,-0.025864,0.000488,-0.022217,-0.050049,0.002197,0.002686,0.000488,0,0,0,0
12.524044,-1.718750,-1.289062,0.007812,0.000000,0.000000,-0.024622,0.000549,-0.022280,-0.050141,-0.000977,-0.000488,0.000488,0,0,0,0
12.533814,-1.718750,-1.289062,0.007812,0.000000,0.000000,-0.025223,0.000549,-0.022280,-0.050141,-0.002197,0.000488,0.001465,0,0,0,0
12.543575,-1.718750,-1.289062,0.007812,0.000000,0.000000,-0.025566,0.000549,-0.022280,-0.050141,-0.000488,0.000000,0.000977,0,0,0,0
12.553345,-1.718750,-1.289062,0.007812,0.000000,0.000000,-0.024130,0.000549,-0.022280,-0.050141,0.002686,0.000977,0.002197,0,0,0,0
12.563106,-1.718750,-1.289062,0.007812,0.000000,0.000000,-0.024557,0.000549,-0.022280,-0.050141,-0.000977,0.000977,0.000488,0,0,0,0
12.572871,-1.718750,-1.289062,0.007812,0.000000,0.000000,-0.025200,0.000549,-0.022280,-0.050141,0.001709,-0.000488,-0.000488,0,0,0,0
12.582638,-1.718750,-1.289062,0.007812,0.000000,0.000000,-0.025700,0.000549,-0.022280,-0.050141,0.001709,0.000488,0.000977,0,0,0,0
12.592403,-1.718750,-1.289062,0.007812,0.000000,0.000000,-0.024250,0.000549,-0.022280,-0.050141,0.000000,-0.002441,0.000488,0,0,0,0
12.602168,-1.718750,-1.289062,0.007812,0.000000,0.000000,-0.024483,0.000549,-0.022280,-0.050141,-0.003662,0.000488,0.000000,0,0,0,0
12.611939,-1.718750,-1.289062,0.007812,0.000000,0.000000,-0.025089,0.000549,-0.022280,-0.050141,0.000000,0.003174,0.000977,0,0,0,0
12.621701,-1.718750,-1.289062,0.007812,0.000000,0.000000,-0.023605,0.000549,-0.022280,-0.050141,-0.002686,-0.000488,-0.001709,0,0,0,0
12.631466,-1.718750,-1.289062,0.007812,0.000000,0.000000,-0.024199,0.000549,-0.022280,-0.050141,0.000000,0.000000,0.000977,0,0,0,0
12.641232,-1.718750,-1.289062,0.007812,0.000000,0.000000,-0.024414,0.000549,-0.022280,-0.050141,-0.000977,0.004150,0.000488,0,0,0,0
12.651003,-1.718750,-1.289062,0.007812,0.000000,0.000000,-0.026333,0.000549,-0.022341,-0.050080,-0.004883,0.002197,-0.000488,0,0,0,0
12.660763,-1.718750,-1.289062,0.007812,0.000000,0.000000,-0.025074,0.000549,-0.022341,-0.050080,0.000000,0.001465,0.002197,0,0,0,0
12.670530,-1.718750,-1.289062,0.007812,0.000000,0.000000,-0.025484,0.000549,-0.022341,-0.050080,0.000000,-0.002930,-0.001221,0,0,0,0
12.680295,-1.718750,-1.289062,0.007812,0.000000,0.000000,-0.026075,0.000549,-0.022341,-0.050080,-0.001465,0.001465,0.000977,0,0,0,0
12.690060,-1.718750,-1.289062,0.007812,0.000000,0.000000,-0.024199,0.000549,-0.022341,-0.050080,0.000488,0.000977,0.000000,0,0,0,0
12.699830,-1.718750,-1.289062,0.007812,0.000000,0.000000,-0.024828,0.000549,-0.022341,-0.050080,-0.000488,-0.001465,0.002197,0,0,0,0
12.709597,-1.718750,-1.289062,0.007812,0.000000,0.000000,-0.025406,0.000549,-0.022341,-0.050080,-0.001465,0.000000,-0.001221,0,0,0,0
12.719359,-1.718750,-1.289062,0.007812,0.000000,0.000000,-0.023792,0.000549,-0.022341,-0.050080,-0.000488,-0.000977,0.002197,0,0,0,0
12.729133,-1.718750,-1.289062,0.007812,0.000000,0.000000,-0.025513,0.000549,-0.022341,-0.050080,-0.001465,0.000000,-0.001709,0,0,0,0
12.738891,-1.718750,-1.289062,0.007812,0.000000,0.000000,-0.026028,0.000549,-0.022341,-0.050080,0.000488,0.002197,0.001465,0,0,0,0
12.748659,-1.718750,-1.289062,0.007812,0.000000,0.000000,-0.026714,0.000549,-0.022341,-0.050080,0.002197,-0.000977,-0.001709,0,0,0,0
12.758425,-1.718750,-1.289062,0.007812,0.000000,0.000000,-0.025076,0.000549,-0.022341,-0.050080,-0.001465,0.002197,0.000000,0,0,0,0
12.768185,-1.718750,-1.289062,0.007812,0.000000,0.000000,-0.025583,0.000549,-0.022341,-0.050080,0.001709,0.000488,-0.003174,0,0,0,0
12.777954,-1.718750,-1.289062,0.007812,0.000000,0.000000,-0.026186,0.000549,-0.022341,-0.050080,0.002686,0.000000,0.000000,0,0,0,0
12.787715,-1.718750,-1.289062,0.007812,0.000000,0.000000,-0.024355,0.000549,-0.022341,-0.050080,-0.000488,0.000977,-0.000488,0,0,0,0
12.797481,-1.718750,-1.289062,0.007812,0.000000,0.000000,-0.024427,0.000549,-0.022341,-0.050080,0.000000,0.000977,0.001465,0,0,0,0
12.807245,-1.718750,-1.289062,0.007812,0.000000,0.000000,-0.026611,0.000549,-0.022341,-0.050080,0.000977,-0.001465,-0.000488,0,0,0,0
12.817019,-1.718750,-1.289062,0.007812,0.000000,0.000000,-0.026619,0.000488,-0.022217,-0.050049,0.000000,0.000977,-0.001709,0,0,0,0
12.826799,-1.718750,-1.289062,0.007812,0.000000,0.000000,-0.024717,0.000549,-0.022341,-0.050080,0.000977,0.003662,0.000000,0,0,0,0
12.836565,-1.718750,-1.289062,0.007812,0.000000,0.000000,-0.025219,0.000549,-0.022341,-0.050080,0.000000,0.000000,0.000488,0,0,0,0
12.846314,-1.718750,-1.289062,0.007812,0.000000,0.000000,-0.025732,0.000549,-0.022341,-0.050080,0.000000,-0.001465,0.000000,0,0,0,0
12.856098,-1.718750,-1.289062,0.007812,0.000000,0.000000,-0.023762,0.000549,-0.022341,-0.050080,-0.000977,-0.000488,-0.000488,0,0,0,0
12.865842,-1.718750,-1.289062,0.007812,0.000000,0.000000,-0.024368,0.000549,-0.022341,-0.050080,0.002197,-0.001465,-0.000488,0,0,0,0
12.875607,-1.718750,-1.289062,0.007812,0.000000,0.000000,-0.024626,0.000549,-0.022341,-0.050080,-0.000977,0.000000,0.000488,0,0,0,0
12.885376,-1.718750,-1.289062,0.003906,0.000000,0.000000,-0.026560,0.000549,-0.022341,-0.050080,0.000977,-0.002441,0.002197,0,0,0,0
12.895139,-1.718750,-1.289062,0.007812,0.000000,0.000000,-0.024374,0.000549,-0.022341,-0.050080,0.000977,0.000977,-0.002686,0,0,0,0
12.904904,-1.718750,-1.289062,0.007812,0.000000,0.000000,-0.025028,0.000549,-0.022402,-0.050080,-0.000977,0.000977,0.000488,0,0,0,0
12.914674,-1.718750,-1.289062,0.007812,0.000000,0.000000,-0.025557,0.000549,-0.022402,-0.050080,-0.000977,-0.000488,-0.001221,0,0,0,0
12.924433,-1.718750,-1.289062,0.007812,0.000000,0.000000,-0.023623,0.000549,-0.022402,-0.050080,0.000488,0.000488,-0.000488,0,0,0,0
12.934203,-1.718750,-1.289062,0.007812,0.000000,0.000000,-0.024042,0.000549,-0.022402,-0.050080,-0.002686,-0.001953,0.002197,0,0,0,0
12.943965,-1.718750,-1.289062,0.007812,0.000000,0.000000,-0.024872,0.000549,-0.022402,-0.050080,-0.001465,-0.000977,-0.000488,0,0,0,0
12.953731,-1.718750,-1.289062,0.007812,0.000000,0.000000,-0.023191,0.000549,-0.022402,-0.050080,-0.000488,0.000000,-0.001221,0,0,0,0
12.963501,-1.718750,-1.289062,0.007812,0.000000,0.000000,-0.024616,0.000549,-0.022402,-0.050080,-0.001465,0.000000,0.000000,0,0,0,0
12.973261,-1.718750,-1.289062,0.007812,0.000000,0.000000,-0.025248,0.000549,-0.022402,-0.050080,-0.000977,0.000000,0.001465,0,0,0,0
12.983033,-1.718750,-1.289062,0.007812,0.000000,0.000000,-0.026056,0.000549,-0.022402,-0.050080,-0.000977,-0.002441,-0.000488,0,0,0,0
12.992793,-1.718750,-1.289062,0.007812,0.000000,0.000000,-0.023973,0.000549,-0.022402,-0.050080,-0.001465,-0.000977,0.000488,0,0,0,0
13.002558,-1.718750,-1.289062,0.007812,0.000000,0.000000,-0.024473,0.000549,-0.022402,-0.050080,-0.002197,0.000977,0.000977,0,0,0,0
13.012324,-1.718750,-1.289062,0.007812,0.000000,0.000000,-0.024992,0.000549,-0.022402,-0.050080,-0.000488,0.002197,0.000000,0,0,0,0
13.022089,-1.718750,-1.289062,0.007812,0.000000,0.000000,-0.023369,0.000549,-0.022402,-0.050080,0.000488,0.001465,-0.001221,0,0,0,0
13.031860,-1.718750,-1.289062,0.007812,0.000000,0.000000,-0.024017,0.000549,-0.022402,-0.050080,0.000977,0.000000,0.001465,0,0,0,0
13.041640,-1.718750,-1.289062,0.007812,0.000000,0.000000,-0.025572,0.000549,-0.022402,-0.050080,-0.004150,-0.000488,-0.001221,0,0,0,0
13.051396,-1.718750,-1.289062,0.007812,0.000000,0.000000,-0.025881,0.000488,-0.022217,-0.050049,0.000000,-0.001953,0.000000,0,0,0,0
13.061155,-1.718750,-1.289062,0.007812,0.000000,0.000000,-0.023844,0.000549,-0.022402,-0.050080,0.000000,0.002686,0.002197,0,0,0,0
13.070918,-1.718750,-1.289062,0.007812,0.000000,0.000000,-0.024078,0.000549,-0.022402,-0.050080,0.001709,-0.000488,0.000977,0,0,0,0
13.080684,-1.718750,-1.289062,0.007812,0.000000,0.000000,-0.024775,0.000549,-0.022402,-0.050080,-0.000488,0.000977,0.000977,0,0,0,0
13.090450,-1.718750,-1.289062,0.007812,0.000000,0.000000,-0.023310,0.000549,-0.022402,-0.050080,0.004395,0.000977,0.000000,0,0,0,0
13.100215,-1.718750,-1.289062,0.007812,0.000000,0.000000,-0.023664,0.000549,-0.022402,-0.050080,0.002197,0.000488,-0.000488,0,0,0,0
13.109981,-1.718750,-1.289062,0.007812,0.000000,0.000000,-0.024473,0.000549,-0.022402,-0.050080,0.002197,0.000977,0.002197,0,0,0,0
13.119752,-1.718750,-1.289062,0.007812,0.000000,0.000000,-0.025629,0.000549,-0.022402,-0.050080,0.002686,0.001465,0.002197,0,0,0,0
13.129520,-1.718750,-1.289062,0.007812,0.000000,0.000000,-0.023939,0.000549,-0.022402,-0.050080,-0.000977,0.003662,0.001465,0,0,0,0
13.139292,-1.718750,-1.289062,0.007812,0.000000,0.000000,-0.024462,0.000549,-0.022402,-0.050080,0.001709,-0.001953,-0.000488,0,0,0,0
13.149047,-1.718750,-1.289062,0.007812,0.000000,0.000000,-0.024914,0.000549,-0.022402,-0.050080,0.002686,0.000977,-0.000488,0,0,0,0
13.158814,-1.718750,-1.289062,0.007812,0.000000,0.000000,-0.023094,0.000549,-0.022402,-0.050080,-0.000488,0.000488,-0.000488,0,0,0,0
13.168580,-1.718750,-1.289062,0.007812,0.000000,0.000000,-0.023703,0.000549,-0.022402,-0.050080,0.000977,0.000977,0.001465,0,0,0,0
13.178340,-1.718750,-1.289062,0.007812,0.000000,0.000000,-0.024202,0.000549,-0.022402,-0.050080,-0.002686,0.002686,-0.002197,0,0,0,0
13.188111,-1.718750,-1.289062,0.007812,0.000000,0.000000,-0.024895,0.000549,-0.022402,-0.050080,-0.000977,-0.000488,-0.000488,0,0,0,0
13.197870,-1.718750,-1.289062,0.007812,0.000000,0.000000,-0.022745,0.000549,-0.022402,-0.050080,-0.003662,0.000977,0.001465,0,0,0,0
13.207637,-1.718750,-1.289062,0.007812,0.000000,0.000000,-0.023258,0.000549,-0.022402,-0.050080,-0.002197,0.000000,-0.000488,0,0,0,0
13.217408,-1.718750,-1.289062,0.007812,0.000000,0.000000,-0.023682,0.000549,-0.022402,-0.050080,-0.000488,0.002686,0.001465,0,0,0,0
13.227168,-1.718750,-1.289062,0.007812,0.000000,0.000000,-0.022152,0.000549,-0.022402,-0.050080,0.000977,0.000977,0.000977,0,0,0,0
13.236936,-1.718750,-1.289062,0.007812,0.000000,0.000000,-0.022522,0.000488,-0.022402,-0.050080,-0.002686,-0.004150,0.002197,0,0,0,0
13.246698,-1.718750,-1.289062,0.007812,0.000000,0.000000,-0.022772,0.000488,-0.022402,-0.050080,-0.003662,0.004150,0.000000,0,0,0,0
13.256465,-1.718750,-1.289062,0.007812,0.000000,0.000000,-0.021154,0.000488,-0.022402,-0.050080,-0.000977,-0.000488,-0.001221,0,0,0,0
13.266230,-1.718750,-1.289062,0.007812,0.000000,0.000000,-0.021505,0.000488,-0.022402,-0.050080,0.000488,-0.001953,0.000488,0,0,0,0
13.275995,-1.718750,-1.289062,0.007812,0.000000,0.000000,-0.022505,0.000488,-0.022402,-0.050080,-0.002197,-0.001953,-0.001221,0,0,0,0
13.285762,-1.718750,-1.289062,0.007812,0.000000,0.000000,-0.023058,0.000488,-0.022402,-0.050080,0.000977,-0.000488,-0.000488,0,0,0,0
13.295535,-1.718750,-1.289062,0.007812,0.000000,0.000000,-0.021820,0.000488,-0.022402,-0.050080,-0.000977,-0.000977,0.000977,0,0,0,0
13.305295,-1.718750,-1.289062,0.007812,0.000000,0.000000,-0.022455,0.000488,-0.022402,-0.050080,-0.002197,0.000977,-0.000488,0,0,0,0
13.315060,-1.718750,-1.289062,0.007812,0.000000,0.000000,-0.022818,0.000488,-0.022402,-0.050080,0.000000,0.003174,0.000977,0,0,0,0
13.324827,-1.718750,-1.289062,0.007812,0.000000,0.000000,-0.021606,0.000488,-0.022402,-0.050080,0.000488,0.000000,-0.003174,0,0,0,0
13.334595,-1.718750,-1.289062,0.007812,0.000000,0.000000,-0.022549,0.000488,-0.022402,-0.050080,-0.001465,0.001465,0.000488,0,0,0,0
13.344372,-1.718750,-1.289062,0.007812,0.000000,0.000000,-0.023245,0.000488,-0.022402,-0.050080,-0.001465,-0.000488,0.000977,0,0,0,0
13.354131,-1.718750,-1.289062,0.007812,0.000000,0.000000,-0.024879,0.000244,-0.022217,-0.050049,-0.002686,-0.001465,0.001465,0,0,0,0
13.363889,-1.718750,-1.289062,0.007812,0.000000,0.000000,-0.023375,0.000427,-0.022402,-0.050080,0.000000,0.000488,0.000000,0,0,0,0
13.373656,-1.718750,-1.289062,0.007812,0.000000,0.000000,-0.023672,0.000427,-0.022402,-0.050080,0.000977,0.000000,-0.000488,0,0,0,0
13.383418,-1.718750,-1.289062,0.007812,0.000000,0.000000,-0.024355,0.000427,-0.022402,-0.050080,0.001709,0.000000,0.000000,0,0,0,0
13.393187,-1.718750,-1.289062,0.007812,0.000000,0.000000,-0.022966,0.000427,-0.022402,-0.050080,0.000488,0.002686,-0.001221,0,0,0,0
13.402949,-1.718750,-1.289062,0.007812,0.000000,0.000000,-0.023102,0.000427,-0.022402,-0.050080,-0.000488,0.000000,0.000488,0,0,0,0
13.412715,-1.718750,-1.289062,0.007812,0.000000,0.000000,-0.023338,0.000427,-0.022402,-0.050080,0.002686,0.001465,0.001465,0,0,0,0
13.422481,-1.718750,-1.289062,0.007812,0.000000,0.000000,-0.021753,0.000427,-0.022402,-0.050080,0.000488,-0.000488,0.001465,0,0,0,0
13.432250,-1.718750,-1.289062,0.007812,0.000000,0.000000,-0.023092,0.000427,-0.022402,-0.050080,0.000488,0.000977,0.000977,0,0,0,0
13.442019,-1.718750,-1.289062,0.007812,0.000000,0.000000,-0.023363,0.000427,-0.022402,-0.050080,0.000977,0.001465,0.001465,0,0,0,0
13.451777,-1.718750,-1.289062,0.007812,0.000000,0.000000,-0.023922,0.000427,-0.022402,-0.050080,0.000977,-0.001953,0.000488,0,0,0,0
13.461543,-1.718750,-1.289062,0.007812,0.000000,0.000000,-0.022499,0.000427,-0.022402,-0.050080,0.000488,0.000488,-0.001221,0,0,0,0
13.471309,-1.718750,-1.289062,0.007812,0.000000,0.000000,-0.023060,0.000427,-0.022341,-0.050080,-0.001465,-0.003418,0.000488,0,0,0,0
13.481074,-1.718750,-1.289062,0.007812,0.000000,0.000000,-0.023483,0.000427,-0.022341,-0.050080,0.000000,0.000977,0.000977,0,0,0,0
13.490840,-1.718750,-1.289062,0.007812,0.000000,0.000000,-0.021914,0.000427,-0.022341,-0.050080,-0.000488,-0.001953,0.000000,0,0,0,0
13.500605,-1.718750,-1.289062,0.007812,0.000000,0.000000,-0.022364,0.000427,-0.022341,-0.050080,0.000977,-0.000488,0.004150,0,0,0,0
13.510371,-1.718750,-1.289062,0.007812,0.000000,0.000000,-0.023516,0.000427,-0.022341,-0.050080,-0.001465,0.000000,0.000000,0,0,0,0
13.520142,-1.718750,-1.289062,0.007812,0.000000,0.000000,-0.024136,0.000427,-0.022341,-0.050080,-0.001465,0.000000,0.000977,0,0,0,0
13.529902,-1.718750,-1.289062,0.007812,0.000000,0.000000,-0.022726,0.000244,-0.022217,-0.050049,0.000000,0.000000,0.000488,0,0,0,0
13.539675,-1.718750,-1.289062,0.007812,0.000000,0.000000,-0.022970,0.000244,-0.022217,-0.050049,0.000000,0.002197,-0.001221,0,0,0,0
13.549437,-1.718750,-1.289062,0.007812,0.000000,0.000000,-0.023529,0.000244,-0.022217,-0.050049,-0.001465,0.000488,-0.000488,0,0,0,0
13.559203,-1.718750,-1.289062,0.007812,0.000000,0.000000,-0.021793,0.000244,-0.022217,-0.050049,0.001709,0.000977,-0.001221,0,0,0,0
13.568969,-1.718750,-1.289062,0.007812,0.000000,0.000000,-0.022362,0.000244,-0.022217,-0.050049,-0.001465,-0.000977,0.000000,0,0,0,0
13.578758,-1.718750,-1.289062,0.007812,0.000000,0.000000,-0.023041,0.000244,-0.022217,-0.050049,0.000000,0.000977,0.001465,0,0,0,0
13.588507,-1.718750,-1.289062,0.007812,0.000000,0.000000,-0.024584,0.000244,-0.022217,-0.050049,-0.000977,0.002197,-0.001221,0,0,0,0
13.598268,-1.718750,-1.289062,0.007812,0.000000,0.000000,-0.023205,0.000244,-0.022217,-0.050049,-0.000977,-0.001465,-0.001709,0,0,0,0
13.608027,-1.718750,-1.289062,0.007812,0.000000,0.000000,-0.023525,0.000244,-0.022217,-0.050049,-0.000977,0.000977,0.000488,0,0,0,0
13.617793,-1.718750,-1.289062,0.007812,0.000000,0.000000,-0.024067,0.000244,-0.022217,-0.050049,-0.000977,0.000000,-0.000488,0,0,0,0
13.627557,-1.718750,-1.289062,0.007812,0.000000,0.000000,-0.022245,0.000244,-0.022217,-0.050049,-0.002197,0.000488,0.000488,0,0,0,0
13.637328,-1.718750,-1.289062,0.007812,0.000000,0.000000,-0.022032,0.000244,-0.022217,-0.050049,-0.001465,0.000000,0.000488,0,0,0,0
13.647115,-1.718750,-1.289062,0.007812,0.000000,0.000000,-0.022276,0.000244,-0.022217,-0.050049,-0.002197,0.000488,0.000977,0,0,0,0
13.656856,-1.718750,-1.289062,0.007812,0.000000,0.000000,-0.020752,0.000244,-0.022217,-0.049805,-0.000488,0.000000,0.000000,0,0,0,0
13.666620,-1.718750,-1.289062,0.007812,0.000000,0.000000,-0.021736,0.000244,-0.022217,-0.049805,0.000000,0.002686,-0.001709,0,0,0,0
13.676387,-1.718750,-1.289062,0.007812,0.000000,0.000000,-0.022532,0.000244,-0.022217,-0.049805,-0.001465,0.000977,-0.001709,0,0,0,0
13.686152,-1.718750,-1.289062,0.007812,0.000000,0.000000,-0.022667,0.000244,-0.022217,-0.049805,0.002197,0.000488,-0.000488,0,0,0,0
13.695917,-1.718750,-1.289062,0.007812,0.000000,0.000000,-0.021069,0.000244,-0.022217,-0.049805,0.003174,0.001465,0.000000,0,0,0,0
13.705682,-1.718750,-1.289062,0.007812,0.000000,0.000000,-0.021698,0.000244,-0.022217,-0.049805,0.002197,-0.001953,-0.000488,0,0,0,0
13.715449,-1.718750,-1.289062,0.007812,0.000000,0.000000,-0.022217,0.000244,-0.022217,-0.049805,0.000488,0.000000,-0.001221,0,0,0,0
13.725218,-1.718750,-1.289062,0.007812,0.000000,0.000000,-0.020672,0.000244,-0.022217,-0.049805,0.000000,0.001465,0.003174,0,0,0,0
13.734984,-1.718750,-1.289062,0.007812,0.000000,0.000000,-0.020981,0.000244,-0.022217,-0.049805,0.001709,0.000977,0.001465,0,0,0,0
13.744752,-1.718750,-1.289062,0.007812,0.000000,0.000000,-0.022253,0.000244,-0.022217,-0.049805,0.002686,0.000488,-0.000488,0,0,0,0
13.754514,-1.718750,-1.289062,0.007812,0.000000,0.000000,-0.022974,0.000244,-0.022217,-0.049805,0.000000,0.000977,0.001465,0,0,0,0
13.764279,-1.718750,-1.289062,0.007812,0.000000,0.000000,-0.021357,0.000244,-0.022217,-0.049805,0.002197,0.000000,0.001465,0,0,0,0
13.774045,-1.718750,-1.289062,0.007812,0.000000,0.000000,-0.022013,0.000244,-0.022217,-0.049805,0.000488,0.000488,0.000977,0,0,0,0
13.783810,-1.718750,-1.289062,0.007812,0.000000,0.000000,-0.022522,0.000244,-0.022217,-0.049805,-0.000977,-0.000977,0.000000,0,0,0,0
13.793576,-1.718750,-1.289062,0.007812,0.000000,0.000000,-0.021109,0.000244,-0.022217,-0.049805,0.001709,0.000000,-0.000488,0,0,0,0
13.803342,-1.718750,-1.289062,0.007812,0.000000,0.000000,-0.021454,0.000244,-0.022217,-0.049805,-0.000488,0.000000,-0.001221,0,0,0,0
13.813111,-1.718750,-1.289062,0.007812,0.000000,0.000000,-0.021912,0.000244,-0.022217,-0.049805,-0.000977,0.000488,-0.000488,0,0,0,0
13.822877,-1.718750,-1.289062,0.007812,0.000000,0.000000,-0.020372,0.000244,-0.022217,-0.049805,0.003662,-0.000488,0.000977,0,0,0,0
13.832638,-1.718750,-1.289062,0.007812,0.000000,0.000000,-0.020681,0.000244,-0.022217,-0.049805,0.000000,-0.000977,0.000000,0,0,0,0
13.842408,-1.718750,-1.289062,0.007812,0.000000,0.000000,-0.020975,0.000244,-0.022217,-0.049805,0.000000,0.000000,0.000000,0,0,0,0
13.852169,-1.718750,-1.289062,0.007812,0.000000,0.000000,-0.021587,0.000244,-0.022217,-0.049805,0.000000,-0.000977,0.000000,0,0,0,0
13.861933,-1.718750,-1.289062,0.007812,0.000000,0.000000,-0.020023,0.000244,-0.022217,-0.049805,-0.002686,-0.001953,-0.001709,0,0,0,0
13.871699,-1.718750,-1.289062,0.007812,0.000000,0.000000,-0.020744,0.000488,-0.022217,-0.049805,-0.001465,-0.000977,0.000000,0,0,0,0
13.881464,-1.718750,-1.289062,0.007812,0.000000,0.000000,-0.021286,0.000488,-0.022217,-0.049805,-0.000977,0.000488,0.003174,0,0,0,0
13.891237,-1.718750,-1.289062,0.007812,0.000000,0.000000,-0.019884,0.000497,-0.022334,-0.050002,-0.002686,-0.002441,0.000977,0,0,0,0
13.901002,-1.718750,-1.289062,0.007812,0.000000,0.000000,-0.020481,0.000488,-0.022217,-0.049805,-0.000977,-0.002441,-0.000488,0,0,0,0
13.910761,-1.718750,-1.289062,0.007812,0.000000,0.000000,-0.021221,0.000488,-0.022217,-0.049805,0.001709,-0.000488,-0.001221,0,0,0,0
13.920527,-1.718750,-1.289062,0.007812,0.000000,0.000000,-0.021925,0.000488,-0.022217,-0.049805,-0.000977,0.000000,0.000977,0,0,0,0
13.930297,-1.718750,-1.289062,0.007812,0.000000,0.000000,-0.020506,0.000488,-0.022217,-0.049805,-0.002197,0.001465,0.000977,0,0,0,0
13.940062,-1.718750,-1.289062,0.007812,0.000000,0.000000,-0.020636,0.000488,-0.022217,-0.049805,0.000000,0.002197,-0.002197,0,0,0,0
13.949844,-1.718750,-1.289062,0.007812,0.000000,0.000000,-0.021097,0.000488,-0.022217,-0.049805,-0.000488,-0.000488,0.000977,0,0,0,0
13.959595,-1.718750,-1.289062,0.007812,0.000000,0.000000,-0.019924,0.000488,-0.022217,-0.049805,-0.001465,0.000488,-0.000488,0,0,0,0
13.969359,-1.718750,-1.289062,0.007812,0.000000,0.000000,-0.020416,0.000488,-0.022217,-0.049805,-0.000488,0.002197,0.001465,0,0,0,0
13.979128,-1.718750,-1.289062,0.007812,0.000000,0.000000,-0.021152,0.000488,-0.022217,-0.049805,-0.000977,-0.001465,0.001465,0,0,0,0
13.988890,-1.718750,-1.289062,0.007812,0.000000,0.000000,-0.021727,0.000488,-0.022217,-0.049805,0.004395,-0.004639,0.000000,0,0,0,0
13.998652,-1.718750,-1.289062,0.007812,0.000000,0.000000,-0.020626,0.000488,-0.022217,-0.049805,0.000000,-0.001953,0.000977,0,0,0,0
14.008418,-1.718750,-1.289062,0.007812,0.000000,0.000000,-0.021114,0.000488,-0.022217,-0.049805,0.000977,0.000000,0.001465,0,0,0,0
14.018183,-1.718750,-1.289062,0.007812,0.000000,0.000000,-0.021318,0.000488,-0.022217,-0.049805,0.000000,-0.000977,0.000000,0,0,0,0
14.027948,-1.718750,-1.289062,0.007812,0.000000,0.000000,-0.020147,0.000488,-0.022217,-0.049805,0.000977,-0.001953,0.000977,0,0,0,0
14.037718,-1.718750,-1.289062,0.007812,0.000000,0.000000,-0.020386,0.000488,-0.022217,-0.049805,0.001709,0.002686,0.000000,0,0,0,0
14.047484,-1.718750,-1.289062,0.007812,0.000000,0.000000,-0.020603,0.000488,-0.022217,-0.049805,0.000488,0.000000,0.000977,0,0,0,0
14.057249,-1.718750,-1.289062,0.007812,0.000000,0.000000,-0.021782,0.000488,-0.022217,-0.049805,-0.000977,0.002686,0.002197,0,0,0,0
14.067012,-1.718750,-1.289062,0.007812,0.000000,0.000000,-0.020077,0.000488,-0.022217,-0.049805,0.002686,-0.001465,-0.001709,0,0,0,0
14.076777,-1.718750,-1.289062,0.007812,0.000000,0.000000,-0.020641,0.000488,-0.022217,-0.049805,0.000977,-0.001465,-0.001709,0,0,0,0
14.086544,-1.718750,-1.289062,0.007812,0.000000,0.000000,-0.020958,0.000488,-0.022217,-0.049805,0.000488,0.001465,-0.000488,0,0,0,0
14.096309,-1.718750,-1.289062,0.007812,0.000000,0.000000,-0.019928,0.000488,-0.022217,-0.049805,0.001709,-0.001953,0.001465,0,0,0,0
14.106075,-1.718750,-1.289062,0.007812,0.000000,0.000000,-0.020262,0.000488,-0.022217,-0.049805,-0.001465,0.000977,0.000488,0,0,0,0
14.115840,-1.718750,-1.289062,0.007812,0.000000,0.000000,-0.020515,0.000488,-0.022217,-0.049805,-0.002197,0.002197,0.000488,0,0,0,0
14.125610,-1.718750,-1.289062,0.007812,0.000000,0.000000,-0.018963,0.000488,-0.022217,-0.049805,-0.002686,-0.000488,-0.002197,0,0,0,0
14.135375,-1.718750,-1.289062,0.007812,0.000000,0.000000,-0.019909,0.000488,-0.022217,-0.049805,0.000000,-0.000488,0.000488,0,0,0,0
14.145142,-1.718750,-1.289062,0.007812,0.000000,0.000000,-0.020231,0.000488,-0.022217,-0.049805,-0.000977,0.000000,0.000488,0,0,0,0
14.154904,-1.718750,-1.289062,0.007812,0.000000,0.000000,-0.020376,0.000488,-0.022217,-0.049805,-0.003174,0.000000,0.000000,0,0,0,0
14.164668,-1.718750,-1.289062,0.007812,0.000000,0.000000,-0.019123,0.000488,-0.022217,-0.049805,-0.001465,0.002197,-0.001709,0,0,0,0
14.174434,-1.718750,-1.289062,0.007812,0.000000,0.000000,-0.019665,0.000488,-0.022217,-0.049805,-0.001465,0.001465,0.000488,0,0,0,0
14.184200,-1.718750,-1.289062,0.007812,0.000000,0.000000,-0.019787,0.000488,-0.022217,-0.049805,-0.001465,-0.001953,-0.001221,0,0,0,0
14.193971,-1.718750,-1.289062,0.007812,0.000000,0.000000,-0.019032,0.000497,-0.022334,-0.049941,-0.001465,-0.000488,-0.001709,0,0,0,0
14.203735,-1.718750,-1.289062,0.007812,0.000000,0.000000,-0.019672,0.000488,-0.022217,-0.049805,0.000488,-0.000977,-0.002197,0,0,0,0
14.213497,-1.718750,-1.289062,0.007812,0.000000,0.000000,-0.020700,0.000488,-0.022217,-0.049805,-0.002197,0.000000,0.002197,0,0,0,0
14.223262,-1.718750,-1.289062,0.007812,0.000000,0.000000,-0.021351,0.000488,-0.022217,-0.049805,-0.002686,-0.000488,0.000977,0,0,0,0
14.233028,-1.718750,-1.289062,0.007812,0.000000,0.000000,-0.019999,0.000488,-0.022217,-0.049805,0.000488,-0.001465,-0.000488,0,0,0,0
14.242797,-1.718750,-1.289062,0.007812,0.000000,0.000000,-0.020264,0.000488,-0.022217,-0.049805,-0.001465,-0.000488,0.000977,0,0,0,0
14.252581,-1.718750,-1.289062,0.007812,0.000000,0.000000,-0.020765,0.000488,-0.022217,-0.049805,0.000000,-0.001465,0.002197,0,0,0,0
14.262325,-1.718750,-1.289062,0.007812,0.000000,0.000000,-0.019489,0.000488,-0.022217,-0.049805,-0.000488,-0.001465,0.000977,0,0,0,0
14.272090,-1.718750,-1.289062,0.007812,0.000000,0.000000,-0.020355,0.000488,-0.022217,-0.049805,0.000488,-0.001465,0.001465,0,0,0,0
14.281859,-1.718750,-1.289062,0.007812,0.000000,0.000000,-0.020857,0.000488,-0.022217,-0.049805,0.000000,-0.000488,0.000977,0,0,0,0
14.291622,-1.718750,-1.289062,0.007812,0.000000,0.000000,-0.020590,0.000488,-0.022217,-0.049805,0.000488,0.000000,-0.000488,0,0,0,0
14.301387,-1.718750,-1.289062,0.007812,0.000000,0.000000,-0.021378,0.000488,-0.022217,-0.049805,0.000488,0.000977,-0.000488,0,0,0,0
14.311154,-1.718750,-1.289062,0.007812,0.000000,0.000000,-0.021763,0.000488,-0.022217,-0.049805,0.000977,0.002197,0.001465,0,0,0,0
14.320918,-1.718750,-1.289062,0.007812,0.000000,0.000000,-0.022224,0.000488,-0.022217,-0.049805,0.000488,-0.001953,0.000977,0,0,0,0
14.330684,-1.718750,-1.289062,0.007812,0.000000,0.000000,-0.020700,0.000488,-0.022217,-0.049805,0.002197,-0.000977,-0.000488,0,0,0,0
14.340455,-1.718750,-1.289062,0.007812,0.000000,0.000000,-0.021269,0.000488,-0.022217,-0.049805,0.000000,-0.001953,0.000000,0,0,0,0
14.350219,-1.718750,-1.289062,0.007812,0.000000,0.000000,-0.021763,0.000488,-0.022217,-0.049805,0.000000,-0.000977,0.000000,0,0,0,0
14.359983,-1.718750,-1.289062,0.007812,0.000000,0.000000,-0.020325,0.000488,-0.022217,-0.049805,0.003174,0.000488,-0.001709,0,0,0,0
14.369747,-1.718750,-1.289062,0.007812,0.000000,0.000000,-0.021257,0.000488,-0.022217,-0.049805,0.000977,0.000977,0.001465,0,0,0,0
14.379516,-1.718750,-1.289062,0.007812,0.000000,0.000000,-0.021988,0.000488,-0.022217,-0.049805,0.000488,0.000000,0.000977,0,0,0,0
14.389281,-1.718750,-1.289062,0.007812,0.000000,0.000000,-0.022554,0.000488,-0.022217,-0.049805,0.000977,-0.000977,0.000488,0,0,0,0
14.399047,-1.718750,-1.289062,0.007812,0.000000,0.000000,-0.021156,0.000488,-0.022217,-0.049805,0.000488,0.000000,0.000000,0,0,0,0
14.408813,-1.718750,-1.289062,0.007812,0.000000,0.000000,-0.022137,0.000488,-0.022217,-0.049805,0.001709,0.001465,0.000977,0,0,0,0
14.418575,-1.718750,-1.289062,0.007812,0.000000,0.000000,-0.022816,0.000488,-0.022217,-0.049805,-0.002197,0.000000,0.001465,0,0,0,0
14.428343,-1.718750,-1.289062,0.007812,0.000000,0.000000,-0.021507,0.000244,-0.022217,-0.049805,0.000000,0.000488,-0.001221,0,0,0,0
14.438105,-1.718750,-1.289062,0.007812,0.000000,0.000000,-0.022062,0.000244,-0.022217,-0.049805,-0.001465,-0.000488,-0.000488,0,0,0,0
14.447875,-1.718750,-1.289062,0.007812,0.000000,0.000000,-0.022400,0.000244,-0.022217,-0.049805,-0.002197,-0.000488,-0.001221,0,0,0,0
14.457637,-1.718750,-1.289062,0.007812,0.000000,0.000000,-0.023010,0.000244,-0.022217,-0.049805,0.001709,-0.001465,-0.001221,0,0,0,0
14.467403,-1.718750,-1.289062,0.007812,0.000000,0.000000,-0.021900,0.000244,-0.022217,-0.049805,-0.000977,-0.001953,0.001465,0,0,0,0
14.477168,-1.718750,-1.289062,0.007812,0.000000,0.000000,-0.022253,0.000244,-0.022217,-0.049805,-0.001465,-0.001465,0.000488,0,0,0,0
14.486934,-1.718750,-1.289062,0.007812,0.000000,0.000000,-0.022919,0.000244,-0.022217,-0.049805,-0.002686,0.000488,-0.001709,0,0,0,0
14.496699,-1.718750,-1.289062,0.007812,0.000000,0.000000,-0.021799,0.000244,-0.022217,-0.049805,-0.001465,-0.000488,0.000488,0,0,0,0
14.506471,-1.718750,-1.289062,0.007812,0.000000,0.000000,-0.022486,0.000244,-0.022217,-0.049805,0.000977,-0.000977,-0.000488,0,0,0,0
14.516229,-1.718750,-1.289062,0.007812,0.000000,0.000000,-0.022652,0.000244,-0.022217,-0.049805,-0.002197,-0.000488,0.004150,0,0,0,0
14.525995,-1.718750,-1.289062,0.007812,0.000000,0.000000,-0.022152,0.000244,-0.022217,-0.049805,-0.002686,0.000488,0.001465,0,0,0,0
14.535761,-1.718750,-1.289062,0.007812,0.000000,0.000000,-0.021111,0.000244,-0.022217,-0.049805,-0.001465,0.001465,0.002197,0,0,0,0
14.545530,-1.718750,-1.289062,0.007812,0.000000,0.000000,-0.021370,0.000244,-0.022217,-0.049805,0.000977,0.000977,-0.000488,0,0,0,0
14.555323,-1.718750,-1.289062,0.007812,0.000000,0.000000,-0.021395,0.000244,-0.022217,-0.049805,-0.000488,0.000000,0.002686,0,0,0,0
14.565065,-1.718750,-1.289062,0.007812,0.000000,0.000000,-0.020180,0.000436,-0.022336,-0.049940,-0.000488,-0.001465,-0.002197,0,0,0,0
14.574823,-1.718750,-1.289062,0.007812,0.000000,0.000000,-0.020599,0.000244,-0.022217,-0.049805,-0.000977,0.001465,0.000977,0,0,0,0
14.584595,-1.718750,-1.289062,0.007812,0.000000,0.000000,-0.021097,0.000244,-0.022217,-0.049805,-0.000488,-0.000488,0.000488,0,0,0,0
14.594361,-1.718750,-1.289062,0.007812,0.000000,0.000000,-0.021791,0.000244,-0.022217,-0.049805,0.000488,-0.004150,-0.001221,0,0,0,0
14.604119,-1.718750,-1.289062,0.007812,0.000000,0.000000,-0.020403,0.000244,-0.022217,-0.049805,0.000000,0.000488,0.000000,0,0,0,0
14.613886,-1.718750,-1.289062,0.007812,0.000000,0.000000,-0.020670,0.000244,-0.022217,-0.049805,0.001709,-0.000488,0.001465,0,0,0,0
14.623652,-1.718750,-1.289062,0.007812,0.000000,0.000000,-0.020920,0.000244,-0.022217,-0.049805,0.000977,-0.000977,0.000977,0,0,0,0
14.633418,-1.718750,-1.289062,0.007812,0.000000,0.000000,-0.019846,0.000244,-0.022217,-0.049805,0.002197,-0.000488,-0.001221,0,0,0,0
14.643186,-1.718750,-1.289062,0.007812,0.000000,0.000000,-0.020651,0.000244,-0.022217,-0.049805,0.000977,-0.000977,0.000488,0,0,0,0
14.652953,-1.718750,-1.289062,0.007812,0.000000,0.000000,-0.021109,0.000244,-0.022217,-0.049805,0.000977,0.002197,-0.000488,0,0,0,0
14.662718,-1.718750,-1.289062,0.007812,0.000000,0.000000,-0.020082,0.000244,-0.022217,-0.049805,0.002686,0.000000,0.000488,0,0,0,0
14.672485,-1.718750,-1.289062,0.007812,0.000000,0.000000,-0.020393,0.000244,-0.022217,-0.049805,-0.000488,0.000000,0.001465,0,0,0,0
14.682252,-1.718750,-1.289062,0.007812,0.000000,0.000000,-0.020031,0.000244,-0.022217,-0.049805,0.002197,-0.001465,-0.000488,0,0,0,0
14.692013,-1.718750,-1.289062,0.007812,0.000000,0.000000,-0.020912,0.000244,-0.022217,-0.049805,-0.000488,0.000000,-0.001221,0,0,0,0
14.701779,-1.718750,-1.289062,0.007812,0.000000,0.000000,-0.020155,0.000244,-0.022217,-0.049805,0.000000,-0.000977,0.002197,0,0,0,0
14.711545,-1.718750,-1.289062,0.007812,0.000000,0.000000,-0.020481,0.000244,-0.022217,-0.049805,0.000488,-0.000488,-0.000488,0,0,0,0
14.721310,-1.718750,-1.289062,0.007812,0.000000,0.000000,-0.020798,0.000244,-0.022217,-0.049805,-0.002197,-0.001465,0.000488,0,0,0,0
14.731075,-1.718750,-1.289062,0.007812,0.000000,0.000000,-0.019825,0.000244,-0.022217,-0.049805,-0.000488,-0.001465,0.001465,0,0,0,0
14.740841,-1.718750,-1.289062,0.007812,0.000000,0.000000,-0.020542,0.000244,-0.022217,-0.049805,0.001709,0.000488,0.000488,0,0,0,0
14.750610,-1.718750,-1.289062,0.007812,0.000000,0.000000,-0.021172,0.000244,-0.022217,-0.049805,-0.003662,-0.001465,0.000000,0,0,0,0
14.760373,-1.718750,-1.289062,0.007812,0.000000,0.000000,-0.021025,0.000244,-0.022217,-0.049805,0.002686,0.000000,0.000000,0,0,0,0
14.770138,-1.718750,-1.289062,0.007812,0.000000,0.000000,-0.020735,0.000244,-0.022217,-0.049805,-0.000977,-0.000488,0.002197,0,0,0,0
14.779902,-1.718750,-1.289062,0.007812,0.000000,0.000000,-0.021051,0.000244,-0.022217,-0.049805,0.000000,-0.001465,-0.002686,0,0,0,0
14.789671,-1.718750,-1.289062,0.007812,0.000000,0.000000,-0.021103,0.000244,-0.022217,-0.049805,-0.004883,-0.000488,-0.001709,0,0,0,0
14.799435,-1.718750,-1.289062,0.007812,0.000000,0.000000,-0.020416,0.000244,-0.022217,-0.049805,-0.001465,-0.000488,-0.001221,0,0,0,0
14.809204,-1.718750,-1.289062,0.007812,0.000000,0.000000,-0.020655,0.000244,-0.022217,-0.049805,-0.003174,0.000977,-0.000488,0,0,0,0
14.818969,-1.718750,-1.289062,0.007812,0.000000,0.000000,-0.020874,0.000244,-0.022217,-0.049805,0.000000,-0.001465,0.001465,0,0,0,0
14.828780,-1.718750,-1.289062,0.007812,0.000000,0.000000,-0.021357,0.000244,-0.022217,-0.049805,-0.000488,0.001465,0.000488,0,0,0,0
14.838494,-1.718750,-1.289062,0.007812,0.000000,0.000000,-0.019913,0.000244,-0.022217,-0.049805,-0.000977,-0.000977,0.000977,0,0,0,0
14.848264,-1.718750,-1.289062,0.007812,0.000000,0.000000,-0.020136,0.000244,-0.022217,-0.049805,0.000000,-0.002930,0.000000,0,0,0,0
14.858059,-1.718750,-1.289062,0.007812,0.000000,0.000000,-0.020491,0.000244,-0.022217,-0.049805,-0.000977,0.000977,0.002686,0,0,0,0
14.867798,-1.718750,-1.289062,0.007812,0.000000,0.000000,-0.019958,0.000436,-0.022336,-0.050001,0.000488,0.000488,0.000000,0,0,0,0
14.877564,-1.718750,-1.289062,0.007812,0.000000,0.000000,-0.020622,0.000244,-0.022217,-0.049805,-0.000488,0.000488,0.000000,0,0,0,0
14.887329,-1.718750,-1.289062,0.007812,0.000000,0.000000,-0.021400,0.000244,-0.022217,-0.049805,-0.001465,0.000488,0.000977,0,0,0,0
14.897090,-1.718750,-1.289062,0.007812,0.000000,0.000000,-0.020729,0.000244,-0.022217,-0.049805,0.000488,-0.000488,0.001465,0,0,0,0
14.906854,-1.718750,-1.289062,0.007812,0.000000,0.000000,-0.021296,0.000244,-0.022217,-0.049805,-0.000977,0.000488,0.001465,0,0,0,0
14.916622,-1.718750,-1.289062,0.007812,0.000000,0.000000,-0.020990,0.000244,-0.022217,-0.049805,0.002197,0.002197,0.000977,0,0,0,0
14.926385,-1.718750,-1.289062,0.007812,0.000000,0.000000,-0.021406,0.000244,-0.022217,-0.049805,0.000977,-0.001465,0.002686,0,0,0,0
14.936152,-1.718750,-1.289062,0.007812,0.000000,0.000000,-0.020855,0.000244,-0.022217,-0.049805,-0.000488,-0.001953,0.001465,0,0,0,0
14.945921,-1.718750,-1.289062,0.007812,0.000000,0.000000,-0.021452,0.000244,-0.022217,-0.049805,0.000977,0.000977,0.001465,0,0,0,0
14.955687,-1.718750,-1.289062,0.007812,0.000000,0.000000,-0.021725,0.000244,-0.022217,-0.049805,0.003174,0.001465,-0.001221,0,0,0,0
14.965455,-1.718750,-1.289062,0.007812,0.000000,0.000000,-0.020908,0.000244,-0.022217,-0.049805,0.002197,0.000000,0.000488,0,0,0,0
14.975214,-1.718750,-1.289062,0.007812,0.000000,0.000000,-0.021400,0.000244,-0.022217,-0.049805,0.001709,-0.000488,0.000000,0,0,0,0
14.984979,-1.718750,-1.289062,0.007812,0.000000,0.000000,-0.021902,0.000244,-0.022217,-0.049805,0.000977,-0.000488,0.000000,0,0,0,0
14.994744,-1.718750,-1.289062,0.007812,0.000000,0.000000,-0.021080,0.000244,-0.022217,-0.049805,0.000977,0.000977,0.000488,0,0,0,0
15.004511,-1.718750,-1.289062,0.007812,0.000000,0.000000,-0.020376,0.000244,-0.022217,-0.049805,0.002197,0.000488,0.001465,0,0,0,0
15.014277,-1.718750,-1.289062,0.007812,0.000000,0.000000,-0.020891,0.000244,-0.022217,-0.049805,-0.002197,0.000488,-0.000488,0,0,0,0
15.024042,-1.718750,-1.289062,0.007812,0.000000,0.000000,-0.021324,0.000244,-0.022217,-0.049805,0.000488,-0.003418,0.000977,0,0,0,0
15.033808,-1.718750,-1.289062,0.007812,0.000000,0.000000,-0.020494,0.000244,-0.022217,-0.049805,0.000977,0.000977,-0.002686,0,0,0,0
15.043572,-1.718750,-1.289062,0.007812,0.000000,0.000000,-0.021070,0.000244,-0.022217,-0.049805,0.000977,0.000000,-0.001709,0,0,0,0
15.053343,-1.718750,-1.289062,0.007812,0.000000,0.000000,-0.021797,0.000244,-0.022217,-0.049805,-0.001465,-0.001953,0.002197,0,0,0,0
15.063105,-1.718750,-1.289062,0.007812,0.000000,0.000000,-0.022076,0.000244,-0.022217,-0.049805,-0.000488,-0.000488,-0.000488,0,0,0,0
15.072869,-1.718750,-1.289062,0.007812,0.000000,0.000000,-0.021929,0.000244,-0.022217,-0.049805,-0.000488,0.000000,0.000000,0,0,0,0
15.082640,-1.718750,-1.289062,0.007812,0.000000,0.000000,-0.022394,0.000244,-0.022217,-0.049805,-0.001465,0.000488,-0.001709,0,0,0,0
15.092401,-1.718750,-1.289062,0.007812,0.000000,0.000000,-0.022953,0.000244,-0.022217,-0.049805,-0.002686,-0.001953,-0.001221,0,0,0,0
15.102167,-1.718750,-1.289062,0.007812,0.000000,0.000000,-0.022223,0.000244,-0.022217,-0.049805,-0.004150,-0.001953,-0.000488,0,0,0,0
15.111936,-1.718750,-1.289062,0.007812,0.000000,0.000000,-0.022547,0.000244,-0.022217,-0.049805,0.000488,-0.001465,0.000000,0,0,0,0
15.121698,-1.718750,-1.289062,0.007812,0.000000,0.000000,-0.022739,0.000244,-0.022217,-0.049805,-0.001465,0.002686,0.000000,0,0,0,0
15.131473,-1.718750,-1.289062,0.007812,0.000000,0.000000,-0.022615,0.000244,-0.022217,-0.049805,-0.002197,0.000000,0.000488,0,0,0,0
15.141230,-1.718750,-1.289062,0.007812,0.000000,0.000000,-0.021317,0.000244,-0.022217,-0.049805,0.000000,-0.001465,0.002686,0,0,0,0
15.151001,-1.718750,-1.289062,0.007812,0.000000,0.000000,-0.021729,0.000244,-0.022217,-0.049805,0.000000,-0.000488,-0.000488,0,0,0,0
15.160784,-1.718750,-1.289062,0.007812,0.000000,0.000000,-0.022146,0.000244,-0.022217,-0.049805,-0.002197,-0.001953,0.000488,0,0,0,0
15.170534,-1.718750,-1.289062,0.007812,0.000000,0.000000,-0.021206,0.000438,-0.022397,-0.050001,0.000000,0.000488,0.002686,0,0,0,0
15.180294,-1.718750,-1.289062,0.007812,0.000000,0.000000,-0.022167,0.000244,-0.022217,-0.049805,0.000000,0.000488,0.000977,0,0,0,0
15.190065,-1.718750,-1.289062,0.007812,0.000000,0.000000,-0.022293,0.000244,-0.022217,-0.049805,-0.002197,-0.001465,0.001465,0,0,0,0
15.199827,-1.718750,-1.289062,0.007812,0.000000,0.000000,-0.020802,0.000244,-0.022217,-0.049805,-0.000488,-0.000488,-0.001709,0,0,0,0
15.209592,-1.718750,-1.289062,0.007812,0.000000,0.000000,-0.021368,0.000244,-0.022217,-0.049805,-0.000977,-0.000977,0.000488,0,0,0,0
15.219359,-1.718750,-1.289062,0.007812,0.000000,0.000000,-0.021687,0.000244,-0.022217,-0.049805,0.000977,0.000977,-0.000488,0,0,0,0
15.229125,-1.718750,-1.289062,0.007812,0.000000,0.000000,-0.022104,0.000244,-0.022217,-0.049805,0.001709,0.000488,0.002197,0,0,0,0
15.238888,-1.718750,-1.289062,0.007812,0.000000,0.000000,-0.020901,0.000244,-0.022217,-0.049805,0.002197,-0.000488,-0.001709,0,0,0,0
15.248655,-1.718750,-1.289062,0.007812,0.000000,0.000000,-0.021475,0.000244,-0.022461,-0.049805,0.000488,0.001465,0.002686,0,0,0,0
15.258422,-1.718750,-1.289062,0.007812,0.000000,0.000000,-0.021708,0.000244,-0.022461,-0.049805,0.000488,-0.001465,-0.003174,0,0,0,0
15.268189,-1.718750,-1.289062,0.007812,0.000000,0.000000,-0.020271,0.000244,-0.022461,-0.049805,0.000977,-0.000977,-0.001221,0,0,0,0
