time,pos_x,pos_y,pos_z,vel_x,vel_y,vel_z,att_phi,att_theta,att_psi,rate_p,rate_q,rate_r,cmd_thrust,cmd_roll,cmd_pitch,cmd_yaw
129.082611,1.707031,-0.117188,0.058594,0.000000,0.000000,0.009457,-0.021127,-0.023440,0.489537,0.000000,0.001709,0.000244,0,0,0,0
129.092361,1.707031,-0.117188,0.058594,0.000000,0.000000,0.009354,-0.021127,-0.023440,0.489537,0.001221,0.000244,-0.000732,0,0,0,0
129.102142,1.707031,-0.117188,0.058594,0.000000,0.000000,0.008768,-0.021127,-0.023440,0.489537,0.002197,0.000732,0.002441,0,0,0,0
129.111893,1.707031,-0.117188,0.058594,0.000000,0.000000,0.008972,-0.021127,-0.023440,0.489537,0.002197,-0.002686,0.000732,0,0,0,0
129.121658,1.707031,-0.117188,0.058594,0.000000,0.000000,0.009117,-0.021127,-0.023440,0.489537,0.000732,0.001709,0.000732,0,0,0,0
129.131424,1.707031,-0.117188,0.058594,0.000000,0.000000,0.009542,-0.021127,-0.023440,0.489537,0.001709,0.002930,-0.000244,0,0,0,0
129.141190,1.707031,-0.117188,0.058594,0.000000,0.000000,0.009569,-0.021127,-0.023440,0.489537,0.002686,-0.001709,0.000244,0,0,0,0
129.150970,1.707031,-0.117188,0.058594,0.000000,0.000000,0.009663,-0.021127,-0.023440,0.489537,0.002197,0.002197,-0.000244,0,0,0,0
129.160736,1.707031,-0.117188,0.058594,0.000000,0.000000,0.010027,-0.021127,-0.023440,0.489537,-0.000488,-0.003418,0.001221,0,0,0,0
129.170486,1.707031,-0.117188,0.058594,0.000000,0.000000,0.009638,-0.021127,-0.023440,0.489537,0.000732,-0.000732,0.000244,0,0,0,0
129.180252,1.707031,-0.117188,0.058594,0.000000,0.000000,0.010086,-0.021127,-0.023440,0.489537,-0.000488,0.000732,-0.003418,0,0,0,0
129.190018,1.707031,-0.117188,0.058594,0.000000,0.000000,0.010210,-0.021127,-0.023440,0.489537,0.002686,-0.002686,0.002441,0,0,0,0
129.199799,1.707031,-0.117188,0.058594,0.000000,0.000000,0.009668,-0.020996,-0.023438,0.489258,0.000732,0.001709,0.001953,0,0,0,0
129.209549,1.707031,-0.117188,0.058594,0.000000,0.000000,0.009903,-0.021127,-0.023440,0.489537,-0.000977,0.002197,0.000732,0,0,0,0
129.219315,1.707031,-0.117188,0.058594,0.000000,0.000000,0.010790,-0.021127,-0.023440,0.489537,0.002197,-0.000244,-0.000732,0,0,0,0
129.229095,1.707031,-0.117188,0.058594,0.000000,0.000000,0.010931,-0.021127,-0.023440,0.489537,0.002686,-0.000732,0.000732,0,0,0,0
129.238846,1.707031,-0.117188,0.058594,0.000000,0.000000,0.009945,-0.021127,-0.023440,0.489537,0.000732,-0.000244,0.000244,0,0,0,0
129.248627,1.707031,-0.117188,0.058594,0.000000,0.000000,0.010021,-0.021127,-0.023440,0.489537,0.000732,0.001709,-0.000732,0,0,0,0
129.258377,1.707031,-0.117188,0.058594,0.000000,0.000000,0.010056,-0.021127,-0.023440,0.489537,0.000732,0.000732,0.001221,0,0,0,0
129.268158,1.707031,-0.117188,0.058594,0.000000,0.000000,0.009560,-0.021127,-0.023440,0.489537,-0.000488,0.001709,-0.000732,0,0,0,0
129.277924,1.707031,-0.117188,0.058594,0.000000,0.000000,0.009869,-0.021127,-0.023440,0.489537,0.002197,-0.000732,-0.001465,0,0,0,0
129.287689,1.707031,-0.117188,0.058594,0.000000,0.000000,0.009861,-0.021127,-0.023440,0.489537,0.000732,0.000244,0.000732,0,0,0,0
129.297455,1.707031,-0.117188,0.058594,0.000000,0.000000,0.011023,-0.021127,-0.023440,0.489537,0.001221,0.000244,-0.000244,0,0,0,0
129.307220,1.707031,-0.117188,0.058594,0.000000,0.000000,0.010088,-0.021127,-0.023440,0.489537,0.001221,0.000244,0.001953,0,0,0,0
129.316986,1.707031,-0.117188,0.058594,0.000000,0.000000,0.010082,-0.021127,-0.023440,0.489537,0.000732,0.001709,0.001221,0,0,0,0
129.326752,1.707031,-0.117188,0.058594,0.000000,0.000000,0.010143,-0.021127,-0.023440,0.489537,-0.001465,-0.000244,-0.001465,0,0,0,0
129.336502,1.707031,-0.117188,0.058594,0.000000,0.000000,0.009176,-0.021127,-0.023440,0.489537,-0.003662,0.002197,-0.000244,0,0,0,0
129.346268,1.707031,-0.117188,0.058594,0.000000,0.000000,0.009674,-0.021127,-0.023440,0.489537,-0.001465,0.000244,0.000732,0,0,0,0
129.356049,1.707031,-0.117188,0.058594,0.000000,0.000000,0.009724,-0.021127,-0.023440,0.489537,-0.000488,0.000244,-0.001465,0,0,0,0
129.365814,1.707031,-0.117188,0.058594,0.000000,0.000000,0.009842,-0.021127,-0.023440,0.489537,-0.000488,-0.000732,-0.000244,0,0,0,0
129.375565,1.707031,-0.117188,0.058594,0.000000,0.000000,0.009907,-0.021127,-0.023440,0.489537,-0.000977,-0.000244,-0.002930,0,0,0,0
129.385330,1.707031,-0.117188,0.058594,0.000000,0.000000,0.009737,-0.021127,-0.023440,0.489537,-0.000488,-0.001221,0.001953,0,0,0,0
129.395111,1.707031,-0.117188,0.058594,0.000000,0.000000,0.009943,-0.021127,-0.023440,0.489537,-0.002686,0.001221,-0.001465,0,0,0,0
129.404861,1.707031,-0.117188,0.058594,0.000000,0.000000,0.009066,-0.021127,-0.023440,0.489537,-0.000488,0.000732,-0.001953,0,0,0,0
129.414642,1.707031,-0.117188,0.058594,0.000000,0.000000,0.009335,-0.021127,-0.023440,0.489537,-0.000488,-0.000732,-0.000244,0,0,0,0
129.424393,1.707031,-0.117188,0.058594,0.000000,0.000000,0.009487,-0.021127,-0.023440,0.489537,0.000732,-0.000732,0.000244,0,0,0,0
129.434174,1.707031,-0.117188,0.058594,0.000000,0.000000,0.008684,-0.021124,-0.023440,0.489480,0.000732,-0.000244,0.000244,0,0,0,0
129.443939,1.707031,-0.117188,0.058594,0.000000,0.000000,0.008612,-0.021124,-0.023440,0.489480,0.001221,0.002197,0.000732,0,0,0,0
129.453705,1.707031,-0.117188,0.058594,0.000000,0.000000,0.009611,-0.021063,-0.023440,0.489480,0.001221,-0.001221,-0.000732,0,0,0,0
129.463470,1.707031,-0.117188,0.058594,0.000000,0.000000,0.009541,-0.021063,-0.023440,0.489480,0.000000,-0.000244,-0.001465,0,0,0,0
129.473236,1.707031,-0.117188,0.058594,0.000000,0.000000,0.008636,-0.021064,-0.023440,0.489426,-0.000977,-0.001709,0.001221,0,0,0,0
129.483002,1.707031,-0.117188,0.058594,0.000000,0.000000,0.008442,-0.021064,-0.023440,0.489426,-0.000488,0.000244,-0.001465,0,0,0,0
129.492767,1.707031,-0.117188,0.058594,0.000000,0.000000,0.008244,-0.021064,-0.023440,0.489426,0.000732,0.001221,0.002441,0,0,0,0
129.502533,1.707031,-0.117188,0.058594,0.000000,0.000000,0.007366,-0.020996,-0.023438,0.489258,-0.001953,0.001709,0.000732,0,0,0,0
129.512299,1.707031,-0.117188,0.058594,0.000000,0.000000,0.007547,-0.021064,-0.023440,0.489426,-0.000977,0.000732,0.001221,0,0,0,0
129.522064,1.707031,-0.117188,0.058594,0.000000,0.000000,0.007687,-0.021064,-0.023440,0.489426,-0.000488,-0.000732,-0.001465,0,0,0,0
129.531830,1.707031,-0.117188,0.058594,0.000000,0.000000,0.008430,-0.021064,-0.023440,0.489426,-0.000488,-0.000244,0.000732,0,0,0,0
129.541595,1.707031,-0.117188,0.058594,0.000000,0.000000,0.007301,-0.021064,-0.023440,0.489426,0.000732,0.001221,-0.000732,0,0,0,0
129.551361,1.707031,-0.117188,0.058594,0.000000,0.000000,0.007387,-0.021064,-0.023440,0.489426,-0.000488,-0.001221,-0.001465,0,0,0,0
129.561111,1.707031,-0.117188,0.058594,0.000000,0.000000,0.007149,-0.021064,-0.023501,0.489426,-0.000488,0.000244,-0.001953,0,0,0,0
129.570877,1.707031,-0.117188,0.058594,0.000000,0.000000,0.006376,-0.021064,-0.023501,0.489426,-0.001953,-0.000244,-0.001465,0,0,0,0
129.580643,1.707031,-0.117188,0.058594,0.000000,0.000000,0.006638,-0.021064,-0.023501,0.489426,0.002197,0.003418,-0.002930,0,0,0,0
129.590408,1.707031,-0.117188,0.058594,0.000000,0.000000,0.006762,-0.021064,-0.023501,0.489426,-0.000977,0.000732,0.000732,0,0,0,0
129.600174,1.707031,-0.117188,0.058594,0.000000,0.000000,0.006945,-0.021064,-0.023501,0.489426,-0.000488,-0.001221,0.002441,0,0,0,0
129.609940,1.707031,-0.117188,0.058594,0.000000,0.000000,0.005713,-0.021064,-0.023501,0.489426,-0.001953,-0.001709,-0.000732,0,0,0,0
129.619705,1.707031,-0.117188,0.058594,0.000000,0.000000,0.006060,-0.021064,-0.023501,0.489426,-0.000488,0.001221,0.000732,0,0,0,0
129.629486,1.707031,-0.117188,0.058594,0.000000,0.000000,0.006313,-0.021064,-0.023501,0.489426,-0.000977,0.002930,0.002441,0,0,0,0
129.639236,1.707031,-0.117188,0.058594,0.000000,0.000000,0.006144,-0.021064,-0.023501,0.489426,-0.001953,-0.000732,0.000732,0,0,0,0
129.649017,1.707031,-0.117188,0.058594,0.000000,0.000000,0.006079,-0.021064,-0.023501,0.489426,-0.003662,-0.000244,-0.000732,0,0,0,0
129.658768,1.707031,-0.117188,0.058594,0.000000,0.000000,0.006544,-0.021064,-0.023501,0.489426,-0.000977,-0.000732,-0.000732,0,0,0,0
129.668549,1.707031,-0.117188,0.058594,0.000000,0.000000,0.006001,-0.021064,-0.023501,0.489426,0.001221,-0.002197,-0.000732,0,0,0,0
129.678299,1.707031,-0.117188,0.058594,0.000000,0.000000,0.005394,-0.021064,-0.023562,0.489426,-0.001953,0.001709,-0.000244,0,0,0,0
129.688065,1.707031,-0.117188,0.058594,0.000000,0.000000,0.004868,-0.021064,-0.023562,0.489426,-0.000488,-0.000732,0.001953,0,0,0,0
129.697830,1.707031,-0.117188,0.058594,0.000000,0.000000,0.005005,-0.021064,-0.023562,0.489426,-0.001953,0.000732,0.002441,0,0,0,0
129.707611,1.707031,-0.117188,0.058594,0.000000,0.000000,0.004618,-0.021064,-0.023562,0.489426,-0.001465,0.002197,0.001953,0,0,0,0
129.717377,1.707031,-0.117188,0.058594,0.000000,0.000000,0.004702,-0.021064,-0.023562,0.489426,0.001221,-0.002197,-0.000732,0,0,0,0
129.727142,1.707031,-0.117188,0.058594,0.000000,0.000000,0.004917,-0.021064,-0.023562,0.489426,-0.001953,-0.002686,0.000732,0,0,0,0
129.736908,1.707031,-0.117188,0.058594,0.000000,0.000000,0.004999,-0.021064,-0.023562,0.489426,0.000000,0.000244,0.000244,0,0,0,0
129.746689,1.707031,-0.117188,0.058594,0.000000,0.000000,0.004379,-0.021064,-0.023562,0.489426,-0.000977,0.000732,-0.000732,0,0,0,0
129.756424,1.707031,-0.117188,0.058594,0.000000,0.000000,0.004688,-0.021064,-0.023562,0.489426,-0.000977,0.000244,0.000244,0,0,0,0
129.766205,1.707031,-0.117188,0.058594,0.000000,0.000000,0.004753,-0.021064,-0.023562,0.489426,-0.000488,-0.000732,0.001221,0,0,0,0
129.775955,1.707031,-0.117188,0.058594,0.000000,0.000000,0.004719,-0.021064,-0.023562,0.489426,0.000732,-0.000732,0.000244,0,0,0,0
129.785721,1.707031,-0.117188,0.058594,0.000000,0.000000,0.004654,-0.021064,-0.023562,0.489426,0.000000,0.000732,-0.001465,0,0,0,0
129.795502,1.707031,-0.117188,0.058594,0.000000,0.000000,0.004778,-0.021064,-0.023562,0.489426,-0.000488,0.000244,-0.002441,0,0,0,0
129.805267,1.707031,-0.117188,0.058594,0.000000,0.000000,0.004684,-0.020996,-0.023438,0.489258,0.001709,-0.001709,0.001221,0,0,0,0
129.815018,1.707031,-0.117188,0.058594,0.000000,0.000000,0.004906,-0.021064,-0.023562,0.489426,-0.001465,0.001221,0.000244,0,0,0,0
129.824783,1.707031,-0.117188,0.058594,0.000000,0.000000,0.005196,-0.021064,-0.023562,0.489426,0.002686,-0.000244,0.001221,0,0,0,0
129.834549,1.707031,-0.117188,0.058594,0.000000,0.000000,0.005468,-0.021064,-0.023562,0.489426,0.000000,0.001709,-0.000732,0,0,0,0
129.844315,1.707031,-0.117188,0.058594,0.000000,0.000000,0.005686,-0.021064,-0.023562,0.489426,0.001221,0.000732,-0.001953,0,0,0,0
129.854080,1.707031,-0.117188,0.058594,0.000000,0.000000,0.006042,-0.021064,-0.023562,0.489426,0.001709,-0.001709,-0.000732,0,0,0,0
129.863846,1.707031,-0.117188,0.058594,0.000000,0.000000,0.006250,-0.021064,-0.023562,0.489426,0.001221,-0.001221,-0.002441,0,0,0,0
129.873611,1.707031,-0.117188,0.058594,0.000000,0.000000,0.005619,-0.021064,-0.023562,0.489426,-0.001465,-0.000732,0.000732,0,0,0,0
129.883377,1.707031,-0.117188,0.058594,0.000000,0.000000,0.005732,-0.021064,-0.023562,0.489426,-0.000488,-0.000732,0.000732,0,0,0,0
129.893143,1.707031,-0.117188,0.058594,0.000000,0.000000,0.005714,-0.021064,-0.023562,0.489426,0.003174,-0.000732,0.001953,0,0,0,0
129.902908,1.707031,-0.117188,0.058594,0.000000,0.000000,0.005600,-0.021064,-0.023562,0.489426,0.000732,-0.000244,0.001221,0,0,0,0
129.912674,1.707031,-0.117188,0.058594,0.000000,0.000000,0.004988,-0.021125,-0.023562,0.489426,0.002197,0.000732,0.000244,0,0,0,0
129.922440,1.707031,-0.117188,0.058594,0.000000,0.000000,0.005051,-0.021125,-0.023562,0.489426,-0.000488,0.000244,-0.001465,0,0,0,0
129.932205,1.707031,-0.117188,0.058594,0.000000,0.000000,0.004742,-0.021125,-0.023562,0.489426,0.001709,0.000732,0.000732,0,0,0,0
129.941971,1.707031,-0.117188,0.058594,0.000000,0.000000,0.004143,-0.021125,-0.023562,0.489426,-0.000488,-0.000244,-0.001953,0,0,0,0
129.951736,1.707031,-0.117188,0.058594,0.000000,0.000000,0.004324,-0.021125,-0.023562,0.489426,0.001221,-0.001221,-0.000732,0,0,0,0
129.961502,1.707031,-0.117188,0.058594,0.000000,0.000000,0.004274,-0.021186,-0.023623,0.489426,0.000000,-0.001709,-0.000732,0,0,0,0
129.971298,1.707031,-0.117188,0.058594,0.000000,0.000000,0.004438,-0.021186,-0.023623,0.489426,0.000732,-0.002686,0.000732,0,0,0,0
129.981049,1.707031,-0.117188,0.058594,0.000000,0.000000,0.004116,-0.021186,-0.023623,0.489426,-0.001465,0.000732,0.000244,0,0,0,0
129.990814,1.707031,-0.117188,0.058594,0.000000,0.000000,0.004385,-0.021186,-0.023623,0.489426,0.002686,0.000244,0.000732,0,0,0,0
130.000580,1.707031,-0.117188,0.058594,0.000000,0.000000,0.004547,-0.021186,-0.023623,0.489426,-0.000488,-0.000732,0.002930,0,0,0,0
130.010345,1.707031,-0.117188,0.058594,0.000000,0.000000,0.004387,-0.021186,-0.023623,0.489426,0.000732,-0.000732,0.002930,0,0,0,0
130.020111,1.707031,-0.117188,0.058594,0.000000,0.000000,0.004675,-0.021186,-0.023623,0.489426,-0.001953,-0.001221,0.000244,0,0,0,0
130.029877,1.707031,-0.117188,0.058594,0.000000,0.000000,0.004732,-0.021186,-0.023623,0.489426,0.000000,-0.001221,-0.001465,0,0,0,0
130.039642,1.707031,-0.117188,0.058594,0.000000,0.000000,0.004150,-0.021186,-0.023623,0.489426,0.002686,-0.001709,-0.000244,0,0,0,0
130.049408,1.707031,-0.117188,0.058594,0.000000,0.000000,0.004862,-0.021186,-0.023623,0.489426,0.002197,-0.002686,0.002930,0,0,0,0
130.059174,1.707031,-0.117188,0.058594,0.000000,0.000000,0.005007,-0.021186,-0.023623,0.489426,0.001221,-0.001221,0.001953,0,0,0,0
130.068939,1.707031,-0.117188,0.058594,0.000000,0.000000,0.005114,-0.021186,-0.023684,0.489426,0.000732,-0.001709,0.001953,0,0,0,0
130.078705,1.707031,-0.117188,0.058594,0.000000,0.000000,0.004789,-0.021186,-0.023684,0.489426,0.001221,0.003418,-0.001465,0,0,0,0
130.088455,1.707031,-0.117188,0.058594,0.000000,0.000000,0.004538,-0.021186,-0.023684,0.489426,0.002197,0.003418,0.002930,0,0,0,0
130.098236,1.707031,-0.117188,0.058594,0.000000,0.000000,0.004541,-0.021186,-0.023684,0.489426,-0.000977,0.000732,0.000244,0,0,0,0
130.108002,1.707031,-0.117188,0.058594,0.000000,0.000000,0.004227,-0.021125,-0.023684,0.489426,0.001709,-0.000732,0.003906,0,0,0,0
130.117752,1.707031,-0.117188,0.058594,0.000000,0.000000,0.004501,-0.021125,-0.023684,0.489426,0.003174,-0.001709,0.000244,0,0,0,0
130.127533,1.707031,-0.117188,0.058594,0.000000,0.000000,0.004488,-0.021125,-0.023684,0.489426,0.001709,-0.000732,-0.000732,0,0,0,0
130.137299,1.707031,-0.117188,0.058594,0.000000,0.000000,0.004856,-0.021125,-0.023684,0.489426,0.000732,0.002930,0.001953,0,0,0,0
130.147064,1.707031,-0.117188,0.058594,0.000000,0.000000,0.004618,-0.021125,-0.023684,0.489426,-0.001953,-0.000244,-0.001953,0,0,0,0
130.156830,1.707031,-0.117188,0.058594,0.000000,0.000000,0.004477,-0.021125,-0.023684,0.489426,0.000000,-0.000244,0.002441,0,0,0,0
130.166580,1.707031,-0.117188,0.058594,0.000000,0.000000,0.004576,-0.021125,-0.023684,0.489426,0.002686,-0.000732,-0.000244,0,0,0,0
130.176346,1.707031,-0.117188,0.058594,0.000000,0.000000,0.004650,-0.021125,-0.023684,0.489426,-0.003662,0.000732,0.000244,0,0,0,0
130.186111,1.707031,-0.117188,0.058594,0.000000,0.000000,0.004957,-0.021125,-0.023684,0.489426,0.000000,-0.000244,0.002441,0,0,0,0
130.195877,1.707031,-0.117188,0.058594,0.000000,0.000000,0.004969,-0.021125,-0.023684,0.489426,-0.001953,-0.000244,-0.000244,0,0,0,0
130.205643,1.707031,-0.117188,0.058594,0.000000,0.000000,0.005032,-0.021125,-0.023684,0.489426,-0.000488,-0.002197,0.000244,0,0,0,0
130.215424,1.707031,-0.117188,0.058594,0.000000,0.000000,0.004711,-0.021125,-0.023684,0.489426,0.001709,0.000732,0.001953,0,0,0,0
130.225174,1.707031,-0.117188,0.058594,0.000000,0.000000,0.005047,-0.021125,-0.023684,0.489426,-0.003662,-0.001221,-0.001465,0,0,0,0
130.234955,1.707031,-0.117188,0.058594,0.000000,0.000000,0.005020,-0.021125,-0.023684,0.489426,-0.001465,-0.003418,0.000732,0,0,0,0
130.244705,1.707031,-0.117188,0.058594,0.000000,0.000000,0.004623,-0.021125,-0.023684,0.489426,0.001709,-0.000244,-0.001953,0,0,0,0
130.254471,1.707031,-0.117188,0.058594,0.000000,0.000000,0.004549,-0.021125,-0.023684,0.489426,0.000000,-0.000732,0.000732,0,0,0,0
130.264236,1.707031,-0.117188,0.058594,0.000000,0.000000,0.004255,-0.021125,-0.023684,0.489426,0.001221,-0.000244,-0.000732,0,0,0,0
130.274017,1.707031,-0.117188,0.058594,0.000000,0.000000,0.004381,-0.021125,-0.023684,0.489426,0.002197,0.000244,0.000244,0,0,0,0
130.283768,1.707031,-0.117188,0.058594,0.000000,0.000000,0.004147,-0.021125,-0.023684,0.489426,-0.000977,0.002197,-0.000732,0,0,0,0
130.293533,1.707031,-0.117188,0.058594,0.000000,0.000000,0.004538,-0.021125,-0.023684,0.489372,-0.003174,0.000244,0.001221,0,0,0,0
130.303314,1.707031,-0.117188,0.058594,0.000000,0.000000,0.004725,-0.021125,-0.023684,0.489372,-0.000977,-0.000732,-0.001465,0,0,0,0
130.313065,1.707031,-0.117188,0.058594,0.000000,0.000000,0.005632,-0.021125,-0.023684,0.489372,0.000000,-0.001709,0.002441,0,0,0,0
130.322830,1.707031,-0.117188,0.058594,0.000000,0.000000,0.006025,-0.021125,-0.023684,0.489372,0.000732,-0.000244,-0.000732,0,0,0,0
130.332596,1.707031,-0.117188,0.058594,0.000000,0.000000,0.006508,-0.021125,-0.023684,0.489372,0.001709,0.001221,-0.001953,0,0,0,0
130.342361,1.707031,-0.117188,0.058594,0.000000,0.000000,0.006279,-0.021125,-0.023684,0.489372,-0.001953,0.000732,0.000244,0,0,0,0
130.352127,1.707031,-0.117188,0.058594,0.000000,0.000000,0.006378,-0.021125,-0.023684,0.489372,0.000732,0.003418,0.001953,0,0,0,0
130.361893,1.707031,-0.117188,0.058594,0.000000,0.000000,0.006420,-0.021125,-0.023684,0.489372,0.001221,0.001221,0.001953,0,0,0,0
130.371658,1.707031,-0.117188,0.058594,0.000000,0.000000,0.006531,-0.021125,-0.023684,0.489372,0.001221,0.000732,0.000244,0,0,0,0
130.381424,1.707031,-0.117188,0.058594,0.000000,0.000000,0.006334,-0.021125,-0.023684,0.489372,0.000000,0.001221,-0.000732,0,0,0,0
130.391190,1.707031,-0.117188,0.058594,0.000000,0.000000,0.007030,-0.021125,-0.023684,0.489372,0.000732,-0.001221,-0.001465,0,0,0,0
130.400955,1.707031,-0.117188,0.058594,0.000000,0.000000,0.007189,-0.021125,-0.023684,0.489372,0.000732,-0.000244,0.000732,0,0,0,0
130.410736,1.707031,-0.117188,0.058594,0.000000,0.000000,0.006903,-0.020996,-0.023682,0.489258,0.000732,0.004395,-0.001953,0,0,0,0
130.420486,1.707031,-0.117188,0.058594,0.000000,0.000000,0.007086,-0.021125,-0.023684,0.489372,-0.003174,0.002197,-0.001465,0,0,0,0
130.430267,1.707031,-0.117188,0.058594,0.000000,0.000000,0.007267,-0.021125,-0.023684,0.489372,-0.001465,-0.000244,-0.000732,0,0,0,0
130.440018,1.707031,-0.117188,0.058594,0.000000,0.000000,0.007360,-0.021125,-0.023684,0.489372,-0.000488,-0.002197,-0.002930,0,0,0,0
130.449783,1.707031,-0.117188,0.058594,0.000000,0.000000,0.007360,-0.021125,-0.023684,0.489372,0.000000,-0.002686,-0.000732,0,0,0,0
130.459549,1.707031,-0.117188,0.058594,0.000000,0.000000,0.007423,-0.021125,-0.023684,0.489372,-0.001953,0.000732,-0.000732,0,0,0,0
130.469330,1.707031,-0.117188,0.058594,0.000000,0.000000,0.008160,-0.021125,-0.023684,0.489372,0.001221,-0.000244,-0.000732,0,0,0,0
130.479095,1.707031,-0.117188,0.058594,0.000000,0.000000,0.007967,-0.021125,-0.023684,0.489372,0.000000,-0.001221,-0.000732,0,0,0,0
130.488861,1.707031,-0.117188,0.058594,0.000000,0.000000,0.008127,-0.021125,-0.023684,0.489372,-0.001465,-0.000244,0.000244,0,0,0,0
130.498627,1.707031,-0.117188,0.058594,0.000000,0.000000,0.008186,-0.021125,-0.023684,0.489372,0.003906,0.001221,-0.000732,0,0,0,0
130.508377,1.707031,-0.117188,0.058594,0.000000,0.000000,0.007671,-0.021125,-0.023684,0.489372,-0.000977,-0.000732,0.000244,0,0,0,0
130.518158,1.707031,-0.117188,0.058594,0.000000,0.000000,0.008017,-0.021125,-0.023684,0.489372,-0.000977,0.001709,-0.002930,0,0,0,0
130.527924,1.707031,-0.117188,0.058594,0.000000,0.000000,0.008394,-0.021064,-0.023745,0.489372,-0.002686,-0.000244,-0.002930,0,0,0,0
130.537689,1.707031,-0.117188,0.058594,0.000000,0.000000,0.009089,-0.021064,-0.023745,0.489372,-0.002686,-0.000732,0.000244,0,0,0,0
130.547455,1.707031,-0.117188,0.058594,0.000000,0.000000,0.008722,-0.021064,-0.023745,0.489372,0.001221,-0.000732,0.000244,0,0,0,0
130.557220,1.707031,-0.117188,0.058594,0.000000,0.000000,0.008768,-0.021064,-0.023745,0.489372,0.001221,-0.000244,0.001953,0,0,0,0
130.566986,1.707031,-0.117188,0.058594,0.000000,0.000000,0.008921,-0.021064,-0.023745,0.489372,-0.003662,0.000732,0.001953,0,0,0,0
130.576752,1.707031,-0.117188,0.058594,0.000000,0.000000,0.008402,-0.021064,-0.023745,0.489372,0.001709,-0.000732,-0.000732,0,0,0,0
130.586517,1.707031,-0.117188,0.058594,0.000000,0.000000,0.008286,-0.021064,-0.023745,0.489372,0.001221,0.002197,-0.001953,0,0,0,0
130.596283,1.707031,-0.117188,0.058594,0.000000,0.000000,0.008276,-0.021064,-0.023745,0.489372,0.000732,-0.000732,0.000732,0,0,0,0
130.606033,1.707031,-0.117188,0.058594,0.000000,0.000000,0.008938,-0.021064,-0.023745,0.489372,0.001221,-0.002686,-0.001953,0,0,0,0
130.615814,1.707031,-0.117188,0.058594,0.000000,0.000000,0.008484,-0.021064,-0.023745,0.489372,0.001221,0.001221,-0.000732,0,0,0,0
130.625565,1.707031,-0.117188,0.058594,0.000000,0.000000,0.008707,-0.021064,-0.023745,0.489372,0.000000,0.001709,0.001221,0,0,0,0
130.635330,1.707031,-0.117188,0.058594,0.000000,0.000000,0.008673,-0.021064,-0.023745,0.489372,0.000732,-0.000732,0.000244,0,0,0,0
130.645096,1.707031,-0.117188,0.058594,0.000000,0.000000,0.008156,-0.021064,-0.023745,0.489372,-0.003662,0.000244,-0.001465,0,0,0,0
130.654861,1.707031,-0.117188,0.058594,0.000000,0.000000,0.008188,-0.021064,-0.023745,0.489372,0.000732,0.002197,-0.000244,0,0,0,0
130.664642,1.707031,-0.117188,0.058594,0.000000,0.000000,0.008255,-0.021064,-0.023745,0.489372,-0.001465,0.000244,0.001221,0,0,0,0
130.674393,1.707031,-0.117188,0.058594,0.000000,0.000000,0.008732,-0.021064,-0.023745,0.489372,0.001221,0.000244,-0.000244,0,0,0,0
130.684174,1.707031,-0.117188,0.058594,0.000000,0.000000,0.008072,-0.021064,-0.023745,0.489372,0.001221,0.000732,-0.000732,0,0,0,0
130.693924,1.707031,-0.117188,0.058594,0.000000,0.000000,0.008257,-0.021064,-0.023745,0.489372,-0.000977,0.000244,0.000732,0,0,0,0
130.703690,1.707031,-0.117188,0.058594,0.000000,0.000000,0.008669,-0.021066,-0.023745,0.489318,0.000000,0.001221,0.000244,0,0,0,0
130.713470,1.707031,-0.117188,0.058594,0.000000,0.000000,0.008261,-0.020996,-0.023682,0.489258,-0.001465,-0.000244,0.000732,0,0,0,0
130.723221,1.707031,-0.117188,0.058594,0.000000,0.000000,0.008911,-0.021066,-0.023745,0.489318,0.001221,-0.000732,0.000244,0,0,0,0
130.732986,1.707031,-0.117188,0.058594,0.000000,0.000000,0.008898,-0.021066,-0.023745,0.489318,0.000000,-0.001221,-0.000244,0,0,0,0
130.742767,1.707031,-0.117188,0.058594,0.000000,0.000000,0.008741,-0.021066,-0.023745,0.489318,0.001709,0.000244,-0.001465,0,0,0,0
130.752518,1.707031,-0.117188,0.058594,0.000000,0.000000,0.007729,-0.021066,-0.023745,0.489318,-0.000488,0.002197,-0.000732,0,0,0,0
130.762299,1.707031,-0.117188,0.058594,0.000000,0.000000,0.008045,-0.021066,-0.023745,0.489318,-0.000488,-0.002197,-0.000732,0,0,0,0
130.772049,1.707031,-0.117188,0.058594,0.000000,0.000000,0.008001,-0.021066,-0.023745,0.489318,-0.001953,-0.001221,-0.000244,0,0,0,0
130.781830,1.707031,-0.117188,0.058594,0.000000,0.000000,0.007837,-0.021066,-0.023745,0.489318,0.002197,-0.000244,-0.000244,0,0,0,0
130.791580,1.707031,-0.117188,0.058594,0.000000,0.000000,0.007898,-0.021066,-0.023745,0.489318,0.000732,0.000244,0.000244,0,0,0,0
130.801346,1.707031,-0.117188,0.058594,0.000000,0.000000,0.008348,-0.021066,-0.023745,0.489318,0.001709,0.000244,-0.000244,0,0,0,0
130.811111,1.707031,-0.117188,0.058594,0.000000,0.000000,0.007565,-0.021066,-0.023745,0.489318,0.001221,0.000244,0.000732,0,0,0,0
130.820877,1.707031,-0.117188,0.058594,0.000000,0.000000,0.008011,-0.021066,-0.023745,0.489318,-0.001465,0.001221,-0.001953,0,0,0,0
130.830658,1.707031,-0.117188,0.058594,0.000000,0.000000,0.008379,-0.021066,-0.023745,0.489318,0.001221,0.000244,-0.001465,0,0,0,0
130.840424,1.707031,-0.117188,0.058594,0.000000,0.000000,0.008339,-0.021066,-0.023745,0.489318,0.001709,0.000244,0.001221,0,0,0,0
130.850189,1.707031,-0.117188,0.058594,0.000000,0.000000,0.007788,-0.021066,-0.023745,0.489318,0.000732,0.000244,-0.001465,0,0,0,0
130.859940,1.707031,-0.117188,0.058594,0.000000,0.000000,0.007919,-0.021066,-0.023745,0.489318,0.001221,0.001709,-0.002930,0,0,0,0
130.869705,1.707031,-0.117188,0.058594,0.000000,0.000000,0.008448,-0.021066,-0.023745,0.489318,0.004395,-0.000244,0.000732,0,0,0,0
130.879486,1.707031,-0.117188,0.058594,0.000000,0.000000,0.008104,-0.021066,-0.023745,0.489318,0.000732,-0.000732,0.002441,0,0,0,0
130.889236,1.707031,-0.117188,0.058594,0.000000,0.000000,0.008249,-0.021066,-0.023745,0.489318,0.000000,0.000244,0.000732,0,0,0,0
130.899017,1.707031,-0.117188,0.058594,0.000000,0.000000,0.008175,-0.021066,-0.023745,0.489318,0.002197,0.001221,0.001953,0,0,0,0
130.908768,1.707031,-0.117188,0.058594,0.000000,0.000000,0.008587,-0.021066,-0.023745,0.489318,-0.000488,0.001221,-0.000244,0,0,0,0
130.918533,1.707031,-0.117188,0.058594,0.000000,0.000000,0.008274,-0.021066,-0.023745,0.489318,0.000732,0.000732,-0.000244,0,0,0,0
130.928299,1.707031,-0.117188,0.058594,0.000000,0.000000,0.008289,-0.021066,-0.023745,0.489318,0.004395,-0.000244,0.000732,0,0,0,0
130.938065,1.707031,-0.117188,0.058594,0.000000,0.000000,0.007868,-0.021005,-0.023806,0.489318,0.002197,-0.000244,-0.000244,0,0,0,0
130.947845,1.707031,-0.117188,0.058594,0.000000,0.000000,0.007175,-0.021005,-0.023806,0.489318,-0.000977,-0.000732,-0.000244,0,0,0,0
130.957611,1.707031,-0.117188,0.058594,0.000000,0.000000,0.007652,-0.021005,-0.023806,0.489318,0.003906,-0.001709,0.001221,0,0,0,0
130.967377,1.707031,-0.117188,0.058594,0.000000,0.000000,0.007589,-0.021005,-0.023806,0.489318,-0.000977,0.003418,0.001953,0,0,0,0
130.977142,1.707031,-0.117188,0.058594,0.000000,0.000000,0.007391,-0.021005,-0.023806,0.489318,0.001221,0.000244,0.000244,0,0,0,0
130.986908,1.707031,-0.117188,0.058594,0.000000,0.000000,0.007256,-0.021005,-0.023806,0.489318,-0.001953,-0.000244,0.000244,0,0,0,0
130.996704,1.707031,-0.117188,0.058594,0.000000,0.000000,0.007036,-0.021005,-0.023806,0.489318,0.001221,0.000732,0.000244,0,0,0,0
131.006424,1.707031,-0.117188,0.058594,0.000000,0.000000,0.007036,-0.021005,-0.023806,0.489318,0.002197,0.001221,0.001953,0,0,0,0
131.016190,1.707031,-0.117188,0.058594,0.000000,0.000000,0.006262,-0.021005,-0.023806,0.489318,0.002686,0.000244,0.001221,0,0,0,0
131.025970,1.707031,-0.117188,0.058594,0.000000,0.000000,0.006130,-0.021005,-0.023806,0.489318,0.000000,0.001221,-0.000244,0,0,0,0
131.035721,1.707031,-0.117188,0.058594,0.000000,0.000000,0.006073,-0.021005,-0.023806,0.489318,0.000000,0.000732,-0.001465,0,0,0,0
131.045502,1.707031,-0.117188,0.058594,0.000000,0.000000,0.006140,-0.021005,-0.023806,0.489318,0.001709,0.000732,0.000732,0,0,0,0
131.055252,1.707031,-0.117188,0.058594,0.000000,0.000000,0.006130,-0.021005,-0.023806,0.489318,0.003174,0.000732,0.000244,0,0,0,0
131.065033,1.707031,-0.117188,0.058594,0.000000,0.000000,0.006491,-0.021005,-0.023806,0.489318,0.000732,0.000732,-0.001465,0,0,0,0
131.074783,1.707031,-0.117188,0.058594,0.000000,0.000000,0.006926,-0.021005,-0.023806,0.489318,-0.000488,0.001709,0.001221,0,0,0,0
131.084564,1.707031,-0.117188,0.058594,0.000000,0.000000,0.006531,-0.020996,-0.023682,0.489258,0.002197,-0.001221,-0.000244,0,0,0,0
131.094315,1.707031,-0.117188,0.058594,0.000000,0.000000,0.006378,-0.021005,-0.023806,0.489318,0.002197,0.001221,-0.001465,0,0,0,0
131.104080,1.707031,-0.117188,0.058594,0.000000,0.000000,0.006800,-0.021005,-0.023806,0.489318,0.001221,0.001709,-0.000732,0,0,0,0
131.113846,1.707031,-0.117188,0.058594,0.000000,0.000000,0.006987,-0.021005,-0.023806,0.489318,0.000000,0.000732,0.000732,0,0,0,0
131.123611,1.707031,-0.117188,0.058594,0.000000,0.000000,0.007168,-0.021005,-0.023806,0.489318,-0.000977,-0.002197,0.001221,0,0,0,0
131.133392,1.707031,-0.117188,0.058594,0.000000,0.000000,0.007412,-0.021005,-0.023806,0.489318,0.000000,-0.001709,0.002441,0,0,0,0
131.143143,1.707031,-0.117188,0.058594,0.000000,0.000000,0.007658,-0.021005,-0.023806,0.489318,-0.000488,0.000244,0.000244,0,0,0,0
131.152924,1.707031,-0.117188,0.058594,0.000000,0.000000,0.007002,-0.021005,-0.023806,0.489318,-0.001953,0.000244,-0.000732,0,0,0,0
131.162674,1.707031,-0.117188,0.058594,0.000000,0.000000,0.007036,-0.021005,-0.023806,0.489318,0.000000,0.002197,0.000732,0,0,0,0
131.172440,1.707031,-0.117188,0.058594,0.000000,0.000000,0.006250,-0.021005,-0.023806,0.489318,-0.000977,0.002197,0.001953,0,0,0,0
131.182220,1.707031,-0.117188,0.058594,0.000000,0.000000,0.006279,-0.021005,-0.023806,0.489318,-0.000977,0.001709,-0.000732,0,0,0,0
131.191986,1.707031,-0.117188,0.058594,0.000000,0.000000,0.006342,-0.021005,-0.023806,0.489318,-0.003174,0.000732,-0.001465,0,0,0,0
131.201736,1.707031,-0.117188,0.058594,0.000000,0.000000,0.006521,-0.021005,-0.023806,0.489318,-0.000977,-0.000732,-0.001465,0,0,0,0
131.211517,1.707031,-0.117188,0.058594,0.000000,0.000000,0.007051,-0.021005,-0.023806,0.489318,0.001709,0.002930,-0.002930,0,0,0,0
131.221268,1.707031,-0.117188,0.058594,0.000000,0.000000,0.006924,-0.021005,-0.023806,0.489318,0.002686,-0.001709,-0.000244,0,0,0,0
131.231033,1.707031,-0.117188,0.058594,0.000000,0.000000,0.007126,-0.021005,-0.023806,0.489318,0.002686,0.001221,0.001953,0,0,0,0
131.240799,1.707031,-0.117188,0.058594,0.000000,0.000000,0.006979,-0.021005,-0.023806,0.489318,-0.001953,-0.000244,-0.001465,0,0,0,0
131.250565,1.707031,-0.117188,0.058594,0.000000,0.000000,0.007416,-0.021005,-0.023806,0.489318,0.000000,-0.001221,-0.001465,0,0,0,0
131.260330,1.707031,-0.117188,0.058594,0.000000,0.000000,0.007719,-0.021005,-0.023806,0.489318,-0.000488,0.000732,0.000244,0,0,0,0
131.270096,1.707031,-0.117188,0.058594,0.000000,0.000000,0.008125,-0.021005,-0.023806,0.489318,-0.000488,-0.000244,0.002441,0,0,0,0
131.279877,1.707031,-0.117188,0.058594,0.000000,0.000000,0.008419,-0.021005,-0.023806,0.489318,0.000732,0.001221,0.000244,0,0,0,0
131.289627,1.707031,-0.117188,0.058594,0.000000,0.000000,0.007973,-0.021005,-0.023806,0.489318,0.001221,-0.000244,-0.000244,0,0,0,0
131.299408,1.707031,-0.117188,0.058594,0.000000,0.000000,0.007912,-0.021005,-0.023806,0.489318,-0.000488,-0.002686,-0.000732,0,0,0,0
131.309158,1.707031,-0.117188,0.058594,0.000000,0.000000,0.008493,-0.020944,-0.023806,0.489318,-0.001465,0.000732,-0.001465,0,0,0,0
131.318924,1.707031,-0.117188,0.058594,0.000000,0.000000,0.007948,-0.020944,-0.023806,0.489318,0.000732,0.001221,-0.000732,0,0,0,0
131.328705,1.707031,-0.117188,0.058594,0.000000,0.000000,0.009892,-0.020944,-0.023806,0.489318,-0.002686,0.000732,-0.000732,0,0,0,0
131.338455,1.707031,-0.117188,0.058594,0.000000,0.000000,0.010208,-0.020944,-0.023806,0.489318,0.000000,-0.000732,-0.000244,0,0,0,0
131.348221,1.707031,-0.117188,0.058594,0.000000,0.000000,0.009607,-0.020944,-0.023806,0.489318,0.000000,0.000732,-0.000732,0,0,0,0
131.357986,1.707031,-0.117188,0.058594,0.000000,0.000000,0.009747,-0.020944,-0.023806,0.489318,0.000000,0.000244,-0.000244,0,0,0,0
131.367767,1.707031,-0.117188,0.058594,0.000000,0.000000,0.009949,-0.020944,-0.023806,0.489318,-0.001465,0.003906,-0.000244,0,0,0,0
131.377533,1.707031,-0.117188,0.058594,0.000000,0.000000,0.010283,-0.020944,-0.023806,0.489318,0.000000,0.000732,-0.001465,0,0,0,0
131.387299,1.707031,-0.117188,0.058594,0.000000,0.000000,0.009451,-0.020944,-0.023806,0.489318,-0.001465,0.002197,-0.000244,0,0,0,0
131.397064,1.707031,-0.117188,0.058594,0.000000,0.000000,0.009670,-0.020944,-0.023806,0.489318,-0.000977,0.003418,-0.001465,0,0,0,0
131.406830,1.707031,-0.117188,0.058594,0.000000,0.000000,0.011236,-0.020944,-0.023806,0.489318,-0.000977,0.000244,-0.000732,0,0,0,0
131.416580,1.707031,-0.117188,0.058594,0.000000,0.000000,0.009859,-0.020944,-0.023806,0.489318,-0.000977,0.000732,0.001221,0,0,0,0
131.426346,1.707031,-0.117188,0.058594,0.000000,0.000000,0.009838,-0.020944,-0.023806,0.489318,-0.001465,0.000244,-0.001465,0,0,0,0
131.436111,1.707031,-0.117188,0.058594,0.000000,0.000000,0.009649,-0.020944,-0.023806,0.489318,-0.000488,0.000732,-0.000244,0,0,0,0
131.445877,1.707031,-0.117188,0.058594,0.000000,0.000000,0.009846,-0.020944,-0.023806,0.489318,0.001709,-0.000732,-0.001953,0,0,0,0
131.455643,1.707031,-0.117188,0.058594,0.000000,0.000000,0.008959,-0.020944,-0.023806,0.489318,0.001221,0.001221,-0.000732,0,0,0,0
131.465408,1.707031,-0.117188,0.058594,0.000000,0.000000,0.009491,-0.020944,-0.023806,0.489318,-0.000488,-0.002197,-0.000244,0,0,0,0
131.475174,1.707031,-0.117188,0.058594,0.000000,0.000000,0.009525,-0.020944,-0.023806,0.489318,-0.001465,-0.000244,0.000732,0,0,0,0
131.484940,1.707031,-0.117188,0.058594,0.000000,0.000000,0.010025,-0.020944,-0.023806,0.489318,0.000732,0.000244,-0.001953,0,0,0,0
131.494705,1.707031,-0.117188,0.058594,0.000000,0.000000,0.010067,-0.020882,-0.023806,0.489318,0.000000,0.001709,-0.001953,0,0,0,0
131.504471,1.707031,-0.117188,0.058594,0.000000,0.000000,0.010269,-0.020882,-0.023806,0.489318,0.001221,0.000244,-0.000732,0,0,0,0
131.514236,1.707031,-0.117188,0.058594,0.000000,0.000000,0.010468,-0.020882,-0.023806,0.489318,-0.000488,0.002930,0.000244,0,0,0,0
131.524017,1.707031,-0.117188,0.058594,0.000000,0.000000,0.008917,-0.020752,-0.023682,0.489258,-0.001465,-0.000732,-0.001465,0,0,0,0
131.533768,1.707031,-0.117188,0.058594,0.000000,0.000000,0.008934,-0.020882,-0.023806,0.489318,-0.000488,0.001221,-0.000244,0,0,0,0
131.543549,1.707031,-0.117188,0.058594,0.000000,0.000000,0.008934,-0.020882,-0.023806,0.489318,0.000000,0.001221,0.001221,0,0,0,0
131.553314,1.707031,-0.117188,0.058594,0.000000,0.000000,0.007822,-0.020882,-0.023806,0.489318,0.000732,0.003418,-0.001465,0,0,0,0
131.563080,1.707031,-0.117188,0.058594,0.000000,0.000000,0.009340,-0.020880,-0.023806,0.489314,-0.000488,-0.001221,-0.000244,0,0,0,0
131.572845,1.707031,-0.117188,0.058594,0.000000,0.000000,0.009171,-0.020880,-0.023806,0.489314,0.000732,-0.000244,0.001221,0,0,0,0
131.582611,1.707031,-0.117188,0.058594,0.000000,0.000000,0.008001,-0.020880,-0.023806,0.489314,0.001709,0.002197,-0.000732,0,0,0,0
131.592361,1.707031,-0.117188,0.058594,0.000000,0.000000,0.007658,-0.020880,-0.023806,0.489314,0.001709,-0.001709,-0.000732,0,0,0,0
131.602142,1.707031,-0.117188,0.058594,0.000000,0.000000,0.007805,-0.020880,-0.023806,0.489314,0.000732,0.001221,-0.001465,0,0,0,0
131.611908,1.707031,-0.117188,0.058594,0.000000,0.000000,0.007822,-0.020880,-0.023806,0.489314,0.001221,-0.000732,0.000244,0,0,0,0
131.621674,1.707031,-0.117188,0.058594,0.000000,0.000000,0.006674,-0.020880,-0.023806,0.489314,0.001709,-0.001221,0.001221,0,0,0,0
131.631439,1.707031,-0.117188,0.058594,0.000000,0.000000,0.006720,-0.020880,-0.023806,0.489314,0.000000,-0.000244,-0.000732,0,0,0,0
131.641205,1.707031,-0.117188,0.058594,0.000000,0.000000,0.008450,-0.020880,-0.023806,0.489314,0.000000,0.000732,0.000732,0,0,0,0
131.650955,1.707031,-0.117188,0.058594,0.000000,0.000000,0.007076,-0.020880,-0.023806,0.489314,0.001709,-0.000732,0.000244,0,0,0,0
131.660721,1.707031,-0.117188,0.058594,0.000000,0.000000,0.007277,-0.020880,-0.023806,0.489314,0.003906,0.000732,0.001953,0,0,0,0
131.670486,1.707031,-0.117188,0.058594,0.000000,0.000000,0.007656,-0.020880,-0.023806,0.489314,0.004395,-0.002686,0.001221,0,0,0,0
131.680252,1.707031,-0.117188,0.058594,0.000000,0.000000,0.008001,-0.020819,-0.023806,0.489314,0.003906,0.000244,0.001221,0,0,0,0
131.690018,1.707031,-0.117188,0.058594,0.000000,0.000000,0.006563,-0.020819,-0.023806,0.489314,0.002686,0.000732,-0.000732,0,0,0,0
131.699799,1.707031,-0.117188,0.058594,0.000000,0.000000,0.007082,-0.020819,-0.023806,0.489314,-0.000244,-0.001221,-0.001465,0,0,0,0
131.709549,1.707031,-0.117188,0.058594,0.000000,0.000000,0.007257,-0.020819,-0.023806,0.489314,0.002441,0.000244,-0.000732,0,0,0,0
131.719315,1.707031,-0.117188,0.058594,0.000000,0.000000,0.007540,-0.020819,-0.023806,0.489314,0.000488,0.000732,-0.002930,0,0,0,0
131.729095,1.707031,-0.117188,0.058594,0.000000,0.000000,0.007559,-0.020819,-0.023806,0.489314,0.001953,-0.000244,-0.000732,0,0,0,0
131.738846,1.707031,-0.117188,0.058594,0.000000,0.000000,0.007872,-0.020819,-0.023806,0.489314,0.000977,-0.001221,-0.000732,0,0,0,0
131.748627,1.707031,-0.117188,0.058594,0.000000,0.000000,0.008060,-0.020819,-0.023806,0.489314,0.004639,-0.001709,0.000732,0,0,0,0
131.758392,1.707031,-0.117188,0.058594,0.000000,0.000000,0.006847,-0.020819,-0.023806,0.489314,0.001953,0.002197,-0.000732,0,0,0,0
131.768143,1.707031,-0.117188,0.058594,0.000000,0.000000,0.007137,-0.020819,-0.023806,0.489314,0.000488,-0.000732,0.000244,0,0,0,0
131.777908,1.707031,-0.117188,0.058594,0.000000,0.000000,0.007341,-0.020819,-0.023806,0.489314,0.002441,-0.000244,0.001953,0,0,0,0
131.787689,1.707031,-0.117188,0.058594,0.000000,0.000000,0.006643,-0.020819,-0.023806,0.489314,0.001465,0.000732,0.001221,0,0,0,0
131.797455,1.707031,-0.117188,0.058594,0.000000,0.000000,0.007637,-0.020819,-0.023806,0.489314,0.001953,-0.002197,0.000244,0,0,0,0
131.807220,1.707031,-0.117188,0.058594,0.000000,0.000000,0.007860,-0.020819,-0.023806,0.489314,0.002930,0.000732,0.000244,0,0,0,0
131.816986,1.707031,-0.117188,0.058594,0.000000,0.000000,0.006527,-0.020819,-0.023806,0.489314,0.000488,0.001221,0.001953,0,0,0,0
131.826752,1.707031,-0.117188,0.058594,0.000000,0.000000,0.006784,-0.020752,-0.023682,0.489258,0.000488,0.001221,0.000244,0,0,0,0
131.836502,1.707031,-0.117188,0.058594,0.000000,0.000000,0.006935,-0.020819,-0.023806,0.489314,0.002441,-0.001709,0.000244,0,0,0,0
131.846268,1.707031,-0.117188,0.058594,0.000000,0.000000,0.007187,-0.020819,-0.023806,0.489314,0.001465,-0.001709,0.000244,0,0,0,0
131.856033,1.707031,-0.117188,0.058594,0.000000,0.000000,0.006098,-0.020819,-0.023806,0.489314,0.001953,0.002197,-0.000244,0,0,0,0
131.865799,1.707031,-0.117188,0.058594,0.000000,0.000000,0.005928,-0.020819,-0.023806,0.489314,0.002930,0.000244,0.001221,0,0,0,0
131.875565,1.707031,-0.117188,0.058594,0.000000,0.000000,0.007971,-0.020819,-0.023806,0.489314,0.000977,-0.003906,0.000244,0,0,0,0
131.885330,1.707031,-0.117188,0.058594,0.000000,0.000000,0.006998,-0.020819,-0.023867,0.489314,-0.000244,0.000244,0.001953,0,0,0,0
131.895111,1.707031,-0.117188,0.058594,0.000000,0.000000,0.007158,-0.020819,-0.023867,0.489314,0.000488,0.002930,0.000244,0,0,0,0
131.904861,1.707031,-0.117188,0.058594,0.000000,0.000000,0.007402,-0.020819,-0.023867,0.489314,0.001953,-0.000732,0.001221,0,0,0,0
131.914627,1.707031,-0.117188,0.058594,0.000000,0.000000,0.007463,-0.020819,-0.023867,0.489314,0.000977,-0.000244,-0.000244,0,0,0,0
131.924393,1.707031,-0.117188,0.058594,0.000000,0.000000,0.006582,-0.020819,-0.023867,0.489314,0.001465,0.001221,-0.000732,0,0,0,0
131.934174,1.707031,-0.117188,0.058594,0.000000,0.000000,0.006769,-0.020819,-0.023867,0.489314,0.001953,0.000732,0.002441,0,0,0,0
131.943924,1.707031,-0.117188,0.058594,0.000000,0.000000,0.007147,-0.020819,-0.023867,0.489314,0.001465,-0.001709,0.001221,0,0,0,0
131.953690,1.707031,-0.117188,0.058594,0.000000,0.000000,0.008213,-0.020819,-0.023867,0.489314,-0.000244,0.000244,-0.002441,0,0,0,0
131.963455,1.707031,-0.117188,0.058594,0.000000,0.000000,0.008688,-0.020819,-0.023867,0.489314,-0.000244,-0.000244,0.001221,0,0,0,0
131.973221,1.707031,-0.117188,0.058594,0.000000,0.000000,0.008505,-0.020819,-0.023867,0.489314,0.002930,0.000732,0.000732,0,0,0,0
131.983002,1.707031,-0.117188,0.058594,0.000000,0.000000,0.008549,-0.020819,-0.023867,0.489314,0.000488,0.000244,0.001953,0,0,0,0
131.992752,1.707031,-0.117188,0.058594,0.000000,0.000000,0.007635,-0.020819,-0.023867,0.489314,-0.000244,0.000732,0.001953,0,0,0,0
132.002518,1.707031,-0.117188,0.058594,0.000000,0.000000,0.007530,-0.020819,-0.023867,0.489314,0.002930,-0.001221,0.001221,0,0,0,0
132.012283,1.707031,-0.117188,0.058594,0.000000,0.000000,0.007723,-0.020819,-0.023867,0.489314,0.004150,0.003906,0.001221,0,0,0,0
132.022049,1.707031,-0.117188,0.058594,0.000000,0.000000,0.007162,-0.020819,-0.023867,0.489314,0.000488,0.000244,-0.000244,0,0,0,0
132.031815,1.707031,-0.117188,0.058594,0.000000,0.000000,0.008816,-0.020819,-0.023867,0.489314,-0.000244,-0.001709,0.000244,0,0,0,0
132.041580,1.707031,-0.117188,0.058594,0.000000,0.000000,0.008961,-0.020819,-0.023867,0.489314,0.001465,0.000732,-0.001953,0,0,0,0
132.051346,1.707031,-0.117188,0.058594,0.000000,0.000000,0.008165,-0.020819,-0.023867,0.489314,-0.000732,0.001221,-0.000244,0,0,0,0
132.061111,1.707031,-0.117188,0.058594,0.000000,0.000000,0.008276,-0.020819,-0.023867,0.489314,0.002441,-0.001221,0.001221,0,0,0,0
132.070877,1.707031,-0.117188,0.058594,0.000000,0.000000,0.008101,-0.020819,-0.023867,0.489314,0.001465,0.001221,-0.001465,0,0,0,0
132.080643,1.707031,-0.117188,0.058594,0.000000,0.000000,0.008154,-0.020819,-0.023867,0.489314,0.000488,0.000244,0.001221,0,0,0,0
132.090408,1.707031,-0.117188,0.058594,0.000000,0.000000,0.006821,-0.020758,-0.023928,0.489314,-0.001221,0.000732,-0.000244,0,0,0,0
132.100174,1.707031,-0.117188,0.058594,0.000000,0.000000,0.007498,-0.020758,-0.023928,0.489314,-0.000732,-0.000732,-0.000732,0,0,0,0
132.109940,1.707031,-0.117188,0.058594,0.000000,0.000000,0.007275,-0.020758,-0.023928,0.489314,-0.001221,-0.000732,-0.001465,0,0,0,0
132.119705,1.707031,-0.117188,0.058594,0.000000,0.000000,0.006643,-0.020758,-0.023928,0.489314,-0.000732,0.001709,-0.001465,0,0,0,0
132.129486,1.707031,-0.117188,0.058594,0.000000,0.000000,0.006975,-0.020752,-0.023926,0.489258,-0.002197,-0.001709,-0.000244,0,0,0,0
132.139236,1.707031,-0.117188,0.058594,0.000000,0.000000,0.007092,-0.020758,-0.023928,0.489314,0.000977,-0.001221,0.000732,0,0,0,0
132.149017,1.707031,-0.117188,0.058594,0.000000,0.000000,0.007568,-0.020758,-0.023928,0.489314,0.000488,0.000244,0.001221,0,0,0,0
132.158768,1.707031,-0.117188,0.058594,0.000000,0.000000,0.007046,-0.020758,-0.023928,0.489314,0.000488,0.000244,0.000244,0,0,0,0
132.168533,1.707031,-0.117188,0.058594,0.000000,0.000000,0.007299,-0.020819,-0.023989,0.489314,-0.002197,-0.001221,0.001221,0,0,0,0
132.178299,1.707031,-0.117188,0.058594,0.000000,0.000000,0.007566,-0.020819,-0.023989,0.489314,0.000488,0.000732,-0.001953,0,0,0,0
132.188065,1.707031,-0.117188,0.058594,0.000000,0.000000,0.006540,-0.020819,-0.023989,0.489314,0.000977,-0.002197,-0.000244,0,0,0,0
132.197845,1.707031,-0.117188,0.058594,0.000000,0.000000,0.006996,-0.020752,-0.023926,0.489258,-0.000732,-0.000732,-0.001465,0,0,0,0
132.207611,1.707031,-0.117188,0.058594,0.000000,0.000000,0.006945,-0.020819,-0.023989,0.489314,-0.000244,-0.000244,-0.003906,0,0,0,0
132.217377,1.707031,-0.117188,0.058594,0.000000,0.000000,0.006590,-0.020819,-0.023989,0.489314,-0.002197,-0.002197,-0.002441,0,0,0,0
132.227142,1.707031,-0.117188,0.058594,0.000000,0.000000,0.006399,-0.020819,-0.023989,0.489314,-0.001709,-0.000244,-0.000244,0,0,0,0
132.236908,1.707031,-0.117188,0.058594,0.000000,0.000000,0.006546,-0.020819,-0.023989,0.489314,0.000488,0.000732,0.003906,0,0,0,0
132.246689,1.707031,-0.117188,0.058594,0.000000,0.000000,0.006868,-0.020819,-0.023989,0.489314,0.000488,-0.000244,-0.001465,0,0,0,0
132.256424,1.707031,-0.117188,0.058594,0.000000,0.000000,0.006796,-0.020819,-0.023989,0.489314,-0.001221,0.001709,-0.000244,0,0,0,0
132.266190,1.707031,-0.117188,0.058594,0.000000,0.000000,0.006498,-0.020819,-0.023989,0.489314,-0.000732,-0.000732,-0.000732,0,0,0,0
132.275970,1.707031,-0.117188,0.058594,0.000000,0.000000,0.006754,-0.020819,-0.023989,0.489314,-0.001221,0.000244,0.000244,0,0,0,0
132.285721,1.707031,-0.117188,0.058594,0.000000,0.000000,0.006315,-0.020819,-0.023989,0.489314,-0.002197,0.002930,0.000244,0,0,0,0
132.295486,1.707031,-0.117188,0.058594,0.000000,0.000000,0.006208,-0.020819,-0.023989,0.489314,-0.001221,0.001221,0.000732,0,0,0,0
132.305252,1.707031,-0.117188,0.058594,0.000000,0.000000,0.006378,-0.020819,-0.023989,0.489314,-0.002197,0.001709,0.001221,0,0,0,0
132.315018,1.707031,-0.117188,0.058594,0.000000,0.000000,0.006760,-0.020819,-0.023989,0.489314,-0.001709,0.000244,-0.001465,0,0,0,0
132.324783,1.707031,-0.117188,0.058594,0.000000,0.000000,0.006485,-0.020819,-0.023989,0.489314,-0.000732,0.003418,-0.000244,0,0,0,0
132.334564,1.707031,-0.117188,0.058594,0.000000,0.000000,0.006506,-0.020819,-0.023989,0.489314,0.000488,-0.000732,0.000732,0,0,0,0
132.344315,1.707031,-0.117188,0.058594,0.000000,0.000000,0.005623,-0.020819,-0.023989,0.489314,0.001953,-0.001221,-0.002441,0,0,0,0
132.354080,1.707031,-0.117188,0.058594,0.000000,0.000000,0.005844,-0.020819,-0.023989,0.489314,-0.003906,-0.000732,-0.000732,0,0,0,0
132.363861,1.707031,-0.117188,0.058594,0.000000,0.000000,0.005905,-0.020819,-0.023989,0.489314,-0.000244,0.004883,0.001221,0,0,0,0
132.373611,1.707031,-0.117188,0.058594,0.000000,0.000000,0.005861,-0.020819,-0.023989,0.489314,-0.000732,0.000732,-0.000732,0,0,0,0
132.383377,1.707031,-0.117188,0.058594,0.000000,0.000000,0.005608,-0.020819,-0.023989,0.489314,-0.002930,-0.001221,0.000244,0,0,0,0
132.393143,1.707031,-0.117188,0.058594,0.000000,0.000000,0.005178,-0.020819,-0.023989,0.489314,0.000488,0.000244,-0.001465,0,0,0,0
132.402908,1.707031,-0.117188,0.058594,0.000000,0.000000,0.005066,-0.020819,-0.023989,0.489314,-0.000244,0.001709,-0.000244,0,0,0,0
132.412674,1.707031,-0.117188,0.058594,0.000000,0.000000,0.005087,-0.020819,-0.023989,0.489314,-0.001709,-0.001221,0.000244,0,0,0,0
132.422440,1.707031,-0.117188,0.058594,0.000000,0.000000,0.004511,-0.020819,-0.023989,0.489314,0.000977,-0.000732,-0.000732,0,0,0,0
132.432205,1.707031,-0.117188,0.058594,0.000000,0.000000,0.004618,-0.020819,-0.023989,0.489314,0.002441,0.001709,-0.001465,0,0,0,0
132.441971,1.707031,-0.117188,0.058594,0.000000,0.000000,0.004919,-0.020819,-0.023989,0.489314,0.000488,-0.002197,0.000732,0,0,0,0
132.451736,1.707031,-0.117188,0.058594,0.000000,0.000000,0.005112,-0.020819,-0.024050,0.489314,-0.003418,0.002197,-0.000732,0,0,0,0
132.461502,1.707031,-0.117188,0.058594,0.000000,0.000000,0.005716,-0.020819,-0.024050,0.489314,0.000977,-0.000732,-0.001465,0,0,0,0
132.471268,1.707031,-0.117188,0.058594,0.000000,0.000000,0.005533,-0.020819,-0.024050,0.489314,0.001465,-0.000244,-0.001465,0,0,0,0
132.481049,1.707031,-0.117188,0.058594,0.000000,0.000000,0.005659,-0.020819,-0.024050,0.489314,-0.000732,0.002197,0.001953,0,0,0,0
132.490799,1.707031,-0.117188,0.058594,0.000000,0.000000,0.005388,-0.020819,-0.024050,0.489314,0.000488,0.000244,0.000732,0,0,0,0
132.500580,1.707031,-0.117188,0.058594,0.000000,0.000000,0.005535,-0.020752,-0.023926,0.489258,-0.001221,-0.001709,0.001221,0,0,0,0
132.510330,1.707031,-0.117188,0.058594,0.000000,0.000000,0.005737,-0.020819,-0.024050,0.489314,0.000488,-0.002686,0.000732,0,0,0,0
132.520096,1.707031,-0.117188,0.058594,0.000000,0.000000,0.005730,-0.020819,-0.024050,0.489314,-0.000732,0.000244,0.000244,0,0,0,0
132.529861,1.707031,-0.117188,0.058594,0.000000,0.000000,0.005878,-0.020819,-0.024050,0.489314,-0.001709,-0.001709,0.000732,0,0,0,0
132.539627,1.707031,-0.117188,0.058594,0.000000,0.000000,0.005859,-0.020819,-0.024050,0.489314,-0.001221,0.000732,0.000244,0,0,0,0
132.549393,1.707031,-0.117188,0.058594,0.000000,0.000000,0.005772,-0.020819,-0.024050,0.489314,-0.001221,0.001221,0.001953,0,0,0,0
132.559158,1.707031,-0.117188,0.058594,0.000000,0.000000,0.006250,-0.020819,-0.024050,0.489314,0.000977,-0.002197,-0.000244,0,0,0,0
132.568939,1.707031,-0.117188,0.058594,0.000000,0.000000,0.006533,-0.020819,-0.024050,0.489314,-0.000244,0.000244,-0.000732,0,0,0,0
132.578705,1.707031,-0.117188,0.058594,0.000000,0.000000,0.006969,-0.020819,-0.024050,0.489314,0.000488,-0.000244,0.000244,0,0,0,0
132.588455,1.707031,-0.117188,0.058594,0.000000,0.000000,0.006908,-0.020819,-0.024050,0.489261,-0.000732,0.001709,-0.000732,0,0,0,0
132.598221,1.707031,-0.117188,0.058594,0.000000,0.000000,0.007193,-0.020819,-0.024050,0.489261,0.000488,-0.001221,0.000732,0,0,0,0
132.608002,1.707031,-0.117188,0.058594,0.000000,0.000000,0.007584,-0.020819,-0.024050,0.489261,0.000977,-0.001221,0.002930,0,0,0,0
132.617752,1.707031,-0.117188,0.058594,0.000000,0.000000,0.007086,-0.020819,-0.024050,0.489261,0.001465,-0.002686,-0.000244,0,0,0,0
132.627533,1.707031,-0.117188,0.058594,0.000000,0.000000,0.007015,-0.020819,-0.024050,0.489261,0.001465,-0.000244,0.001953,0,0,0,0
132.637299,1.707031,-0.117188,0.058594,0.000000,0.000000,0.007351,-0.020819,-0.024050,0.489261,0.001953,-0.000244,0.000244,0,0,0,0
132.647064,1.707031,-0.117188,0.058594,0.000000,0.000000,0.007034,-0.020819,-0.024050,0.489261,0.000977,0.002930,0.000244,0,0,0,0
132.656830,1.707031,-0.117188,0.058594,0.000000,0.000000,0.006886,-0.020819,-0.024050,0.489261,0.001465,0.002197,-0.001465,0,0,0,0
132.666580,1.707031,-0.117188,0.058594,0.000000,0.000000,0.007019,-0.020819,-0.024050,0.489261,0.001953,-0.000732,-0.000244,0,0,0,0
132.676346,1.707031,-0.117188,0.058594,0.000000,0.000000,0.007032,-0.020819,-0.024050,0.489261,0.001953,0.000732,-0.001465,0,0,0,0
132.686111,1.707031,-0.117188,0.058594,0.000000,0.000000,0.006773,-0.020819,-0.024050,0.489261,-0.000244,-0.001709,-0.001953,0,0,0,0
132.695877,1.707031,-0.117188,0.058594,0.000000,0.000000,0.006964,-0.020819,-0.024050,0.489261,0.002441,0.001709,0.000732,0,0,0,0
132.705643,1.707031,-0.117188,0.058594,0.000000,0.000000,0.007084,-0.020819,-0.024050,0.489261,0.000488,0.000732,-0.000732,0,0,0,0
132.715408,1.707031,-0.117188,0.058594,0.000000,0.000000,0.007008,-0.020819,-0.024050,0.489261,0.000977,-0.000244,-0.000732,0,0,0,0
132.725174,1.707031,-0.117188,0.058594,0.000000,0.000000,0.006723,-0.020819,-0.024050,0.489261,0.001465,0.000244,0.000244,0,0,0,0
132.734940,1.707031,-0.117188,0.058594,0.000000,0.000000,0.006968,-0.020819,-0.024050,0.489261,-0.001709,0.003906,0.000732,0,0,0,0
132.744705,1.707031,-0.117188,0.058594,0.000000,0.000000,0.007137,-0.020819,-0.024050,0.489261,0.001953,-0.001221,0.001221,0,0,0,0
132.754471,1.707031,-0.117188,0.058594,0.000000,0.000000,0.006807,-0.020819,-0.024050,0.489261,-0.000244,0.000244,0.000244,0,0,0,0
132.764236,1.707031,-0.117188,0.058594,0.000000,0.000000,0.006725,-0.020819,-0.024111,0.489261,-0.000244,0.003418,-0.000732,0,0,0,0
132.774002,1.707031,-0.117188,0.058594,0.000000,0.000000,0.006781,-0.020819,-0.024111,0.489261,0.000488,0.000244,-0.001953,0,0,0,0
132.783768,1.707031,-0.117188,0.058594,0.000000,0.000000,0.006506,-0.020819,-0.024111,0.489261,0.003662,-0.001221,0.000732,0,0,0,0
132.793533,1.707031,-0.117188,0.058594,0.000000,0.000000,0.006790,-0.020819,-0.024111,0.489261,0.001465,0.001221,0.001953,0,0,0,0
132.803299,1.707031,-0.117188,0.058594,0.000000,0.000000,0.006880,-0.020819,-0.024111,0.489261,-0.000244,-0.002197,0.002930,0,0,0,0
132.813065,1.707031,-0.117188,0.058594,0.000000,0.000000,0.007389,-0.020819,-0.024111,0.489261,0.002441,0.000244,0.000732,0,0,0,0
132.822830,1.707031,-0.117188,0.058594,0.000000,0.000000,0.006884,-0.020819,-0.024111,0.489261,0.002930,0.000732,0.002441,0,0,0,0
132.832596,1.707031,-0.117188,0.058594,0.000000,0.000000,0.006948,-0.020819,-0.024111,0.489261,-0.001709,0.000244,-0.000732,0,0,0,0
132.842361,1.707031,-0.117188,0.058594,0.000000,0.000000,0.007202,-0.020819,-0.024111,0.489261,0.001953,-0.000244,-0.001465,0,0,0,0
132.852127,1.707031,-0.117188,0.058594,0.000000,0.000000,0.006617,-0.020819,-0.024111,0.489261,0.001953,0.003906,-0.002441,0,0,0,0
132.861893,1.707031,-0.117188,0.058594,0.000000,0.000000,0.006758,-0.020819,-0.024111,0.489261,0.001465,-0.001709,0.000244,0,0,0,0
132.871674,1.707031,-0.117188,0.058594,0.000000,0.000000,0.007124,-0.020819,-0.024111,0.489261,0.000977,-0.000244,0.000244,0,0,0,0
132.881424,1.707031,-0.117188,0.058594,0.000000,0.000000,0.007036,-0.020819,-0.024111,0.489261,0.000488,0.000732,0.002441,0,0,0,0
132.891190,1.707031,-0.117188,0.058594,0.000000,0.000000,0.006836,-0.020819,-0.024111,0.489261,-0.000732,0.000244,-0.000732,0,0,0,0
132.900955,1.707031,-0.117188,0.058594,0.000000,0.000000,0.007050,-0.020819,-0.024111,0.489261,-0.000244,-0.001221,-0.001465,0,0,0,0
132.910721,1.707031,-0.117188,0.058594,0.000000,0.000000,0.007391,-0.020819,-0.024111,0.489261,0.000488,-0.000732,0.002930,0,0,0,0
132.920486,1.707031,-0.117188,0.058594,0.000000,0.000000,0.006592,-0.020819,-0.024111,0.489261,0.001465,-0.000244,-0.000244,0,0,0,0
132.930252,1.707031,-0.117188,0.058594,0.000000,0.000000,0.006891,-0.020819,-0.024111,0.489261,0.002930,-0.001221,0.002441,0,0,0,0
132.940018,1.707031,-0.117188,0.058594,0.000000,0.000000,0.007130,-0.020819,-0.024111,0.489261,0.001465,-0.000732,0.000732,0,0,0,0
132.949783,1.707031,-0.117188,0.058594,0.000000,0.000000,0.006575,-0.020819,-0.024111,0.489261,0.001465,-0.000732,-0.001465,0,0,0,0
132.959549,1.707031,-0.117188,0.058594,0.000000,0.000000,0.006445,-0.020819,-0.024111,0.489261,-0.001221,-0.001221,-0.000244,0,0,0,0
132.969315,1.707031,-0.117188,0.058594,0.000000,0.000000,0.006577,-0.020819,-0.024111,0.489261,-0.000244,-0.000732,-0.000244,0,0,0,0
132.979095,1.707031,-0.117188,0.058594,0.000000,0.000000,0.006313,-0.020819,-0.024111,0.489261,0.001465,0.000732,-0.000732,0,0,0,0
132.988846,1.707031,-0.117188,0.058594,0.000000,0.000000,0.005745,-0.020819,-0.024111,0.489261,0.001953,-0.000732,0.000732,0,0,0,0
132.998627,1.707031,-0.117188,0.058594,0.000000,0.000000,0.005899,-0.020819,-0.024111,0.489261,0.000977,0.001221,-0.000244,0,0,0,0
133.008377,1.707031,-0.117188,0.058594,0.000000,0.000000,0.006382,-0.020819,-0.024111,0.489261,0.000488,0.000732,-0.000244,0,0,0,0
133.018143,1.707031,-0.117188,0.058594,0.000000,0.000000,0.005892,-0.020819,-0.024111,0.489261,0.003662,0.002197,0.000244,0,0,0,0
133.027908,1.707031,-0.117188,0.058594,0.000000,0.000000,0.006214,-0.020819,-0.024111,0.489261,-0.000244,0.001709,0.002441,0,0,0,0
133.037674,1.707031,-0.117188,0.058594,0.000000,0.000000,0.006338,-0.020819,-0.024111,0.489261,0.002441,0.003418,-0.000244,0,0,0,0
133.047455,1.707031,-0.117188,0.058594,0.000000,0.000000,0.006317,-0.020819,-0.024111,0.489261,-0.000244,-0.000732,0.001221,0,0,0,0
133.057205,1.707031,-0.117188,0.058594,0.000000,0.000000,0.005766,-0.020880,-0.024050,0.489261,0.000977,0.001709,-0.001465,0,0,0,0
133.066986,1.707031,-0.117188,0.058594,0.000000,0.000000,0.005863,-0.020880,-0.024050,0.489261,-0.000732,0.000244,-0.000732,0,0,0,0
133.076752,1.707031,-0.117188,0.058594,0.000000,0.000000,0.005775,-0.020880,-0.024050,0.489261,-0.000732,0.000244,0.000244,0,0,0,0
133.086502,1.707031,-0.117188,0.058594,0.000000,0.000000,0.005331,-0.020880,-0.024050,0.489261,-0.000732,0.001221,0.001953,0,0,0,0
133.096268,1.707031,-0.117188,0.058594,0.000000,0.000000,0.005451,-0.020880,-0.024050,0.489261,0.000488,-0.000244,-0.000244,0,0,0,0
133.106033,1.707031,-0.117188,0.058594,0.000000,0.000000,0.006025,-0.020880,-0.024050,0.489261,0.000488,0.001221,0.001953,0,0,0,0
133.115814,1.707031,-0.117188,0.058594,0.000000,0.000000,0.006413,-0.020880,-0.024050,0.489261,-0.001221,-0.000732,0.000244,0,0,0,0
133.125580,1.707031,-0.117188,0.058594,0.000000,0.000000,0.005671,-0.020880,-0.024050,0.489261,-0.003418,0.000732,0.000732,0,0,0,0
133.135330,1.707031,-0.117188,0.058594,0.000000,0.000000,0.005989,-0.020880,-0.024050,0.489261,0.002441,-0.002197,-0.001953,0,0,0,0
133.145096,1.707031,-0.117188,0.058594,0.000000,0.000000,0.006132,-0.020880,-0.024050,0.489261,-0.000732,-0.000732,-0.000732,0,0,0,0
133.154861,1.707031,-0.117188,0.058594,0.000000,0.000000,0.006002,-0.020880,-0.024050,0.489261,0.000488,-0.000244,0.001221,0,0,0,0
133.164627,1.707031,-0.117188,0.058594,0.000000,0.000000,0.006397,-0.020880,-0.024111,0.489261,-0.001221,-0.000244,0.001953,0,0,0,0
133.174408,1.707031,-0.117188,0.058594,0.000000,0.000000,0.006662,-0.020880,-0.024111,0.489261,-0.001709,-0.000244,0.001221,0,0,0,0
133.184174,1.707031,-0.117188,0.058594,0.000000,0.000000,0.006636,-0.020880,-0.024111,0.489261,0.000488,-0.000732,-0.000244,0,0,0,0
133.193924,1.707031,-0.117188,0.058594,0.000000,0.000000,0.006704,-0.020880,-0.024111,0.489261,0.001465,-0.001709,0.002441,0,0,0,0
133.203705,1.707031,-0.117188,0.058594,0.000000,0.000000,0.005964,-0.020880,-0.024111,0.489261,0.000488,-0.004395,-0.001953,0,0,0,0
133.213455,1.707031,-0.117188,0.058594,0.000000,0.000000,0.006170,-0.020880,-0.024111,0.489261,0.000977,-0.001221,0.000244,0,0,0,0
133.223236,1.707031,-0.117188,0.058594,0.000000,0.000000,0.006279,-0.020880,-0.024111,0.489261,-0.001221,-0.000244,0.000732,0,0,0,0
133.232986,1.707031,-0.117188,0.058594,0.000000,0.000000,0.006292,-0.020880,-0.024111,0.489261,-0.001221,-0.001221,0.001953,0,0,0,0
133.242767,1.707031,-0.117188,0.058594,0.000000,0.000000,0.006588,-0.020752,-0.023926,0.489258,0.000977,0.002197,-0.001465,0,0,0,0
133.252518,1.707031,-0.117188,0.058594,0.000000,0.000000,0.006353,-0.020880,-0.024111,0.489261,-0.001709,0.000732,-0.002930,0,0,0,0
133.262283,1.707031,-0.117188,0.058594,0.000000,0.000000,0.006708,-0.020880,-0.024111,0.489261,-0.000244,0.000244,-0.000732,0,0,0,0
133.272049,1.707031,-0.117188,0.058594,0.000000,0.000000,0.006664,-0.020880,-0.024111,0.489261,0.000488,-0.000244,0.002930,0,0,0,0
133.281830,1.707031,-0.117188,0.058594,0.000000,0.000000,0.005449,-0.020880,-0.024111,0.489261,0.000488,0.000732,-0.000732,0,0,0,0
133.291580,1.707031,-0.117188,0.058594,0.000000,0.000000,0.005621,-0.020880,-0.024111,0.489261,-0.001221,0.000732,0.000244,0,0,0,0
133.301346,1.707031,-0.117188,0.058594,0.000000,0.000000,0.005569,-0.020880,-0.024111,0.489261,-0.000244,0.000732,-0.001465,0,0,0,0
133.311111,1.707031,-0.117188,0.058594,0.000000,0.000000,0.006001,-0.020880,-0.024111,0.489261,0.000488,0.001709,-0.000732,0,0,0,0
133.320877,1.707031,-0.117188,0.058594,0.000000,0.000000,0.005995,-0.020880,-0.024111,0.489261,0.000488,-0.001709,0.000244,0,0,0,0
133.330643,1.707031,-0.117188,0.058594,0.000000,0.000000,0.006655,-0.020880,-0.024111,0.489261,-0.000244,-0.002686,-0.000244,0,0,0,0
133.340408,1.707031,-0.117188,0.058594,0.000000,0.000000,0.006426,-0.020880,-0.024111,0.489261,-0.002930,0.000732,0.000732,0,0,0,0
133.350189,1.707031,-0.117188,0.058594,0.000000,0.000000,0.006580,-0.020880,-0.024111,0.489261,-0.001709,0.001221,-0.000244,0,0,0,0
133.359940,1.707031,-0.117188,0.058594,0.000000,0.000000,0.008759,-0.020880,-0.024111,0.489261,-0.000244,-0.000244,-0.001465,0,0,0,0
133.369705,1.707031,-0.117188,0.058594,0.000000,0.000000,0.009155,-0.020819,-0.024172,0.489261,-0.002197,0.002930,-0.000732,0,0,0,0
133.379486,1.707031,-0.117188,0.058594,0.000000,0.000000,0.009268,-0.020880,-0.024233,0.489261,-0.000732,0.001709,-0.000244,0,0,0,0
133.389236,1.707031,-0.117188,0.058594,0.000000,0.000000,0.008566,-0.020880,-0.024233,0.489261,-0.000244,0.002930,-0.001465,0,0,0,0
133.399002,1.707031,-0.117188,0.058594,0.000000,0.000000,0.008757,-0.020880,-0.024233,0.489261,0.002441,-0.001709,0.002930,0,0,0,0
133.408768,1.707031,-0.117188,0.058594,0.000000,0.000000,0.008974,-0.020880,-0.024233,0.489261,-0.002197,-0.002686,-0.000244,0,0,0,0
133.418533,1.707031,-0.117188,0.058594,0.000000,0.000000,0.008316,-0.020880,-0.024233,0.489261,-0.001221,-0.001709,-0.001465,0,0,0,0
133.428299,1.707031,-0.117188,0.058594,0.000000,0.000000,0.008205,-0.020880,-0.024233,0.489261,-0.001221,-0.000244,-0.001465,0,0,0,0
133.438065,1.707031,-0.117188,0.058594,0.000000,0.000000,0.008173,-0.020880,-0.024233,0.489261,0.001465,-0.000732,-0.000244,0,0,0,0
133.447830,1.707031,-0.117188,0.058594,0.000000,0.000000,0.008215,-0.020880,-0.024233,0.489261,-0.001709,0.001221,-0.000732,0,0,0,0
133.457611,1.707031,-0.117188,0.058594,0.000000,0.000000,0.007828,-0.020880,-0.024233,0.489261,-0.000244,0.002197,-0.000732,0,0,0,0
133.467377,1.707031,-0.117188,0.058594,0.000000,0.000000,0.007685,-0.020880,-0.024233,0.489261,-0.001221,0.000244,-0.000244,0,0,0,0
133.477142,1.707031,-0.117188,0.058594,0.000000,0.000000,0.007349,-0.020880,-0.024233,0.489261,0.000977,0.000244,0.001953,0,0,0,0
133.486908,1.707031,-0.117188,0.058594,0.000000,0.000000,0.006710,-0.020880,-0.024233,0.489261,0.002930,0.000732,0.000244,0,0,0,0
133.496689,1.707031,-0.117188,0.058594,0.000000,0.000000,0.007147,-0.020880,-0.024233,0.489261,-0.000732,-0.000732,0.000244,0,0,0,0
133.506424,1.707031,-0.117188,0.058594,0.000000,0.000000,0.007521,-0.020880,-0.024233,0.489261,-0.000244,0.003418,0.000244,0,0,0,0
133.516190,1.707031,-0.117188,0.058594,0.000000,0.000000,0.008224,-0.020880,-0.024233,0.489261,-0.000732,0.002197,-0.001465,0,0,0,0
