time,pos_x,pos_y,pos_z,vel_x,vel_y,vel_z,att_phi,att_theta,att_psi,rate_p,rate_q,rate_r,cmd_thrust,cmd_roll,cmd_pitch,cmd_yaw
200.641144,1.656250,-0.046875,0.027344,0.000000,0.000000,0.005169,-0.001099,-0.000671,0.482403,-0.001221,0.001465,-0.000244,0,0,0,0
200.650909,1.656250,-0.046875,0.027344,0.000000,0.000000,0.004923,-0.001099,-0.000671,0.482403,-0.001221,-0.000488,0.001709,0,0,0,0
200.660675,1.656250,-0.046875,0.027344,0.000000,0.000000,0.005028,-0.001099,-0.000671,0.482403,-0.000732,-0.001465,-0.002441,0,0,0,0
200.670441,1.656250,-0.046875,0.027344,0.000000,0.000000,0.005114,-0.001099,-0.000671,0.482403,-0.001221,0.000000,-0.002930,0,0,0,0
200.680206,1.656250,-0.046875,0.027344,0.000000,0.000000,0.005054,-0.001099,-0.000671,0.482403,0.001953,0.000000,0.000732,0,0,0,0
200.689972,1.656250,-0.046875,0.027344,0.000000,0.000000,0.005152,-0.001099,-0.000671,0.482403,-0.000244,0.000488,0.000732,0,0,0,0
200.699738,1.656250,-0.046875,0.027344,0.000000,0.000000,0.005402,-0.001099,-0.000671,0.482403,0.000732,-0.000488,-0.001465,0,0,0,0
200.709503,1.656250,-0.046875,0.027344,0.000000,0.000000,0.005486,-0.001099,-0.000671,0.482403,-0.000732,0.000977,-0.002441,0,0,0,0
200.719269,1.656250,-0.046875,0.027344,0.000000,0.000000,0.005365,-0.001160,-0.000671,0.482403,-0.003418,0.000000,0.000244,0,0,0,0
200.729034,1.656250,-0.046875,0.027344,0.000000,0.000000,0.005621,-0.001160,-0.000671,0.482403,-0.000244,-0.000977,-0.000244,0,0,0,0
200.738800,1.656250,-0.046875,0.027344,0.000000,0.000000,0.005564,-0.001160,-0.000671,0.482403,0.003418,0.000488,-0.002441,0,0,0,0
200.748566,1.656250,-0.046875,0.027344,0.000000,0.000000,0.005510,-0.001160,-0.000671,0.482403,-0.002930,-0.001465,0.000244,0,0,0,0
200.758331,1.656250,-0.046875,0.027344,0.000000,0.000000,0.005888,-0.001160,-0.000671,0.482403,0.000732,0.000977,0.000244,0,0,0,0
200.768097,1.656250,-0.046875,0.027344,0.000000,0.000000,0.005861,-0.001160,-0.000671,0.482403,-0.000244,0.000000,0.001221,0,0,0,0
200.777863,1.656250,-0.046875,0.027344,0.000000,0.000000,0.003220,-0.001160,-0.000671,0.482403,-0.003418,-0.000488,-0.001465,0,0,0,0
200.787628,1.656250,-0.046875,0.027344,0.000000,0.000000,0.003731,-0.001160,-0.000671,0.482403,-0.000732,0.000488,-0.000244,0,0,0,0
200.797394,1.656250,-0.046875,0.027344,0.000000,0.000000,0.003977,-0.001160,-0.000671,0.482403,0.000732,0.000000,0.000732,0,0,0,0
200.807159,1.656250,-0.046875,0.027344,0.000000,0.000000,0.004158,-0.001160,-0.000671,0.482403,0.000732,0.000977,-0.000732,0,0,0,0
200.816925,1.656250,-0.046875,0.027344,0.000000,0.000000,0.004210,-0.001160,-0.000671,0.482403,0.001465,-0.000488,-0.002441,0,0,0,0
200.826691,1.656250,-0.046875,0.027344,0.000000,0.000000,0.004217,-0.001160,-0.000671,0.482403,-0.000732,0.003174,-0.001465,0,0,0,0
200.836456,1.656250,-0.046875,0.027344,0.000000,0.000000,0.003998,-0.001160,-0.000671,0.482403,0.000732,-0.000488,-0.000732,0,0,0,0
200.846222,1.656250,-0.046875,0.027344,0.000000,0.000000,0.003857,-0.001160,-0.000671,0.482403,0.001465,-0.002930,0.000732,0,0,0,0
200.855988,1.656250,-0.046875,0.027344,0.000000,0.000000,0.004974,-0.001160,-0.000671,0.482403,-0.000244,0.001465,-0.000244,0,0,0,0
200.865753,1.656250,-0.046875,0.027344,0.000000,0.000000,0.004465,-0.001160,-0.000671,0.482403,-0.000732,0.000000,0.003906,0,0,0,0
200.875519,1.656250,-0.046875,0.027344,0.000000,0.000000,0.004162,-0.001160,-0.000671,0.482403,-0.002441,-0.001953,-0.000244,0,0,0,0
200.885284,1.656250,-0.046875,0.027344,0.000000,0.000000,0.004118,-0.001160,-0.000671,0.482403,0.000244,0.000488,0.000732,0,0,0,0
200.895050,1.656250,-0.046875,0.027344,0.000000,0.000000,0.003860,-0.001160,-0.000671,0.482403,-0.000244,0.000488,0.001221,0,0,0,0
200.904816,1.656250,-0.046875,0.027344,0.000000,0.000000,0.003580,-0.001160,-0.000671,0.482403,-0.000244,-0.001465,0.001221,0,0,0,0
200.914581,1.656250,-0.046875,0.027344,0.000000,0.000000,0.003345,-0.001160,-0.000671,0.482403,0.001953,0.000000,0.000732,0,0,0,0
200.924347,1.656250,-0.046875,0.027344,0.000000,0.000000,0.003122,-0.001160,-0.000671,0.482403,0.001465,0.000977,0.000244,0,0,0,0
200.934113,1.656250,-0.046875,0.027344,0.000000,0.000000,0.002186,-0.001160,-0.000671,0.482403,-0.000732,0.000488,0.000732,0,0,0,0
200.943878,1.656250,-0.046875,0.027344,0.000000,0.000000,0.002542,-0.001160,-0.000671,0.482403,-0.001221,-0.001465,0.002930,0,0,0,0
200.953644,1.656250,-0.046875,0.027344,0.000000,0.000000,0.003048,-0.001160,-0.000671,0.482403,-0.001221,0.000977,0.001221,0,0,0,0
200.963409,1.656250,-0.046875,0.027344,0.000000,0.000000,0.003101,-0.001160,-0.000671,0.482403,-0.000732,0.000488,-0.002930,0,0,0,0
200.973175,1.656250,-0.046875,0.027344,0.000000,0.000000,0.003359,-0.001160,-0.000671,0.482403,0.000732,0.002686,0.002441,0,0,0,0
200.982941,1.656250,-0.046875,0.027344,0.000000,0.000000,0.003168,-0.001160,-0.000671,0.482403,0.000732,0.000000,0.000732,0,0,0,0
200.992706,1.656250,-0.046875,0.027344,0.000000,0.000000,0.002785,-0.001160,-0.000671,0.482403,-0.001221,0.002197,0.000732,0,0,0,0
201.002472,1.656250,-0.046875,0.027344,0.000000,0.000000,0.002512,-0.001160,-0.000671,0.482403,0.002930,0.001465,0.000732,0,0,0,0
201.012238,1.656250,-0.046875,0.027344,0.000000,0.000000,-0.000364,-0.001160,-0.000671,0.482403,-0.001221,-0.000977,-0.000732,0,0,0,0
201.022003,1.656250,-0.046875,0.027344,0.000000,0.000000,0.000252,-0.001160,-0.000671,0.482403,0.002441,0.000000,0.000244,0,0,0,0
201.031769,1.656250,-0.046875,0.027344,0.000000,0.000000,0.000435,-0.001160,-0.000671,0.482403,0.002930,-0.000488,-0.000244,0,0,0,0
201.041534,1.656250,-0.046875,0.027344,0.000000,0.000000,0.000162,-0.001160,-0.000671,0.482403,-0.002441,-0.000977,0.000732,0,0,0,0
201.051300,1.656250,-0.046875,0.027344,0.000000,0.000000,0.000780,-0.000977,-0.000488,0.482178,-0.001709,0.000488,0.000244,0,0,0,0
201.061066,1.656250,-0.046875,0.027344,0.000000,0.000000,0.000750,-0.001160,-0.000671,0.482403,0.000244,-0.001953,0.000244,0,0,0,0
201.070831,1.656250,-0.046875,0.027344,0.000000,0.000000,0.000853,-0.001221,-0.000671,0.482403,-0.000732,0.000977,0.000244,0,0,0,0
201.080597,1.656250,-0.046875,0.027344,0.000000,0.000000,0.001423,-0.001221,-0.000732,0.482403,0.002441,0.000488,0.001709,0,0,0,0
201.090363,1.656250,-0.046875,0.027344,0.000000,0.000000,0.001148,-0.001221,-0.000732,0.482403,-0.000732,-0.001953,0.000244,0,0,0,0
201.100128,1.656250,-0.046875,0.027344,0.000000,0.000000,0.001404,-0.001221,-0.000732,0.482403,0.001953,0.000000,0.000244,0,0,0,0
201.109894,1.656250,-0.046875,0.027344,0.000000,0.000000,0.001654,-0.001221,-0.000732,0.482403,0.000732,0.000000,-0.000244,0,0,0,0
201.119659,1.656250,-0.046875,0.027344,0.000000,0.000000,0.002235,-0.001221,-0.000732,0.482403,0.001465,0.000977,0.000244,0,0,0,0
201.129425,1.656250,-0.046875,0.027344,0.000000,0.000000,0.002350,-0.001221,-0.000732,0.482403,0.000732,0.000488,0.000244,0,0,0,0
201.139191,1.656250,-0.046875,0.027344,0.000000,0.000000,0.002468,-0.001221,-0.000732,0.482403,0.000244,-0.000488,-0.000732,0,0,0,0
201.148956,1.656250,-0.046875,0.027344,0.000000,0.000000,0.002316,-0.001221,-0.000732,0.482403,-0.001709,0.000000,-0.000732,0,0,0,0
201.158722,1.656250,-0.046875,0.027344,0.000000,0.000000,0.002329,-0.001221,-0.000732,0.482403,0.002930,0.000977,0.000244,0,0,0,0
201.168488,1.656250,-0.046875,0.027344,0.000000,0.000000,0.001715,-0.001221,-0.000732,0.482403,0.000244,-0.000488,-0.000732,0,0,0,0
201.178253,1.656250,-0.046875,0.027344,0.000000,0.000000,0.001652,-0.001221,-0.000732,0.482403,0.000732,0.000488,-0.000244,0,0,0,0
201.188019,1.656250,-0.046875,0.027344,0.000000,0.000000,0.002108,-0.001221,-0.000732,0.482403,-0.001221,0.000977,-0.000732,0,0,0,0
201.197784,1.656250,-0.046875,0.027344,0.000000,0.000000,0.002214,-0.001221,-0.000732,0.482403,0.002441,0.000000,0.000732,0,0,0,0
201.207550,1.656250,-0.046875,0.027344,0.000000,0.000000,0.002144,-0.001221,-0.000732,0.482403,0.001465,0.000488,-0.000244,0,0,0,0
201.217316,1.656250,-0.046875,0.027344,0.000000,0.000000,0.002588,-0.001221,-0.000732,0.482403,-0.001221,0.000977,0.001709,0,0,0,0
201.227081,1.656250,-0.046875,0.027344,0.000000,0.000000,0.002569,-0.001221,-0.000732,0.482403,-0.000244,0.000977,0.001221,0,0,0,0
201.236862,1.656250,-0.046875,0.027344,0.000000,0.000000,0.002951,-0.001221,-0.000732,0.482403,-0.002930,-0.000977,0.001709,0,0,0,0
201.246628,1.656250,-0.046875,0.027344,0.000000,0.000000,0.001904,-0.001221,-0.000732,0.482403,-0.001709,-0.000977,0.001709,0,0,0,0
201.256378,1.656250,-0.046875,0.027344,0.000000,0.000000,0.002371,-0.001221,-0.000732,0.482403,0.000244,0.000488,-0.000732,0,0,0,0
201.266144,1.656250,-0.046875,0.027344,0.000000,0.000000,0.002182,-0.001221,-0.000732,0.482403,-0.000244,0.001465,-0.001953,0,0,0,0
201.275909,1.656250,-0.046875,0.027344,0.000000,0.000000,0.002432,-0.001221,-0.000732,0.482403,0.000244,-0.001465,0.000244,0,0,0,0
201.285675,1.656250,-0.046875,0.027344,0.000000,0.000000,0.002850,-0.001221,-0.000732,0.482403,-0.000244,-0.000488,-0.002930,0,0,0,0
201.295441,1.656250,-0.046875,0.027344,0.000000,0.000000,0.002777,-0.001221,-0.000732,0.482403,-0.001709,-0.000488,-0.002441,0,0,0,0
201.305206,1.656250,-0.046875,0.027344,0.000000,0.000000,0.002562,-0.001221,-0.000732,0.482403,0.000732,-0.001465,-0.000732,0,0,0,0
201.314972,1.656250,-0.046875,0.027344,0.000000,0.000000,0.002991,-0.001282,-0.000671,0.482403,-0.002441,-0.001465,-0.000244,0,0,0,0
201.324738,1.656250,-0.046875,0.027344,0.000000,0.000000,0.001001,-0.001282,-0.000671,0.482403,-0.001221,0.002197,0.002930,0,0,0,0
201.334503,1.656250,-0.046875,0.027344,0.000000,0.000000,0.001764,-0.001343,-0.000732,0.482403,-0.001709,-0.000488,-0.001465,0,0,0,0
201.344269,1.656250,-0.046875,0.027344,0.000000,0.000000,0.002064,-0.001343,-0.000732,0.482403,-0.001709,0.000000,0.000732,0,0,0,0
201.354034,1.656250,-0.046875,0.027344,0.000000,0.000000,0.002989,-0.001221,-0.000732,0.482178,0.000732,0.000977,0.000244,0,0,0,0
201.363800,1.656250,-0.046875,0.027344,0.000000,0.000000,0.003000,-0.001343,-0.000732,0.482403,0.001465,-0.000488,0.001221,0,0,0,0
201.373566,1.656250,-0.046875,0.027344,0.000000,0.000000,0.002995,-0.001343,-0.000732,0.482403,0.001953,-0.000488,-0.000244,0,0,0,0
201.383331,1.656250,-0.046875,0.027344,0.000000,0.000000,0.003258,-0.001343,-0.000732,0.482403,0.000732,0.000488,-0.002441,0,0,0,0
201.393097,1.656250,-0.046875,0.027344,0.000000,0.000000,0.003420,-0.001343,-0.000732,0.482403,-0.001709,0.000977,-0.001465,0,0,0,0
201.402863,1.656250,-0.046875,0.027344,0.000000,0.000000,0.002384,-0.001343,-0.000732,0.482403,-0.001221,0.000000,0.000244,0,0,0,0
201.412628,1.656250,-0.046875,0.027344,0.000000,0.000000,0.002583,-0.001343,-0.000732,0.482403,0.000732,0.000488,-0.000732,0,0,0,0
201.422394,1.656250,-0.046875,0.027344,0.000000,0.000000,0.003355,-0.001343,-0.000732,0.482348,0.001953,0.001465,-0.000244,0,0,0,0
201.432159,1.656250,-0.046875,0.027344,0.000000,0.000000,0.003492,-0.001343,-0.000732,0.482348,-0.002930,-0.002930,-0.000732,0,0,0,0
201.441925,1.656250,-0.046875,0.027344,0.000000,0.000000,0.003410,-0.001343,-0.000732,0.482348,-0.002441,0.000000,-0.002930,0,0,0,0
201.451691,1.656250,-0.046875,0.027344,0.000000,0.000000,0.003563,-0.001343,-0.000732,0.482348,-0.001221,-0.000488,0.001709,0,0,0,0
201.461456,1.656250,-0.046875,0.027344,0.000000,0.000000,0.003345,-0.001343,-0.000732,0.482348,0.000244,0.001465,-0.000244,0,0,0,0
201.471222,1.656250,-0.046875,0.027344,0.000000,0.000000,0.003113,-0.001404,-0.000732,0.482348,-0.003418,0.002197,0.000244,0,0,0,0
201.480988,1.656250,-0.046875,0.027344,0.000000,0.000000,0.002188,-0.001404,-0.000732,0.482348,-0.002441,-0.001953,-0.001953,0,0,0,0
201.490753,1.656250,-0.046875,0.027344,0.000000,0.000000,0.002563,-0.001404,-0.000732,0.482348,-0.000244,0.000000,0.000244,0,0,0,0
201.500519,1.656250,-0.046875,0.027344,0.000000,0.000000,0.002644,-0.001404,-0.000732,0.482348,-0.000244,0.000488,0.001709,0,0,0,0
201.510284,1.656250,-0.046875,0.027344,0.000000,0.000000,0.002525,-0.001404,-0.000732,0.482348,-0.001709,-0.000488,-0.000244,0,0,0,0
201.520050,1.656250,-0.046875,0.027344,0.000000,0.000000,0.003351,-0.001404,-0.000732,0.482348,-0.002441,0.000488,0.000244,0,0,0,0
201.529816,1.656250,-0.046875,0.027344,0.000000,0.000000,0.003681,-0.001404,-0.000732,0.482348,-0.000244,0.002686,-0.000732,0,0,0,0
201.539581,1.656250,-0.046875,0.027344,0.000000,0.000000,0.003807,-0.001404,-0.000732,0.482348,-0.002930,-0.001465,-0.000244,0,0,0,0
201.549347,1.656250,-0.046875,0.027344,0.000000,0.000000,0.004053,-0.001404,-0.000732,0.482348,0.000244,-0.000488,-0.000732,0,0,0,0
201.559113,1.656250,-0.046875,0.027344,0.000000,0.000000,0.004307,-0.001404,-0.000732,0.482348,0.000732,0.000488,0.000244,0,0,0,0
201.568878,1.656250,-0.046875,0.027344,0.000000,0.000000,0.004826,-0.001404,-0.000732,0.482348,0.001465,0.000977,0.001709,0,0,0,0
201.578644,1.656250,-0.046875,0.027344,0.000000,0.000000,0.005188,-0.001404,-0.000732,0.482348,0.000244,-0.002441,0.000732,0,0,0,0
201.588409,1.656250,-0.046875,0.027344,0.000000,0.000000,0.005304,-0.001404,-0.000732,0.482348,0.000732,-0.000488,-0.000732,0,0,0,0
201.598175,1.656250,-0.046875,0.027344,0.000000,0.000000,0.005438,-0.001404,-0.000732,0.482348,0.001953,0.000000,0.001221,0,0,0,0
201.607941,1.656250,-0.046875,0.027344,0.000000,0.000000,0.005854,-0.001404,-0.000732,0.482348,0.001953,0.000000,0.002441,0,0,0,0
201.617706,1.656250,-0.046875,0.027344,0.000000,0.000000,0.006029,-0.001404,-0.000732,0.482348,-0.001709,0.000000,-0.000244,0,0,0,0
201.627472,1.656250,-0.046875,0.027344,0.000000,0.000000,0.006468,-0.001404,-0.000732,0.482348,0.000244,-0.002930,-0.000732,0,0,0,0
201.637238,1.656250,-0.046875,0.027344,0.000000,0.000000,0.006853,-0.001404,-0.000732,0.482348,-0.001221,0.000488,-0.000732,0,0,0,0
201.647003,1.656250,-0.046875,0.027344,0.000000,0.000000,0.006994,-0.001404,-0.000732,0.482348,-0.001221,-0.000488,-0.001465,0,0,0,0
201.656769,1.656250,-0.046875,0.027344,0.000000,0.000000,0.006559,-0.001221,-0.000732,0.482178,0.000244,0.001465,0.000244,0,0,0,0
201.666534,1.656250,-0.046875,0.027344,0.000000,0.000000,0.006649,-0.001404,-0.000732,0.482348,0.002441,0.001465,0.001221,0,0,0,0
201.676300,1.656250,-0.046875,0.027344,0.000000,0.000000,0.006578,-0.001404,-0.000732,0.482348,0.000244,0.000488,0.000732,0,0,0,0
201.686066,1.656250,-0.046875,0.027344,0.000000,0.000000,0.006500,-0.001404,-0.000732,0.482348,0.003418,0.000488,-0.000244,0,0,0,0
201.695831,1.656250,-0.046875,0.027344,0.000000,0.000000,0.006626,-0.001404,-0.000732,0.482348,0.000244,-0.000488,-0.000244,0,0,0,0
201.705597,1.656250,-0.046875,0.027344,0.000000,0.000000,0.006830,-0.001404,-0.000732,0.482348,0.000244,-0.000977,-0.000244,0,0,0,0
201.715363,1.656250,-0.046875,0.027344,0.000000,0.000000,0.007019,-0.001404,-0.000732,0.482348,0.000732,0.000488,-0.000732,0,0,0,0
201.725128,1.656250,-0.046875,0.027344,0.000000,0.000000,0.006941,-0.001404,-0.000732,0.482348,0.002441,0.001465,0.000732,0,0,0,0
201.734894,1.656250,-0.046875,0.027344,0.000000,0.000000,0.007193,-0.001404,-0.000732,0.482348,0.000244,-0.000977,0.002930,0,0,0,0
201.744659,1.656250,-0.046875,0.027344,0.000000,0.000000,0.007448,-0.001404,-0.000732,0.482348,0.002930,0.000488,0.000244,0,0,0,0
201.754425,1.656250,-0.046875,0.027344,0.000000,0.000000,0.007374,-0.001404,-0.000732,0.482348,0.000732,0.000000,0.000732,0,0,0,0
201.764191,1.656250,-0.046875,0.027344,0.000000,0.000000,0.007538,-0.001404,-0.000732,0.482348,0.002441,-0.000488,-0.000244,0,0,0,0
201.773956,1.656250,-0.046875,0.027344,0.000000,0.000000,0.007517,-0.001404,-0.000732,0.482348,0.000732,-0.001465,-0.000244,0,0,0,0
201.783722,1.656250,-0.046875,0.027344,0.000000,0.000000,0.007135,-0.001404,-0.000732,0.482348,0.001953,0.000488,-0.000732,0,0,0,0
201.793488,1.656250,-0.046875,0.027344,0.000000,0.000000,0.007816,-0.001404,-0.000732,0.482348,0.002930,-0.000488,-0.001465,0,0,0,0
201.803253,1.656250,-0.046875,0.027344,0.000000,0.000000,0.007475,-0.001404,-0.000732,0.482348,0.001465,-0.001465,0.000732,0,0,0,0
201.813019,1.656250,-0.046875,0.027344,0.000000,0.000000,0.007486,-0.001404,-0.000732,0.482348,-0.000244,0.000977,0.000732,0,0,0,0
201.822784,1.656250,-0.046875,0.027344,0.000000,0.000000,0.006649,-0.001404,-0.000732,0.482348,0.001953,0.001465,0.000732,0,0,0,0
201.832550,1.656250,-0.046875,0.027344,0.000000,0.000000,0.006474,-0.001404,-0.000732,0.482348,0.002441,0.002686,0.002441,0,0,0,0
201.842316,1.656250,-0.046875,0.027344,0.000000,0.000000,0.006430,-0.001404,-0.000732,0.482348,-0.000732,0.000977,0.001221,0,0,0,0
201.852081,1.656250,-0.046875,0.027344,0.000000,0.000000,0.006083,-0.001404,-0.000732,0.482348,0.000732,0.000488,-0.000732,0,0,0,0
201.861847,1.656250,-0.046875,0.027344,0.000000,0.000000,0.006128,-0.001404,-0.000732,0.482348,0.001465,0.003662,-0.000244,0,0,0,0
201.871613,1.656250,-0.046875,0.027344,0.000000,0.000000,0.006151,-0.001404,-0.000732,0.482348,0.000732,0.003662,0.002441,0,0,0,0
201.881378,1.656250,-0.046875,0.027344,0.000000,0.000000,0.005674,-0.001404,-0.000732,0.482348,0.001953,0.000977,0.000244,0,0,0,0
201.891144,1.656250,-0.046875,0.027344,0.000000,0.000000,0.006039,-0.001404,-0.000732,0.482348,0.000244,0.001465,0.000244,0,0,0,0
201.900909,1.656250,-0.046875,0.027344,0.000000,0.000000,0.005939,-0.001404,-0.000732,0.482348,0.000244,0.000977,0.000244,0,0,0,0
201.910675,1.656250,-0.046875,0.027344,0.000000,0.000000,0.005686,-0.001465,-0.000732,0.482348,0.001953,-0.000488,-0.001953,0,0,0,0
201.920441,1.656250,-0.046875,0.027344,0.000000,0.000000,0.005518,-0.001465,-0.000732,0.482348,-0.000732,-0.000977,0.001221,0,0,0,0
201.930206,1.656250,-0.046875,0.027344,0.000000,0.000000,0.006077,-0.001465,-0.000732,0.482348,-0.000732,-0.000488,-0.002441,0,0,0,0
201.939972,1.656250,-0.046875,0.027344,0.000000,0.000000,0.006269,-0.001465,-0.000732,0.482348,0.001953,-0.000488,-0.001465,0,0,0,0
201.949738,1.656250,-0.046875,0.027344,0.000000,0.000000,0.006018,-0.001465,-0.000732,0.482348,-0.000732,-0.001465,-0.001953,0,0,0,0
201.959503,1.656250,-0.046875,0.027344,0.000000,0.000000,0.005909,-0.001221,-0.000732,0.482178,0.001465,-0.000488,0.001221,0,0,0,0
201.969269,1.656250,-0.046875,0.027344,0.000000,0.000000,0.006018,-0.001465,-0.000732,0.482348,0.000244,0.000488,-0.000732,0,0,0,0
201.979034,1.656250,-0.046875,0.027344,0.000000,0.000000,0.005840,-0.001465,-0.000732,0.482348,0.003418,-0.000977,-0.002441,0,0,0,0
201.988800,1.656250,-0.046875,0.027344,0.000000,0.000000,0.005383,-0.001465,-0.000732,0.482348,0.000732,0.003662,0.002441,0,0,0,0
201.998566,1.656250,-0.046875,0.027344,0.000000,0.000000,0.005423,-0.001465,-0.000732,0.482348,0.001953,0.000000,0.000732,0,0,0,0
202.008331,1.656250,-0.046875,0.027344,0.000000,0.000000,0.005365,-0.001465,-0.000732,0.482348,-0.000732,0.000488,0.000244,0,0,0,0
202.018097,1.656250,-0.046875,0.027344,0.000000,0.000000,0.004824,-0.001465,-0.000732,0.482348,-0.001221,0.000000,-0.002441,0,0,0,0
202.027863,1.656250,-0.046875,0.027344,0.000000,0.000000,0.006226,-0.001465,-0.000732,0.482348,0.000732,0.000977,0.000732,0,0,0,0
202.037628,1.656250,-0.046875,0.027344,0.000000,0.000000,0.006535,-0.001465,-0.000732,0.482348,-0.000244,0.000000,-0.001465,0,0,0,0
202.047394,1.656250,-0.046875,0.027344,0.000000,0.000000,0.006495,-0.001465,-0.000732,0.482348,0.000244,-0.000977,-0.000244,0,0,0,0
202.057159,1.656250,-0.046875,0.027344,0.000000,0.000000,0.005650,-0.001526,-0.000732,0.482348,0.000732,-0.000488,-0.000244,0,0,0,0
202.066925,1.656250,-0.046875,0.027344,0.000000,0.000000,0.005568,-0.001526,-0.000732,0.482348,-0.000244,0.000488,0.000244,0,0,0,0
202.076691,1.656250,-0.046875,0.027344,0.000000,0.000000,0.005661,-0.001526,-0.000732,0.482348,-0.002930,0.001465,0.002441,0,0,0,0
202.086456,1.656250,-0.046875,0.027344,0.000000,0.000000,0.005047,-0.001526,-0.000732,0.482348,0.000732,0.000000,0.001709,0,0,0,0
202.096222,1.656250,-0.046875,0.027344,0.000000,0.000000,0.005186,-0.001526,-0.000732,0.482348,0.000244,0.003174,-0.000244,0,0,0,0
202.105988,1.656250,-0.046875,0.027344,0.000000,0.000000,0.006655,-0.001526,-0.000732,0.482348,-0.000732,0.000000,0.002441,0,0,0,0
202.115753,1.656250,-0.046875,0.027344,0.000000,0.000000,0.005857,-0.001526,-0.000732,0.482348,-0.002930,-0.000488,0.000244,0,0,0,0
202.125519,1.656250,-0.046875,0.027344,0.000000,0.000000,0.005791,-0.001526,-0.000732,0.482348,-0.000244,0.000488,0.000244,0,0,0,0
202.135284,1.656250,-0.046875,0.027344,0.000000,0.000000,0.005680,-0.001526,-0.000732,0.482348,-0.002441,0.000977,-0.000244,0,0,0,0
202.145050,1.656250,-0.046875,0.027344,0.000000,0.000000,0.005703,-0.001526,-0.000732,0.482348,0.000244,0.002197,0.001221,0,0,0,0
202.154816,1.656250,-0.046875,0.027344,0.000000,0.000000,0.004763,-0.001526,-0.000732,0.482348,0.001465,-0.000977,-0.001465,0,0,0,0
202.164581,1.656250,-0.046875,0.027344,0.000000,0.000000,0.004765,-0.001526,-0.000732,0.482348,-0.000244,-0.001465,-0.000244,0,0,0,0
202.174347,1.656250,-0.046875,0.027344,0.000000,0.000000,0.005199,-0.001526,-0.000732,0.482348,0.001465,0.002197,-0.000732,0,0,0,0
202.184113,1.656250,-0.046875,0.027344,0.000000,0.000000,0.005762,-0.001526,-0.000732,0.482348,-0.001221,0.000488,-0.000244,0,0,0,0
202.193878,1.656250,-0.046875,0.027344,0.000000,0.000000,0.005877,-0.001526,-0.000732,0.482348,-0.000244,-0.000977,0.001709,0,0,0,0
202.203644,1.656250,-0.046875,0.027344,0.000000,0.000000,0.005840,-0.001526,-0.000732,0.482348,0.000244,-0.001953,0.002441,0,0,0,0
202.213409,1.656250,-0.046875,0.027344,0.000000,0.000000,0.005863,-0.001526,-0.000732,0.482348,-0.002441,-0.001465,0.000244,0,0,0,0
202.223175,1.656250,-0.046875,0.027344,0.000000,0.000000,0.005106,-0.001526,-0.000732,0.482348,-0.002441,0.000488,0.001709,0,0,0,0
202.232941,1.656250,-0.046875,0.027344,0.000000,0.000000,0.004871,-0.001526,-0.000732,0.482348,-0.000244,0.002197,0.001221,0,0,0,0
202.242706,1.656250,-0.046875,0.027344,0.000000,0.000000,0.005178,-0.001526,-0.000732,0.482348,-0.000244,-0.001953,0.001709,0,0,0,0
202.252472,1.656250,-0.046875,0.027344,0.000000,0.000000,0.004272,-0.001526,-0.000793,0.482348,-0.001221,-0.000977,-0.000244,0,0,0,0
202.262238,1.656250,-0.046875,0.027344,0.000000,0.000000,0.005688,-0.001526,-0.000793,0.482348,-0.001709,0.000488,0.001221,0,0,0,0
202.272003,1.656250,-0.046875,0.027344,0.000000,0.000000,0.005926,-0.001526,-0.000793,0.482348,-0.001709,0.000977,0.000732,0,0,0,0
202.281769,1.656250,-0.046875,0.027344,0.000000,0.000000,0.005413,-0.001587,-0.000732,0.482348,-0.001221,-0.000977,0.000244,0,0,0,0
202.291534,1.656250,-0.046875,0.027344,0.000000,0.000000,0.005350,-0.001587,-0.000732,0.482348,0.000732,0.000000,0.001709,0,0,0,0
202.301300,1.656250,-0.046875,0.027344,0.000000,0.000000,0.005590,-0.001587,-0.000732,0.482348,-0.001709,-0.001953,-0.000732,0,0,0,0
202.311066,1.656250,-0.046875,0.027344,0.000000,0.000000,0.006151,-0.001587,-0.000732,0.482348,-0.000732,-0.000977,0.001709,0,0,0,0
202.320831,1.656250,-0.046875,0.027344,0.000000,0.000000,0.005373,-0.001587,-0.000732,0.482348,-0.000244,-0.000977,-0.001953,0,0,0,0
202.330597,1.656250,-0.046875,0.027344,0.000000,0.000000,0.004938,-0.001465,-0.000732,0.482178,0.000732,0.002197,-0.000244,0,0,0,0
202.340363,1.656250,-0.046875,0.027344,0.000000,0.000000,0.004902,-0.001587,-0.000732,0.482348,-0.000732,-0.002441,-0.002441,0,0,0,0
202.350128,1.656250,-0.046875,0.027344,0.000000,0.000000,0.004414,-0.001587,-0.000732,0.482348,0.001465,-0.002441,-0.000732,0,0,0,0
202.359894,1.656250,-0.046875,0.027344,0.000000,0.000000,0.004816,-0.001587,-0.000732,0.482348,-0.000732,0.000000,0.001221,0,0,0,0
202.369659,1.656250,-0.046875,0.027344,0.000000,0.000000,0.004589,-0.001587,-0.000732,0.482348,-0.000732,0.001465,0.000732,0,0,0,0
202.379425,1.656250,-0.046875,0.027344,0.000000,0.000000,0.004642,-0.001587,-0.000732,0.482348,-0.001221,0.000000,0.001221,0,0,0,0
202.389191,1.656250,-0.046875,0.027344,0.000000,0.000000,0.004417,-0.001587,-0.000732,0.482348,0.000732,-0.002441,0.001709,0,0,0,0
202.398956,1.656250,-0.046875,0.027344,0.000000,0.000000,0.004496,-0.001587,-0.000732,0.482348,0.001465,-0.000488,0.000732,0,0,0,0
202.408722,1.656250,-0.046875,0.027344,0.000000,0.000000,0.004702,-0.001587,-0.000732,0.482348,0.001465,0.002197,-0.001465,0,0,0,0
202.418488,1.656250,-0.046875,0.027344,0.000000,0.000000,0.004086,-0.001587,-0.000732,0.482348,0.002441,-0.000977,0.001221,0,0,0,0
202.428253,1.656250,-0.046875,0.027344,0.000000,0.000000,0.003922,-0.001587,-0.000732,0.482348,0.002930,0.002686,0.000244,0,0,0,0
202.438019,1.656250,-0.046875,0.027344,0.000000,0.000000,0.003977,-0.001587,-0.000732,0.482348,0.000244,0.001465,0.003906,0,0,0,0
202.447784,1.656250,-0.046875,0.027344,0.000000,0.000000,0.003345,-0.001587,-0.000732,0.482348,0.000244,0.002197,-0.000244,0,0,0,0
202.457550,1.656250,-0.046875,0.027344,0.000000,0.000000,0.003712,-0.001587,-0.000732,0.482348,0.000732,0.000488,0.001221,0,0,0,0
202.467316,1.656250,-0.046875,0.027344,0.000000,0.000000,0.003965,-0.001587,-0.000732,0.482348,0.000244,0.000488,0.000244,0,0,0,0
202.477081,1.656250,-0.046875,0.027344,0.000000,0.000000,0.003965,-0.001587,-0.000732,0.482348,-0.003906,0.000000,0.000732,0,0,0,0
202.486877,1.656250,-0.046875,0.027344,0.000000,0.000000,0.003685,-0.001587,-0.000732,0.482348,0.000244,-0.001465,0.000244,0,0,0,0
202.496613,1.656250,-0.046875,0.027344,0.000000,0.000000,0.003668,-0.001587,-0.000732,0.482348,-0.000244,-0.000977,0.002441,0,0,0,0
202.506378,1.656250,-0.046875,0.027344,0.000000,0.000000,0.003811,-0.001648,-0.000732,0.482348,-0.000732,-0.000488,-0.000244,0,0,0,0
202.516144,1.656250,-0.046875,0.027344,0.000000,0.000000,0.003883,-0.001648,-0.000732,0.482348,-0.000244,-0.000488,-0.001465,0,0,0,0
202.525909,1.656250,-0.046875,0.027344,0.000000,0.000000,0.003960,-0.001648,-0.000732,0.482348,0.002930,0.002686,-0.000244,0,0,0,0
202.535675,1.656250,-0.046875,0.027344,0.000000,0.000000,0.004311,-0.001648,-0.000732,0.482348,-0.000244,0.000000,0.001709,0,0,0,0
202.545441,1.656250,-0.046875,0.027344,0.000000,0.000000,0.004141,-0.001648,-0.000732,0.482348,0.000732,0.002197,-0.000244,0,0,0,0
202.555206,1.656250,-0.046875,0.027344,0.000000,0.000000,0.003658,-0.001648,-0.000732,0.482348,0.001465,-0.000977,0.001221,0,0,0,0
202.564972,1.656250,-0.046875,0.027344,0.000000,0.000000,0.003899,-0.001648,-0.000732,0.482348,0.002441,-0.000488,-0.002441,0,0,0,0
202.574738,1.656250,-0.046875,0.027344,0.000000,0.000000,0.003664,-0.001648,-0.000732,0.482348,0.000732,-0.002441,0.003906,0,0,0,0
202.584503,1.656250,-0.046875,0.027344,0.000000,0.000000,0.003632,-0.001648,-0.000732,0.482348,-0.000244,0.000000,0.001221,0,0,0,0
202.594269,1.656250,-0.046875,0.027344,0.000000,0.000000,0.003641,-0.001648,-0.000732,0.482348,0.000732,0.001465,0.001709,0,0,0,0
202.604034,1.656250,-0.046875,0.027344,0.000000,0.000000,0.003832,-0.001648,-0.000732,0.482348,-0.000244,0.004150,-0.000244,0,0,0,0
202.613800,1.656250,-0.046875,0.027344,0.000000,0.000000,0.003550,-0.001648,-0.000732,0.482348,0.000244,-0.000977,0.000732,0,0,0,0
202.623566,1.656250,-0.046875,0.027344,0.000000,0.000000,0.003492,-0.001648,-0.000732,0.482348,0.001953,0.000488,0.000244,0,0,0,0
202.633331,1.656250,-0.046875,0.027344,0.000000,0.000000,0.003395,-0.001465,-0.000732,0.482178,0.000732,-0.002441,-0.001953,0,0,0,0
202.643097,1.656250,-0.046875,0.027344,0.000000,0.000000,0.003521,-0.001648,-0.000732,0.482348,-0.000732,-0.001465,0.000732,0,0,0,0
202.652863,1.656250,-0.046875,0.027344,0.000000,0.000000,0.002914,-0.001648,-0.000732,0.482348,-0.000732,-0.001953,0.000732,0,0,0,0
202.662628,1.656250,-0.046875,0.027344,0.000000,0.000000,0.003101,-0.001648,-0.000732,0.482348,0.001465,0.002197,-0.000732,0,0,0,0
202.672394,1.656250,-0.046875,0.027344,0.000000,0.000000,0.003519,-0.001648,-0.000732,0.482348,-0.000244,-0.000488,-0.000244,0,0,0,0
202.682159,1.656250,-0.046875,0.027344,0.000000,0.000000,0.003036,-0.001648,-0.000732,0.482348,0.000732,0.001465,0.000244,0,0,0,0
202.691925,1.656250,-0.046875,0.027344,0.000000,0.000000,0.003242,-0.001648,-0.000732,0.482348,-0.000244,0.000977,0.000732,0,0,0,0
202.701691,1.656250,-0.046875,0.027344,0.000000,0.000000,0.003231,-0.001648,-0.000732,0.482348,0.001465,-0.000488,0.000732,0,0,0,0
202.711456,1.656250,-0.046875,0.027344,0.000000,0.000000,0.003637,-0.001648,-0.000732,0.482348,0.000732,0.000977,0.000244,0,0,0,0
202.721222,1.656250,-0.046875,0.027344,0.000000,0.000000,0.003925,-0.001648,-0.000732,0.482348,0.001465,-0.002441,-0.000732,0,0,0,0
202.730988,1.656250,-0.046875,0.027344,0.000000,0.000000,0.003073,-0.001648,-0.000732,0.482348,0.000244,-0.001465,0.000244,0,0,0,0
202.740753,1.656250,-0.046875,0.027344,0.000000,0.000000,0.003166,-0.001648,-0.000732,0.482348,-0.002441,0.002197,0.000244,0,0,0,0
202.750519,1.656250,-0.046875,0.027344,0.000000,0.000000,0.003338,-0.001648,-0.000732,0.482348,-0.001221,-0.000488,-0.000244,0,0,0,0
202.760284,1.656250,-0.046875,0.027344,0.000000,0.000000,0.003292,-0.001648,-0.000732,0.482348,-0.000732,0.000977,0.001221,0,0,0,0
202.770050,1.656250,-0.046875,0.027344,0.000000,0.000000,0.003408,-0.001648,-0.000732,0.482348,-0.000732,-0.000488,0.001221,0,0,0,0
202.779831,1.656250,-0.046875,0.027344,0.000000,0.000000,0.003807,-0.001709,-0.000732,0.482348,0.000244,0.000977,-0.001953,0,0,0,0
202.789581,1.656250,-0.046875,0.027344,0.000000,0.000000,0.003954,-0.001709,-0.000732,0.482348,-0.002441,-0.000977,0.001709,0,0,0,0
202.799347,1.656250,-0.046875,0.027344,0.000000,0.000000,0.003828,-0.001709,-0.000732,0.482348,0.000244,-0.000977,0.002441,0,0,0,0
202.809113,1.656250,-0.046875,0.027344,0.000000,0.000000,0.003653,-0.001709,-0.000732,0.482348,-0.001221,0.000977,-0.000244,0,0,0,0
202.818878,1.656250,-0.046875,0.027344,0.000000,0.000000,0.004095,-0.001709,-0.000793,0.482348,-0.000244,0.000488,0.001709,0,0,0,0
202.828644,1.656250,-0.046875,0.027344,0.000000,0.000000,0.004282,-0.001709,-0.000793,0.482348,0.000244,-0.000977,0.000732,0,0,0,0
202.838409,1.656250,-0.046875,0.027344,0.000000,0.000000,0.004404,-0.001709,-0.000793,0.482348,-0.000244,0.000000,0.000732,0,0,0,0
202.848175,1.656250,-0.046875,0.027344,0.000000,0.000000,0.004553,-0.001709,-0.000793,0.482348,-0.000244,0.000488,0.000732,0,0,0,0
202.857941,1.656250,-0.046875,0.027344,0.000000,0.000000,0.004478,-0.001709,-0.000793,0.482348,0.000244,-0.000488,-0.000732,0,0,0,0
202.867706,1.656250,-0.046875,0.027344,0.000000,0.000000,0.004463,-0.001709,-0.000793,0.482348,0.000244,0.002197,-0.000244,0,0,0,0
202.877472,1.656250,-0.046875,0.027344,0.000000,0.000000,0.004833,-0.001709,-0.000793,0.482348,-0.000244,0.000000,0.001221,0,0,0,0
202.887238,1.656250,-0.046875,0.027344,0.000000,0.000000,0.004635,-0.001709,-0.000793,0.482348,-0.001221,0.002197,0.000244,0,0,0,0
202.897003,1.656250,-0.046875,0.027344,0.000000,0.000000,0.004562,-0.001709,-0.000793,0.482348,-0.001221,-0.000977,-0.000732,0,0,0,0
202.906769,1.656250,-0.046875,0.027344,0.000000,0.000000,0.004303,-0.001709,-0.000793,0.482348,-0.001221,0.000000,0.000732,0,0,0,0
202.916534,1.656250,-0.046875,0.027344,0.000000,0.000000,0.004026,-0.001709,-0.000793,0.482348,-0.003418,-0.001953,0.000244,0,0,0,0
202.926300,1.656250,-0.046875,0.027344,0.000000,0.000000,0.003784,-0.001709,-0.000793,0.482348,-0.000732,0.000488,0.001221,0,0,0,0
202.936066,1.656250,-0.046875,0.027344,0.000000,0.000000,0.004080,-0.001465,-0.000732,0.482178,-0.002930,-0.001465,-0.001465,0,0,0,0
202.945831,1.656250,-0.046875,0.027344,0.000000,0.000000,0.004335,-0.001709,-0.000793,0.482348,0.000244,-0.001465,-0.000732,0,0,0,0
202.955597,1.656250,-0.046875,0.027344,0.000000,0.000000,0.004330,-0.001709,-0.000793,0.482348,-0.002441,-0.004150,0.000244,0,0,0,0
202.965363,1.656250,-0.046875,0.027344,0.000000,0.000000,0.003925,-0.001709,-0.000793,0.482348,0.000732,0.000488,0.001221,0,0,0,0
202.975128,1.656250,-0.046875,0.027344,0.000000,0.000000,0.003981,-0.001709,-0.000793,0.482348,0.000244,0.003662,0.000244,0,0,0,0
202.984894,1.656250,-0.046875,0.027344,0.000000,0.000000,0.003857,-0.001709,-0.000793,0.482348,-0.000732,-0.000488,-0.000244,0,0,0,0
202.994659,1.656250,-0.046875,0.027344,0.000000,0.000000,0.003969,-0.001709,-0.000793,0.482348,-0.000244,0.000000,0.001221,0,0,0,0
203.004425,1.656250,-0.046875,0.027344,0.000000,0.000000,0.003708,-0.001709,-0.000793,0.482348,-0.002930,0.002197,0.001221,0,0,0,0
203.014191,1.656250,-0.046875,0.027344,0.000000,0.000000,0.003304,-0.001709,-0.000793,0.482348,-0.000732,-0.000488,-0.001953,0,0,0,0
203.023956,1.656250,-0.046875,0.027344,0.000000,0.000000,0.003204,-0.001709,-0.000793,0.482348,-0.002441,-0.001465,0.001221,0,0,0,0
203.033722,1.656250,-0.046875,0.027344,0.000000,0.000000,0.003269,-0.001709,-0.000793,0.482348,0.000732,0.000977,0.000244,0,0,0,0
203.043488,1.656250,-0.046875,0.027344,0.000000,0.000000,0.001978,-0.001709,-0.000793,0.482348,-0.000244,-0.000488,0.000244,0,0,0,0
203.053253,1.656250,-0.046875,0.027344,0.000000,0.000000,0.002438,-0.001709,-0.000793,0.482348,-0.002441,-0.003418,-0.002441,0,0,0,0
203.063019,1.656250,-0.046875,0.027344,0.000000,0.000000,0.002419,-0.001709,-0.000793,0.482348,-0.000732,-0.002441,0.000732,0,0,0,0
203.072784,1.656250,-0.046875,0.027344,0.000000,0.000000,0.002676,-0.001709,-0.000793,0.482348,0.000732,-0.001465,0.000244,0,0,0,0
203.082550,1.656250,-0.046875,0.027344,0.000000,0.000000,0.002499,-0.001709,-0.000793,0.482348,0.000244,-0.000488,-0.000732,0,0,0,0
203.092316,1.656250,-0.046875,0.027344,0.000000,0.000000,0.002810,-0.001709,-0.000793,0.482348,-0.000732,0.001465,0.000732,0,0,0,0
203.102081,1.656250,-0.046875,0.027344,0.000000,0.000000,0.002951,-0.001709,-0.000793,0.482348,0.000244,-0.002441,0.000244,0,0,0,0
203.111847,1.656250,-0.046875,0.027344,0.000000,0.000000,0.002842,-0.001709,-0.000793,0.482348,0.000732,0.001465,-0.000244,0,0,0,0
203.121613,1.656250,-0.046875,0.027344,0.000000,0.000000,0.002468,-0.001709,-0.000793,0.482348,-0.000732,-0.001953,-0.000244,0,0,0,0
203.131378,1.656250,-0.046875,0.027344,0.000000,0.000000,0.002460,-0.001709,-0.000793,0.482348,-0.002930,-0.000977,-0.001465,0,0,0,0
203.141144,1.656250,-0.046875,0.027344,0.000000,0.000000,0.002310,-0.001709,-0.000793,0.482348,0.000244,0.000977,-0.000244,0,0,0,0
203.150909,1.656250,-0.046875,0.027344,0.000000,0.000000,0.002914,-0.001709,-0.000793,0.482348,0.000732,0.000488,0.002441,0,0,0,0
203.160675,1.656250,-0.046875,0.027344,0.000000,0.000000,0.003105,-0.001709,-0.000793,0.482348,0.001465,-0.000488,0.001221,0,0,0,0
203.170441,1.656250,-0.046875,0.027344,0.000000,0.000000,0.003414,-0.001709,-0.000793,0.482348,0.001465,-0.000977,0.001221,0,0,0,0
203.180206,1.656250,-0.046875,0.027344,0.000000,0.000000,0.003662,-0.001709,-0.000793,0.482348,0.000244,-0.000488,0.001709,0,0,0,0
203.189972,1.656250,-0.046875,0.027344,0.000000,0.000000,0.004080,-0.001709,-0.000793,0.482348,0.000244,0.000488,-0.000244,0,0,0,0
203.199738,1.656250,-0.046875,0.027344,0.000000,0.000000,0.003824,-0.001709,-0.000793,0.482348,-0.000244,-0.002441,-0.000244,0,0,0,0
203.209503,1.656250,-0.046875,0.027344,0.000000,0.000000,0.003698,-0.001709,-0.000793,0.482348,0.000244,-0.000488,-0.001465,0,0,0,0
203.219269,1.656250,-0.046875,0.027344,0.000000,0.000000,0.004183,-0.001709,-0.000793,0.482348,-0.001709,-0.002930,0.001709,0,0,0,0
203.229034,1.656250,-0.046875,0.027344,0.000000,0.000000,0.004438,-0.001770,-0.000854,0.482348,-0.001709,-0.000488,0.001221,0,0,0,0
203.238800,1.656250,-0.046875,0.027344,0.000000,0.000000,0.004726,-0.001770,-0.000854,0.482348,-0.000244,0.000000,0.000244,0,0,0,0
203.248566,1.656250,-0.046875,0.027344,0.000000,0.000000,0.005119,-0.001770,-0.000854,0.482348,0.001465,-0.000977,0.000244,0,0,0,0
203.258331,1.656250,-0.046875,0.027344,0.000000,0.000000,0.005390,-0.001770,-0.000854,0.482348,0.001465,0.000000,0.000732,0,0,0,0
203.268097,1.656250,-0.046875,0.027344,0.000000,0.000000,0.005693,-0.001770,-0.000854,0.482348,0.000732,-0.001953,-0.000732,0,0,0,0
203.277863,1.656250,-0.046875,0.027344,0.000000,0.000000,0.005245,-0.001770,-0.000854,0.482348,-0.000244,-0.002441,0.000244,0,0,0,0
203.287628,1.656250,-0.046875,0.027344,0.000000,0.000000,0.005362,-0.001770,-0.000854,0.482348,0.001465,-0.000488,0.000244,0,0,0,0
203.297394,1.656250,-0.046875,0.027344,0.000000,0.000000,0.005640,-0.001770,-0.000854,0.482348,-0.001709,0.000488,0.001221,0,0,0,0
203.307159,1.656250,-0.046875,0.027344,0.000000,0.000000,0.005613,-0.001709,-0.000732,0.482178,0.002441,0.000977,0.001709,0,0,0,0
203.316925,1.656250,-0.046875,0.027344,0.000000,0.000000,0.005905,-0.001770,-0.000854,0.482348,-0.000732,0.002197,-0.001953,0,0,0,0
203.326691,1.656250,-0.046875,0.027344,0.000000,0.000000,0.006178,-0.001770,-0.000854,0.482348,0.001465,0.002197,0.001709,0,0,0,0
203.336456,1.656250,-0.046875,0.027344,0.000000,0.000000,0.006313,-0.001770,-0.000854,0.482348,0.000732,0.000000,0.000732,0,0,0,0
203.346222,1.656250,-0.046875,0.027344,0.000000,0.000000,0.006384,-0.001770,-0.000854,0.482348,-0.000244,0.000000,-0.001465,0,0,0,0
203.355988,1.656250,-0.046875,0.027344,0.000000,0.000000,0.006174,-0.001770,-0.000854,0.482348,0.003418,0.000977,0.000244,0,0,0,0
203.365753,1.656250,-0.046875,0.027344,0.000000,0.000000,0.006172,-0.001770,-0.000854,0.482348,0.000244,-0.000488,-0.001953,0,0,0,0
203.375519,1.656250,-0.046875,0.027344,0.000000,0.000000,0.006292,-0.001770,-0.000854,0.482348,0.002441,-0.000977,-0.000244,0,0,0,0
203.385284,1.656250,-0.046875,0.027344,0.000000,0.000000,0.006111,-0.001770,-0.000854,0.482348,-0.001221,0.000488,0.001221,0,0,0,0
203.395050,1.656250,-0.046875,0.027344,0.000000,0.000000,0.006271,-0.001770,-0.000854,0.482348,0.000244,0.000488,0.001709,0,0,0,0
203.404816,1.656250,-0.046875,0.027344,0.000000,0.000000,0.006092,-0.001770,-0.000854,0.482348,-0.000244,-0.001465,0.000732,0,0,0,0
203.414581,1.656250,-0.046875,0.027344,0.000000,0.000000,0.006067,-0.001770,-0.000854,0.482348,0.000732,0.000000,-0.000244,0,0,0,0
203.424347,1.656250,-0.046875,0.027344,0.000000,0.000000,0.006227,-0.001770,-0.000854,0.482348,-0.002930,-0.001953,0.001221,0,0,0,0
203.434113,1.656250,-0.046875,0.027344,0.000000,0.000000,0.005920,-0.001770,-0.000854,0.482348,-0.002441,0.000977,0.002930,0,0,0,0
203.443878,1.656250,-0.046875,0.027344,0.000000,0.000000,0.006161,-0.001770,-0.000854,0.482348,0.000244,-0.000488,0.002441,0,0,0,0
203.453644,1.656250,-0.046875,0.027344,0.000000,0.000000,0.005686,-0.001770,-0.000854,0.482348,0.001465,0.000000,-0.000732,0,0,0,0
203.463409,1.656250,-0.046875,0.027344,0.000000,0.000000,0.005836,-0.001770,-0.000854,0.482348,0.000244,-0.000488,-0.001953,0,0,0,0
203.473175,1.656250,-0.046875,0.027344,0.000000,0.000000,0.005993,-0.001770,-0.000854,0.482348,0.000244,0.000488,0.000244,0,0,0,0
203.482941,1.656250,-0.046875,0.027344,0.000000,0.000000,0.005674,-0.001770,-0.000854,0.482348,-0.000244,0.000000,-0.000244,0,0,0,0
203.492706,1.656250,-0.046875,0.027344,0.000000,0.000000,0.005339,-0.001831,-0.000916,0.482348,-0.000244,0.001465,-0.000244,0,0,0,0
203.502472,1.656250,-0.046875,0.027344,0.000000,0.000000,0.005306,-0.001831,-0.000916,0.482348,-0.001709,-0.000488,-0.000244,0,0,0,0
203.512238,1.656250,-0.046875,0.027344,0.000000,0.000000,0.005766,-0.001831,-0.000916,0.482348,-0.001221,0.000977,0.001221,0,0,0,0
203.522003,1.656250,-0.046875,0.027344,0.000000,0.000000,0.005716,-0.001892,-0.000916,0.482348,-0.000732,-0.001953,-0.001953,0,0,0,0
203.531769,1.656250,-0.046875,0.027344,0.000000,0.000000,0.005743,-0.001892,-0.000916,0.482348,0.002441,-0.000488,-0.000244,0,0,0,0
203.541534,1.656250,-0.046875,0.027344,0.000000,0.000000,0.005596,-0.001892,-0.000916,0.482348,-0.000732,-0.001953,0.000244,0,0,0,0
203.551300,1.656250,-0.046875,0.027344,0.000000,0.000000,0.005480,-0.001892,-0.000916,0.482348,-0.002441,0.000000,0.001709,0,0,0,0
203.561066,1.656250,-0.046875,0.027344,0.000000,0.000000,0.005686,-0.001892,-0.000916,0.482348,-0.001221,-0.001953,-0.001953,0,0,0,0
203.570831,1.656250,-0.046875,0.027344,0.000000,0.000000,0.005753,-0.001892,-0.000916,0.482348,-0.002441,-0.001953,0.001221,0,0,0,0
203.580597,1.656250,-0.046875,0.027344,0.000000,0.000000,0.006086,-0.001892,-0.000916,0.482348,-0.002441,-0.002930,-0.001465,0,0,0,0
203.590363,1.656250,-0.046875,0.027344,0.000000,0.000000,0.005804,-0.001892,-0.000916,0.482348,-0.001221,0.000000,0.001709,0,0,0,0
203.600128,1.656250,-0.046875,0.027344,0.000000,0.000000,0.005796,-0.001892,-0.000916,0.482348,0.000244,0.000000,0.000244,0,0,0,0
203.609894,1.656250,-0.046875,0.027344,0.000000,0.000000,0.006004,-0.001892,-0.000916,0.482348,-0.000732,0.000000,-0.003418,0,0,0,0
203.619659,1.656250,-0.046875,0.027344,0.000000,0.000000,0.005943,-0.001892,-0.000916,0.482348,0.000244,0.000977,-0.000244,0,0,0,0
203.629425,1.656250,-0.046875,0.027344,0.000000,0.000000,0.005789,-0.001892,-0.000916,0.482348,-0.001709,0.000488,-0.002441,0,0,0,0
203.639191,1.656250,-0.046875,0.027344,0.000000,0.000000,0.005705,-0.001892,-0.000916,0.482348,0.001465,-0.000488,0.000244,0,0,0,0
203.648956,1.656250,-0.046875,0.027344,0.000000,0.000000,0.005571,-0.001892,-0.000916,0.482348,-0.000732,-0.001465,-0.001953,0,0,0,0
203.658722,1.656250,-0.046875,0.027344,0.000000,0.000000,0.005243,-0.001892,-0.000916,0.482348,-0.001221,0.001465,0.000244,0,0,0,0
203.668488,1.656250,-0.046875,0.027344,0.000000,0.000000,0.005167,-0.001892,-0.000916,0.482348,-0.002441,0.000488,-0.000244,0,0,0,0
203.678253,1.656250,-0.046875,0.027344,0.000000,0.000000,0.005276,-0.001709,-0.000732,0.482178,-0.002441,-0.000977,-0.000244,0,0,0,0
203.688019,1.656250,-0.046875,0.027344,0.000000,0.000000,0.004845,-0.001892,-0.000916,0.482348,0.004150,0.002686,0.000244,0,0,0,0
203.697784,1.656250,-0.046875,0.027344,0.000000,0.000000,0.004507,-0.001892,-0.000916,0.482348,-0.000244,-0.002441,-0.001465,0,0,0,0
203.707550,1.656250,-0.046875,0.027344,0.000000,0.000000,0.004425,-0.001892,-0.000916,0.482348,-0.000244,-0.001465,-0.000244,0,0,0,0
203.717316,1.656250,-0.046875,0.027344,0.000000,0.000000,0.003754,-0.001892,-0.000916,0.482348,0.000244,-0.002441,0.001709,0,0,0,0
203.727081,1.656250,-0.046875,0.027344,0.000000,0.000000,0.003681,-0.001892,-0.000916,0.482348,-0.000244,0.000000,-0.000732,0,0,0,0
203.736862,1.656250,-0.046875,0.027344,0.000000,0.000000,0.003817,-0.001892,-0.000916,0.482348,-0.001221,0.000488,-0.000244,0,0,0,0
203.746613,1.656250,-0.046875,0.027344,0.000000,0.000000,0.004162,-0.001892,-0.000916,0.482348,-0.000244,0.003174,-0.000244,0,0,0,0
203.756378,1.656250,-0.046875,0.027344,0.000000,0.000000,0.003759,-0.001892,-0.000916,0.482348,-0.001221,0.000000,-0.000732,0,0,0,0
203.766144,1.656250,-0.046875,0.027344,0.000000,0.000000,0.003693,-0.001892,-0.000916,0.482348,-0.002930,-0.000488,-0.001465,0,0,0,0
203.775909,1.656250,-0.046875,0.027344,0.000000,0.000000,0.003798,-0.001892,-0.000916,0.482348,-0.000732,0.000488,0.000732,0,0,0,0
203.785675,1.656250,-0.046875,0.027344,0.000000,0.000000,0.003883,-0.001892,-0.000916,0.482348,0.000732,-0.001953,-0.001465,0,0,0,0
203.795441,1.656250,-0.046875,0.027344,0.000000,0.000000,0.004095,-0.001892,-0.000916,0.482348,0.001465,0.000488,-0.001465,0,0,0,0
203.805206,1.656250,-0.046875,0.027344,0.000000,0.000000,0.004164,-0.001953,-0.000854,0.482348,0.002441,0.000000,-0.000244,0,0,0,0
203.814972,1.656250,-0.046875,0.027344,0.000000,0.000000,0.004219,-0.001953,-0.000854,0.482348,-0.000732,-0.000977,0.000244,0,0,0,0
203.824738,1.656250,-0.046875,0.027344,0.000000,0.000000,0.003584,-0.001953,-0.000854,0.482348,-0.000732,-0.001465,0.001221,0,0,0,0
203.834503,1.656250,-0.046875,0.027344,0.000000,0.000000,0.003548,-0.001953,-0.000854,0.482348,0.000732,-0.000977,0.001709,0,0,0,0
203.844269,1.656250,-0.046875,0.027344,0.000000,0.000000,0.003922,-0.001953,-0.000854,0.482348,-0.000244,0.000977,-0.000244,0,0,0,0
203.854034,1.656250,-0.046875,0.027344,0.000000,0.000000,0.003551,-0.001953,-0.000854,0.482348,0.001953,-0.001465,0.000732,0,0,0,0
203.863800,1.656250,-0.046875,0.027344,0.000000,0.000000,0.003170,-0.001953,-0.000854,0.482348,0.000732,-0.001465,0.000244,0,0,0,0
203.873566,1.656250,-0.046875,0.027344,0.000000,0.000000,0.003141,-0.001953,-0.000854,0.482348,-0.000244,0.002197,0.000732,0,0,0,0
203.883331,1.656250,-0.046875,0.027344,0.000000,0.000000,0.003384,-0.001953,-0.000854,0.482348,-0.000732,0.002686,0.001221,0,0,0,0
203.893097,1.656250,-0.046875,0.027344,0.000000,0.000000,0.003216,-0.001953,-0.000854,0.482348,0.001465,-0.001465,-0.000732,0,0,0,0
203.902863,1.656250,-0.046875,0.027344,0.000000,0.000000,0.003605,-0.001953,-0.000916,0.482348,-0.001221,0.000977,-0.000244,0,0,0,0
203.912628,1.656250,-0.046875,0.027344,0.000000,0.000000,0.003214,-0.001953,-0.000916,0.482403,0.002930,0.000000,-0.000244,0,0,0,0
203.922394,1.656250,-0.046875,0.027344,0.000000,0.000000,0.002806,-0.001953,-0.000916,0.482403,0.002441,0.002686,-0.002441,0,0,0,0
203.932159,1.656250,-0.046875,0.027344,0.000000,0.000000,0.003113,-0.001953,-0.000916,0.482403,-0.003418,0.000000,0.001709,0,0,0,0
203.941925,1.656250,-0.046875,0.027344,0.000000,0.000000,0.003012,-0.001953,-0.000916,0.482403,0.000244,-0.000488,0.001709,0,0,0,0
203.951691,1.656250,-0.046875,0.027344,0.000000,0.000000,0.002806,-0.001953,-0.000916,0.482403,0.002441,-0.000488,0.001709,0,0,0,0
203.961456,1.656250,-0.046875,0.027344,0.000000,0.000000,0.002735,-0.001953,-0.000916,0.482403,-0.001221,-0.000488,0.000244,0,0,0,0
203.971222,1.656250,-0.046875,0.027344,0.000000,0.000000,0.002962,-0.001953,-0.000916,0.482403,0.000732,0.002197,0.001709,0,0,0,0
203.980988,1.656250,-0.046875,0.027344,0.000000,0.000000,0.003269,-0.001709,-0.000732,0.482178,0.000732,-0.001465,-0.002441,0,0,0,0
203.990753,1.656250,-0.046875,0.027344,0.000000,0.000000,0.002903,-0.001953,-0.000916,0.482403,0.000732,0.002197,0.003906,0,0,0,0
204.000519,1.656250,-0.046875,0.027344,0.000000,0.000000,0.003229,-0.001953,-0.000916,0.482403,0.001465,-0.000488,0.000732,0,0,0,0
204.010284,1.656250,-0.046875,0.027344,0.000000,0.000000,0.003239,-0.002014,-0.000916,0.482403,0.000732,-0.001953,0.001221,0,0,0,0
204.020050,1.656250,-0.046875,0.027344,0.000000,0.000000,0.003233,-0.002014,-0.000916,0.482403,0.000732,-0.000488,-0.003418,0,0,0,0
204.029816,1.656250,-0.046875,0.027344,0.000000,0.000000,0.003742,-0.002014,-0.000916,0.482403,0.005127,0.003174,0.001221,0,0,0,0
204.039581,1.656250,-0.046875,0.027344,0.000000,0.000000,0.003754,-0.002014,-0.000916,0.482403,0.000244,-0.002441,0.002441,0,0,0,0
204.049347,1.656250,-0.046875,0.027344,0.000000,0.000000,0.003857,-0.002014,-0.000916,0.482403,-0.001221,0.000000,0.000732,0,0,0,0
204.059113,1.656250,-0.046875,0.027344,0.000000,0.000000,0.004318,-0.002014,-0.000916,0.482403,-0.001221,0.000000,0.000244,0,0,0,0
204.068878,1.656250,-0.046875,0.027344,0.000000,0.000000,0.004330,-0.002014,-0.000916,0.482403,0.001465,0.000977,-0.001953,0,0,0,0
204.078644,1.656250,-0.046875,0.027344,0.000000,0.000000,0.004238,-0.002014,-0.000916,0.482403,0.001465,0.002197,0.001709,0,0,0,0
204.088409,1.656250,-0.046875,0.027344,0.000000,0.000000,0.003574,-0.002014,-0.000916,0.482403,0.001465,0.000977,0.000244,0,0,0,0
204.098175,1.656250,-0.046875,0.027344,0.000000,0.000000,0.003412,-0.002014,-0.000916,0.482403,0.000732,0.002686,-0.000732,0,0,0,0
204.107941,1.656250,-0.046875,0.027344,0.000000,0.000000,0.003496,-0.002014,-0.000916,0.482403,0.000244,-0.001465,0.001709,0,0,0,0
204.117706,1.656250,-0.046875,0.027344,0.000000,0.000000,0.003405,-0.002014,-0.000916,0.482403,-0.000244,-0.001465,0.000732,0,0,0,0
204.127472,1.656250,-0.046875,0.027344,0.000000,0.000000,0.003050,-0.002014,-0.000916,0.482403,0.000732,0.003662,0.002930,0,0,0,0
204.137238,1.656250,-0.046875,0.027344,0.000000,0.000000,0.004280,-0.002014,-0.000916,0.482403,0.000732,0.004150,-0.001465,0,0,0,0
204.147003,1.656250,-0.046875,0.027344,0.000000,0.000000,0.004555,-0.002014,-0.000916,0.482403,0.001465,-0.003418,-0.000244,0,0,0,0
204.156769,1.656250,-0.046875,0.027344,0.000000,0.000000,0.003780,-0.002014,-0.000916,0.482403,0.000244,-0.000977,0.000244,0,0,0,0
204.166534,1.656250,-0.046875,0.027344,0.000000,0.000000,0.003757,-0.002014,-0.000916,0.482403,0.001465,0.001465,0.000244,0,0,0,0
204.176300,1.656250,-0.046875,0.027344,0.000000,0.000000,0.003702,-0.002014,-0.000916,0.482403,0.002441,-0.000488,0.000732,0,0,0,0
204.186066,1.656250,-0.046875,0.027344,0.000000,0.000000,0.003822,-0.002014,-0.000916,0.482403,-0.000732,-0.000488,-0.000732,0,0,0,0
204.195831,1.656250,-0.046875,0.027344,0.000000,0.000000,0.003309,-0.002014,-0.000916,0.482403,-0.000244,0.000977,0.000732,0,0,0,0
204.205597,1.656250,-0.046875,0.027344,0.000000,0.000000,0.003452,-0.002014,-0.000916,0.482403,-0.000732,0.002686,-0.001465,0,0,0,0
204.215363,1.656250,-0.046875,0.027344,0.000000,0.000000,0.005117,-0.002014,-0.000916,0.482403,-0.000732,0.000000,0.000244,0,0,0,0
204.225128,1.656250,-0.046875,0.027344,0.000000,0.000000,0.004429,-0.002014,-0.000916,0.482403,-0.001221,0.000488,0.001709,0,0,0,0
204.234894,1.656250,-0.046875,0.027344,0.000000,0.000000,0.004446,-0.002014,-0.000916,0.482403,-0.002441,0.000000,0.000244,0,0,0,0
204.244659,1.656250,-0.046875,0.027344,0.000000,0.000000,0.004524,-0.002014,-0.000916,0.482403,0.001465,-0.001953,-0.001953,0,0,0,0
204.254425,1.656250,-0.046875,0.027344,0.000000,0.000000,0.003357,-0.002014,-0.000916,0.482403,-0.000244,-0.001953,-0.001953,0,0,0,0
204.264191,1.656250,-0.046875,0.027344,0.000000,0.000000,0.003414,-0.002014,-0.000916,0.482403,0.000732,-0.000977,-0.000732,0,0,0,0
204.273956,1.656250,-0.046875,0.027344,0.000000,0.000000,0.003962,-0.002014,-0.000916,0.482403,-0.000732,-0.000977,0.001709,0,0,0,0
204.283722,1.656250,-0.046875,0.027344,0.000000,0.000000,0.004000,-0.001953,-0.000732,0.482178,-0.000732,0.000000,-0.000732,0,0,0,0
204.293488,1.656250,-0.046875,0.027344,0.000000,0.000000,0.003706,-0.002014,-0.000916,0.482403,-0.001709,-0.000488,-0.000732,0,0,0,0
204.303253,1.656250,-0.046875,0.027344,0.000000,0.000000,0.004221,-0.002014,-0.000916,0.482403,-0.002930,0.000488,-0.001953,0,0,0,0
204.313019,1.656250,-0.046875,0.027344,0.000000,0.000000,0.004526,-0.002014,-0.000916,0.482403,-0.004395,0.001465,0.000732,0,0,0,0
204.322784,1.656250,-0.046875,0.027344,0.000000,0.000000,0.003874,-0.002014,-0.000916,0.482403,0.000244,0.002686,-0.001465,0,0,0,0
204.332550,1.656250,-0.046875,0.027344,0.000000,0.000000,0.003847,-0.002014,-0.000916,0.482403,-0.002441,0.000000,0.000244,0,0,0,0
204.342316,1.656250,-0.046875,0.027344,0.000000,0.000000,0.003899,-0.002014,-0.000916,0.482403,-0.003906,-0.001953,0.000244,0,0,0,0
204.352081,1.656250,-0.046875,0.027344,0.000000,0.000000,0.003883,-0.002014,-0.000916,0.482403,0.000244,0.000000,0.000732,0,0,0,0
204.361847,1.656250,-0.046875,0.027344,0.000000,0.000000,0.003607,-0.002014,-0.000916,0.482403,-0.003418,0.000000,-0.001465,0,0,0,0
204.371613,1.656250,-0.046875,0.027344,0.000000,0.000000,0.003799,-0.002014,-0.000916,0.482403,-0.000244,-0.000488,0.000244,0,0,0,0
204.381378,1.656250,-0.046875,0.027344,0.000000,0.000000,0.003435,-0.002014,-0.000916,0.482403,-0.002930,0.000000,-0.002441,0,0,0,0
204.391144,1.656250,-0.046875,0.027344,0.000000,0.000000,0.003279,-0.002014,-0.000916,0.482403,-0.003418,0.000488,-0.002930,0,0,0,0
204.400909,1.656250,-0.046875,0.027344,0.000000,0.000000,0.003086,-0.002014,-0.000916,0.482403,-0.001709,0.004150,0.000244,0,0,0,0
204.410675,1.656250,-0.046875,0.027344,0.000000,0.000000,0.003115,-0.002014,-0.000916,0.482403,-0.001221,0.000977,0.000732,0,0,0,0
204.420441,1.656250,-0.046875,0.027344,0.000000,0.000000,0.003239,-0.002014,-0.000916,0.482403,-0.001221,-0.000977,0.000244,0,0,0,0
204.430206,1.656250,-0.046875,0.027344,0.000000,0.000000,0.003010,-0.002014,-0.000916,0.482403,-0.003418,-0.001465,0.001221,0,0,0,0
204.439972,1.656250,-0.046875,0.027344,0.000000,0.000000,0.002817,-0.002014,-0.000916,0.482403,0.001953,0.000977,0.000244,0,0,0,0
204.449738,1.656250,-0.046875,0.027344,0.000000,0.000000,0.001884,-0.002075,-0.000916,0.482403,-0.002930,-0.000977,0.001221,0,0,0,0
204.459503,1.656250,-0.046875,0.027344,0.000000,0.000000,0.002020,-0.002075,-0.000916,0.482403,-0.000244,0.000000,0.001709,0,0,0,0
204.469269,1.656250,-0.046875,0.027344,0.000000,0.000000,0.002220,-0.002075,-0.000916,0.482403,-0.003906,-0.000977,-0.001465,0,0,0,0
204.479034,1.656250,-0.046875,0.027344,0.000000,0.000000,0.002420,-0.002075,-0.000916,0.482403,-0.000244,0.000488,0.000244,0,0,0,0
204.488800,1.656250,-0.046875,0.027344,0.000000,0.000000,0.002842,-0.002075,-0.000916,0.482403,0.000244,0.002197,-0.000244,0,0,0,0
204.498566,1.656250,-0.046875,0.027344,0.000000,0.000000,0.002750,-0.002075,-0.000916,0.482403,-0.001709,0.000000,0.000732,0,0,0,0
204.508331,1.656250,-0.046875,0.027344,0.000000,0.000000,0.002888,-0.002075,-0.000916,0.482403,0.001953,0.000000,0.000732,0,0,0,0
204.518097,1.656250,-0.046875,0.027344,0.000000,0.000000,0.003120,-0.002075,-0.000916,0.482403,-0.000244,0.000000,-0.001953,0,0,0,0
204.527863,1.656250,-0.046875,0.027344,0.000000,0.000000,0.002155,-0.002075,-0.000916,0.482403,0.002441,-0.000977,-0.000732,0,0,0,0
204.537628,1.656250,-0.046875,0.027344,0.000000,0.000000,0.002453,-0.002075,-0.000916,0.482403,0.000244,0.000000,-0.001465,0,0,0,0
204.547394,1.656250,-0.046875,0.027344,0.000000,0.000000,0.002506,-0.002075,-0.000916,0.482403,-0.000732,0.003174,0.002441,0,0,0,0
204.557159,1.656250,-0.046875,0.027344,0.000000,0.000000,0.002739,-0.002075,-0.000916,0.482403,-0.000732,0.000488,0.000244,0,0,0,0
204.566925,1.656250,-0.046875,0.027344,0.000000,0.000000,0.002556,-0.002075,-0.000916,0.482403,0.001465,-0.001953,0.002930,0,0,0,0
204.576691,1.656250,-0.046875,0.027344,0.000000,0.000000,0.002533,-0.002075,-0.000916,0.482403,0.000244,0.001465,0.000244,0,0,0,0
204.586456,1.656250,-0.046875,0.027344,0.000000,0.000000,0.003160,-0.002075,-0.000916,0.482403,0.002441,-0.000488,0.001221,0,0,0,0
204.596222,1.656250,-0.046875,0.027344,0.000000,0.000000,0.002892,-0.002075,-0.000916,0.482403,0.004150,0.002197,0.001221,0,0,0,0
204.605988,1.656250,-0.046875,0.027344,0.000000,0.000000,0.002216,-0.002075,-0.000916,0.482403,-0.000732,-0.001465,0.001221,0,0,0,0
204.615753,1.656250,-0.046875,0.027344,0.000000,0.000000,0.002382,-0.002075,-0.000916,0.482403,0.001465,-0.000488,0.000244,0,0,0,0
204.625519,1.656250,-0.046875,0.027344,0.000000,0.000000,0.002974,-0.002136,-0.000916,0.482403,0.001953,0.000977,-0.000244,0,0,0,0
204.635284,1.656250,-0.046875,0.027344,0.000000,0.000000,0.003242,-0.002136,-0.000916,0.482403,0.002441,-0.001953,0.001709,0,0,0,0
204.645035,1.656250,-0.046875,0.027344,0.000000,0.000000,0.003716,-0.002136,-0.000977,0.482403,-0.000732,0.000977,-0.001465,0,0,0,0
204.654816,1.656250,-0.046875,0.027344,0.000000,0.000000,0.004154,-0.001953,-0.000977,0.482422,-0.002441,-0.001953,0.001221,0,0,0,0
204.664581,1.656250,-0.046875,0.027344,0.000000,0.000000,0.004526,-0.002136,-0.000977,0.482457,0.001465,0.002686,0.001221,0,0,0,0
204.674347,1.656250,-0.046875,0.027344,0.000000,0.000000,0.004513,-0.002136,-0.000977,0.482457,0.001953,-0.000977,0.001709,0,0,0,0
204.684113,1.656250,-0.046875,0.027344,0.000000,0.000000,0.003664,-0.002136,-0.000977,0.482457,0.001465,0.002197,0.003418,0,0,0,0
204.693878,1.656250,-0.046875,0.027344,0.000000,0.000000,0.003992,-0.002136,-0.000977,0.482457,0.000732,0.003174,0.000732,0,0,0,0
204.703644,1.656250,-0.046875,0.027344,0.000000,0.000000,0.004463,-0.002136,-0.000977,0.482457,0.002441,-0.001465,-0.000732,0,0,0,0
204.713409,1.656250,-0.046875,0.027344,0.000000,0.000000,0.004528,-0.002136,-0.000977,0.482457,0.001465,0.002197,0.000244,0,0,0,0
204.723175,1.656250,-0.046875,0.027344,0.000000,0.000000,0.004593,-0.002136,-0.000977,0.482457,0.002930,-0.001953,-0.001953,0,0,0,0
204.732941,1.656250,-0.046875,0.027344,0.000000,0.000000,0.004986,-0.002136,-0.000977,0.482457,0.001465,0.000977,-0.000732,0,0,0,0
204.742706,1.656250,-0.046875,0.027344,0.000000,0.000000,0.005060,-0.002136,-0.000977,0.482457,0.001953,0.001465,0.002441,0,0,0,0
204.752472,1.656250,-0.046875,0.027344,0.000000,0.000000,0.005320,-0.002136,-0.000977,0.482457,-0.001709,-0.000488,0.000244,0,0,0,0
204.762222,1.656250,-0.046875,0.027344,0.000000,0.000000,0.005039,-0.002136,-0.000977,0.482457,-0.001221,0.000977,0.001709,0,0,0,0
204.772003,1.656250,-0.046875,0.027344,0.000000,0.000000,0.004917,-0.002136,-0.000977,0.482457,0.001465,-0.000488,0.000732,0,0,0,0
204.781769,1.656250,-0.046875,0.027344,0.000000,0.000000,0.005104,-0.002136,-0.000977,0.482457,0.000732,0.000000,0.001709,0,0,0,0
204.791534,1.656250,-0.046875,0.027344,0.000000,0.000000,0.005074,-0.002136,-0.000977,0.482457,0.002930,0.001465,-0.000244,0,0,0,0
204.801285,1.656250,-0.046875,0.027344,0.000000,0.000000,0.004908,-0.002136,-0.000977,0.482457,-0.002441,-0.000977,-0.001465,0,0,0,0
204.811066,1.656250,-0.046875,0.027344,0.000000,0.000000,0.004915,-0.002136,-0.000977,0.482457,-0.001221,-0.000488,0.001709,0,0,0,0
204.820831,1.656250,-0.046875,0.027344,0.000000,0.000000,0.005268,-0.002136,-0.000977,0.482457,-0.000732,-0.000977,-0.000244,0,0,0,0
204.830597,1.656250,-0.046875,0.027344,0.000000,0.000000,0.005260,-0.002136,-0.000977,0.482457,-0.000244,-0.002441,0.001709,0,0,0,0
204.840363,1.656250,-0.046875,0.027344,0.000000,0.000000,0.003992,-0.002136,-0.000977,0.482457,0.000732,0.000977,0.001221,0,0,0,0
204.850128,1.656250,-0.046875,0.027344,0.000000,0.000000,0.004181,-0.002136,-0.000977,0.482457,-0.000244,-0.001465,0.001221,0,0,0,0
204.859894,1.656250,-0.046875,0.027344,0.000000,0.000000,0.004343,-0.002136,-0.000977,0.482457,0.001465,-0.000488,0.000732,0,0,0,0
204.869659,1.656250,-0.046875,0.027344,0.000000,0.000000,0.004656,-0.002136,-0.000977,0.482457,-0.004395,0.001465,-0.000244,0,0,0,0
204.879425,1.656250,-0.046875,0.027344,0.000000,0.000000,0.004978,-0.002136,-0.000977,0.482457,-0.000732,-0.000488,0.001709,0,0,0,0
204.889191,1.656250,-0.046875,0.027344,0.000000,0.000000,0.005054,-0.002136,-0.000977,0.482457,-0.001221,0.000488,0.001221,0,0,0,0
204.898956,1.656250,-0.046875,0.027344,0.000000,0.000000,0.005056,-0.002136,-0.000977,0.482457,0.000732,-0.001465,0.001221,0,0,0,0
204.908722,1.656250,-0.046875,0.027344,0.000000,0.000000,0.004862,-0.002136,-0.000977,0.482457,-0.000244,0.000488,-0.000732,0,0,0,0
204.918488,1.656250,-0.046875,0.027344,0.000000,0.000000,0.004473,-0.002136,-0.000977,0.482457,0.001953,0.003174,-0.001465,0,0,0,0
204.928253,1.656250,-0.046875,0.027344,0.000000,0.000000,0.004646,-0.002136,-0.000977,0.482457,0.001465,-0.000977,0.000244,0,0,0,0
204.938019,1.656250,-0.046875,0.027344,0.000000,0.000000,0.004934,-0.002136,-0.000977,0.482457,0.001953,0.000000,0.001709,0,0,0,0
204.947784,1.656250,-0.046875,0.027344,0.000000,0.000000,0.005171,-0.002136,-0.000977,0.482457,-0.000244,-0.000488,-0.000732,0,0,0,0
204.957550,1.656250,-0.046875,0.027344,0.000000,0.000000,0.004930,-0.001953,-0.000977,0.482422,-0.001709,0.002197,-0.000244,0,0,0,0
204.967316,1.656250,-0.046875,0.027344,0.000000,0.000000,0.005274,-0.002136,-0.000977,0.482457,-0.001221,-0.001465,0.000732,0,0,0,0
204.977081,1.656250,-0.046875,0.027344,0.000000,0.000000,0.005085,-0.002136,-0.000977,0.482457,-0.003906,-0.000488,-0.001465,0,0,0,0
204.986862,1.656250,-0.046875,0.027344,0.000000,0.000000,0.005512,-0.002197,-0.000916,0.482457,0.001465,0.004150,0.000732,0,0,0,0
204.996613,1.656250,-0.046875,0.027344,0.000000,0.000000,0.004669,-0.002197,-0.000916,0.482457,-0.000732,0.001465,-0.002930,0,0,0,0
205.006378,1.656250,-0.046875,0.027344,0.000000,0.000000,0.004944,-0.002197,-0.000916,0.482457,-0.001709,0.001465,0.000244,0,0,0,0
205.016144,1.656250,-0.046875,0.027344,0.000000,0.000000,0.004715,-0.002197,-0.000916,0.482457,-0.000244,0.000488,-0.000732,0,0,0,0
205.025909,1.656250,-0.046875,0.027344,0.000000,0.000000,0.004370,-0.002197,-0.000916,0.482457,-0.001221,-0.001953,-0.001465,0,0,0,0
205.035675,1.656250,-0.046875,0.027344,0.000000,0.000000,0.004021,-0.002197,-0.000916,0.482457,-0.000244,-0.000977,0.001221,0,0,0,0
205.045441,1.656250,-0.046875,0.027344,0.000000,0.000000,0.004053,-0.002197,-0.000916,0.482457,-0.006592,0.001465,0.000244,0,0,0,0
205.055206,1.656250,-0.046875,0.027344,0.000000,0.000000,0.004023,-0.002197,-0.000916,0.482457,-0.000244,-0.000488,-0.001465,0,0,0,0
205.064972,1.656250,-0.046875,0.027344,0.000000,0.000000,0.004288,-0.002197,-0.000916,0.482457,-0.001221,0.000488,0.002441,0,0,0,0
205.074738,1.656250,-0.046875,0.027344,0.000000,0.000000,0.003435,-0.002197,-0.000916,0.482457,0.001465,-0.002441,0.000244,0,0,0,0
