time,pos_x,pos_y,pos_z,vel_x,vel_y,vel_z,att_phi,att_theta,att_psi,rate_p,rate_q,rate_r,cmd_thrust,cmd_roll,cmd_pitch,cmd_yaw
15.016490,-0.012769,-0.000343,-0.034797,-0.005645,-0.000030,0.037326,0.000000,0.000732,0.000244,-0.000170,0.234080,-0.000077,0,0,0,0
15.026260,-0.012778,-0.000343,-0.034797,-0.005645,-0.000030,0.037326,0.000000,0.000732,0.000244,-0.000170,0.234080,-0.000077,0,0,0,0
15.036030,-0.012786,-0.000344,-0.034797,-0.005645,-0.000030,0.037326,0.000000,0.000732,0.000244,-0.000170,0.234080,-0.000077,0,0,0,0
15.045800,-0.012794,-0.000344,-0.034797,-0.005645,-0.000030,0.037326,0.000000,0.000732,0.000244,-0.000170,0.234080,-0.000077,0,0,0,0
15.055570,-0.012803,-0.000344,-0.034797,-0.005645,-0.000030,0.037326,0.000000,0.000732,0.000244,-0.000170,0.234080,-0.000077,0,0,0,0
15.065340,-0.012811,-0.000344,-0.034797,-0.005645,-0.000030,0.037326,0.000000,0.000732,0.000244,-0.000170,0.234080,-0.000077,0,0,0,0
15.075110,-0.012819,-0.000345,-0.034797,-0.005645,-0.000030,0.037326,0.000000,0.000732,0.000244,-0.000170,0.234080,-0.000077,0,0,0,0
15.084880,-0.012828,-0.000345,-0.034797,-0.005645,-0.000030,0.037326,0.000000,0.000732,0.000244,-0.000170,0.234080,-0.000077,0,0,0,0
15.094650,-0.012836,-0.000345,-0.034797,-0.005645,-0.000030,0.037326,0.000000,0.000732,0.000244,-0.000170,0.234080,-0.000077,0,0,0,0
15.104420,-0.012845,-0.000345,-0.034797,-0.005645,-0.000030,0.037326,0.000000,0.000732,0.000244,-0.000170,0.234080,-0.000077,0,0,0,0
15.114190,-0.012853,-0.000345,-0.034797,-0.005645,-0.000030,0.037326,0.000000,0.000732,0.000244,-0.000170,0.234080,-0.000077,0,0,0,0
15.123960,-0.012861,-0.000346,-0.034797,-0.005645,-0.000030,0.037326,0.000000,0.000732,0.000244,-0.000170,0.234080,-0.000077,0,0,0,0
15.133730,-0.012870,-0.000346,-0.034797,-0.005645,-0.000030,0.037326,0.000000,0.000732,0.000244,-0.000170,0.234080,-0.000077,0,0,0,0
15.143500,-0.012878,-0.000346,-0.034797,-0.005645,-0.000030,0.037326,0.000000,0.000732,0.000244,-0.000170,0.234080,-0.000077,0,0,0,0
15.153270,-0.012886,-0.000346,-0.034797,-0.005645,-0.000030,0.037326,0.000000,0.000732,0.000244,-0.000170,0.234080,-0.000077,0,0,0,0
15.163040,-0.012895,-0.000347,-0.034797,-0.005645,-0.000030,0.037326,0.000000,0.000732,0.000244,-0.000170,0.234080,-0.000077,0,0,0,0
15.172810,-0.012903,-0.000347,-0.034797,-0.005645,-0.000030,0.037326,0.000000,0.000732,0.000244,-0.000170,0.234080,-0.000077,0,0,0,0
15.182580,-0.012912,-0.000347,-0.034797,-0.005645,-0.000030,0.037326,0.000000,0.000732,0.000244,-0.000170,0.234080,-0.000077,0,0,0,0
15.192350,-0.012920,-0.000347,-0.034797,-0.005645,-0.000030,0.037326,0.000000,0.000732,0.000244,-0.000170,0.234080,-0.000077,0,0,0,0
15.202120,-0.012928,-0.000347,-0.034797,-0.005645,-0.000030,0.037326,0.000000,0.000732,0.000244,-0.000170,0.234080,-0.000077,0,0,0,0
15.211890,-0.012937,-0.000348,-0.034797,-0.005645,-0.000030,0.037326,0.000000,0.000732,0.000244,-0.000170,0.234080,-0.000077,0,0,0,0
15.221660,-0.012945,-0.000348,-0.034797,-0.005645,-0.000030,0.037326,0.000000,0.000732,0.000244,-0.000170,0.234080,-0.000077,0,0,0,0
15.231430,-0.012953,-0.000348,-0.034797,-0.005645,-0.000030,0.037326,0.000000,0.000732,0.000244,-0.000170,0.234080,-0.000077,0,0,0,0
15.241200,-0.012962,-0.000348,-0.034797,-0.005645,-0.000030,0.037326,0.000000,0.000732,0.000244,-0.000170,0.234080,-0.000077,0,0,0,0
15.250970,-0.012970,-0.000349,-0.034797,-0.005645,-0.000030,0.037326,0.000000,0.000732,0.000244,-0.000170,0.234080,-0.000077,0,0,0,0
15.260740,-0.012979,-0.000349,-0.034797,-0.005645,-0.000030,0.037326,0.000000,0.000732,0.000244,-0.000170,0.234080,-0.000077,0,0,0,0
15.270510,-0.012987,-0.000349,-0.034797,-0.005645,-0.000030,0.037326,0.000000,0.000732,0.000244,-0.000170,0.234080,-0.000077,0,0,0,0
15.280280,-0.012995,-0.000349,-0.034797,-0.005645,-0.000030,0.037326,0.000000,0.000732,0.000244,-0.000170,0.234080,-0.000077,0,0,0,0
15.290050,-0.013004,-0.000350,-0.034797,-0.005645,-0.000030,0.037326,0.000000,0.000732,0.000244,-0.000170,0.234080,-0.000077,0,0,0,0
15.299820,-0.013012,-0.000350,-0.034797,-0.005645,-0.000030,0.037326,0.000000,0.000732,0.000244,-0.000170,0.234080,-0.000077,0,0,0,0
15.309590,-0.013020,-0.000350,-0.034797,-0.005645,-0.000030,0.037326,0.000000,0.000732,0.000244,-0.000170,0.234080,-0.000077,0,0,0,0
15.319360,-0.013029,-0.000350,-0.034797,-0.005645,-0.000030,0.037326,0.000000,0.000732,0.000244,-0.000170,0.234080,-0.000077,0,0,0,0
15.329130,-0.013037,-0.000350,-0.034797,-0.005645,-0.000030,0.037326,0.000000,0.000732,0.000244,-0.000170,0.234080,-0.000077,0,0,0,0
15.338900,-0.013046,-0.000351,-0.034797,-0.005645,-0.000030,0.037326,0.000000,0.000732,0.000244,-0.000170,0.234080,-0.000077,0,0,0,0
15.348670,-0.013054,-0.000351,-0.034797,-0.005645,-0.000030,0.037326,0.000000,0.000732,0.000244,-0.000170,0.234080,-0.000077,0,0,0,0
15.358440,-0.013062,-0.000351,-0.034797,-0.005645,-0.000030,0.037326,0.000000,0.000732,0.000244,-0.000170,0.234080,-0.000077,0,0,0,0
15.368210,-0.013071,-0.000351,-0.034797,-0.005645,-0.000030,0.037326,0.000000,0.000732,0.000244,-0.000170,0.234080,-0.000077,0,0,0,0
15.377980,-0.013079,-0.000352,-0.034797,-0.005645,-0.000030,0.037326,0.000000,0.000732,0.000244,-0.000170,0.234080,-0.000077,0,0,0,0
15.387750,-0.013087,-0.000352,-0.034797,-0.005645,-0.000030,0.037326,0.000000,0.000732,0.000244,-0.000170,0.234080,-0.000077,0,0,0,0
15.397520,-0.013096,-0.000352,-0.034797,-0.005645,-0.000030,0.037326,0.000000,0.000732,0.000244,-0.000170,0.234080,-0.000077,0,0,0,0
15.407290,-0.013104,-0.000352,-0.034797,-0.005645,-0.000030,0.037326,0.000000,0.000732,0.000244,-0.000170,0.234080,-0.000077,0,0,0,0
15.417060,-0.013113,-0.000353,-0.034797,-0.005645,-0.000030,0.037326,0.000000,0.000732,0.000244,-0.000170,0.234080,-0.000077,0,0,0,0
15.426830,-0.013121,-0.000353,-0.034797,-0.005645,-0.000030,0.037326,0.000000,0.000732,0.000244,-0.000170,0.234080,-0.000077,0,0,0,0
15.436600,-0.013129,-0.000353,-0.034797,-0.005645,-0.000030,0.037326,0.000000,0.000732,0.000244,-0.000170,0.234080,-0.000077,0,0,0,0
15.446370,-0.013138,-0.000353,-0.034797,-0.005645,-0.000030,0.037326,0.000000,0.000732,0.000244,-0.000170,0.234080,-0.000077,0,0,0,0
15.456140,-0.013146,-0.000353,-0.034797,-0.005645,-0.000030,0.037326,0.000000,0.000732,0.000244,-0.000170,0.234080,-0.000077,0,0,0,0
15.465910,-0.013154,-0.000354,-0.034797,-0.005645,-0.000030,0.037326,0.000000,0.000732,0.000244,-0.000170,0.234080,-0.000077,0,0,0,0
15.475680,-0.013163,-0.000354,-0.034797,-0.005645,-0.000030,0.037326,0.000000,0.000732,0.000244,-0.000170,0.234080,-0.000077,0,0,0,0
15.485450,-0.013171,-0.000354,-0.034797,-0.005645,-0.000030,0.037326,0.000000,0.000732,0.000244,-0.000170,0.234080,-0.000077,0,0,0,0
15.495220,-0.013180,-0.000354,-0.034797,-0.005645,-0.000030,0.037326,0.000000,0.000732,0.000244,-0.000170,0.234080,-0.000077,0,0,0,0
15.504990,-0.013188,-0.000355,-0.034797,-0.005645,-0.000030,0.037326,0.000000,0.000732,0.000244,-0.000170,0.234080,-0.000076,0,0,0,0
15.514760,-0.013196,-0.000355,-0.034797,-0.005645,-0.000030,0.037326,0.000000,0.000732,0.000244,-0.000170,0.234080,-0.000076,0,0,0,0
15.524530,-0.013205,-0.000355,-0.034797,-0.005645,-0.000030,0.037326,0.000000,0.000732,0.000244,-0.000170,0.234080,-0.000076,0,0,0,0
15.534300,-0.013213,-0.000355,-0.034797,-0.005645,-0.000030,0.037326,0.000000,0.000732,0.000244,-0.000170,0.234080,-0.000076,0,0,0,0
15.544070,-0.013221,-0.000355,-0.034797,-0.005645,-0.000030,0.037326,0.000000,0.000732,0.000244,-0.000170,0.234080,-0.000076,0,0,0,0
15.553840,-0.013230,-0.000356,-0.034797,-0.005645,-0.000030,0.037326,0.000000,0.000732,0.000244,-0.000170,0.234080,-0.000076,0,0,0,0
15.563610,-0.013238,-0.000356,-0.034797,-0.005645,-0.000030,0.037326,0.000000,0.000732,0.000244,-0.000170,0.234080,-0.000076,0,0,0,0
15.573380,-0.013247,-0.000356,-0.034797,-0.005645,-0.000030,0.037326,0.000000,0.000732,0.000244,-0.000170,0.234080,-0.000076,0,0,0,0
15.583150,-0.013255,-0.000356,-0.034797,-0.005645,-0.000030,0.037326,0.000000,0.000732,0.000244,-0.000170,0.234080,-0.000076,0,0,0,0
15.592920,-0.013263,-0.000357,-0.034797,-0.005645,-0.000030,0.037326,0.000000,0.000732,0.000244,-0.000170,0.234080,-0.000076,0,0,0,0
15.602690,-0.013272,-0.000357,-0.034797,-0.005645,-0.000030,0.037326,0.000000,0.000732,0.000244,-0.000170,0.234080,-0.000076,0,0,0,0
15.612460,-0.013280,-0.000357,-0.034797,-0.005645,-0.000030,0.037326,0.000000,0.000732,0.000244,-0.000170,0.234080,-0.000076,0,0,0,0
15.622230,-0.013288,-0.000357,-0.034797,-0.005645,-0.000030,0.037326,0.000000,0.000732,0.000244,-0.000170,0.234080,-0.000076,0,0,0,0
15.632000,-0.013297,-0.000358,-0.034797,-0.005645,-0.000030,0.037326,0.000000,0.000732,0.000244,-0.000170,0.234080,-0.000076,0,0,0,0
15.641770,-0.013305,-0.000358,-0.034797,-0.005645,-0.000030,0.037326,0.000000,0.000732,0.000244,-0.000170,0.234080,-0.000076,0,0,0,0
15.651540,-0.013314,-0.000358,-0.034797,-0.005645,-0.000030,0.037326,0.000000,0.000732,0.000244,-0.000170,0.234080,-0.000076,0,0,0,0
15.661310,-0.013322,-0.000358,-0.034797,-0.005645,-0.000030,0.037326,0.000000,0.000732,0.000244,-0.000170,0.234080,-0.000076,0,0,0,0
15.671080,-0.013330,-0.000358,-0.034797,-0.005645,-0.000030,0.037326,0.000000,0.000732,0.000244,-0.000170,0.234080,-0.000076,0,0,0,0
15.680850,-0.013339,-0.000359,-0.034797,-0.005645,-0.000030,0.037326,0.000000,0.000732,0.000244,-0.000170,0.234080,-0.000076,0,0,0,0
15.690620,-0.013347,-0.000359,-0.034797,-0.005645,-0.000030,0.037326,0.000000,0.000732,0.000244,-0.000170,0.234080,-0.000076,0,0,0,0
15.700390,-0.013355,-0.000359,-0.034797,-0.005645,-0.000030,0.037326,0.000000,0.000732,0.000244,-0.000170,0.234080,-0.000076,0,0,0,0
15.710160,-0.013364,-0.000359,-0.034797,-0.005645,-0.000030,0.037326,0.000000,0.000732,0.000244,-0.000170,0.234080,-0.000076,0,0,0,0
15.719930,-0.013372,-0.000360,-0.034797,-0.005645,-0.000030,0.037326,0.000000,0.000732,0.000244,-0.000170,0.234080,-0.000076,0,0,0,0
15.729700,-0.013381,-0.000360,-0.034797,-0.005645,-0.000030,0.037326,0.000000,0.000732,0.000244,-0.000170,0.234080,-0.000076,0,0,0,0
15.739470,-0.013389,-0.000360,-0.034797,-0.005645,-0.000030,0.037326,0.000000,0.000732,0.000244,-0.000170,0.234080,-0.000076,0,0,0,0
15.749240,-0.013397,-0.000360,-0.034797,-0.005645,-0.000030,0.037326,0.000000,0.000732,0.000244,-0.000170,0.234080,-0.000076,0,0,0,0
15.759010,-0.013406,-0.000361,-0.034797,-0.005645,-0.000030,0.037326,0.000000,0.000732,0.000244,-0.000170,0.234080,-0.000076,0,0,0,0
15.768780,-0.013414,-0.000361,-0.034797,-0.005645,-0.000030,0.037326,0.000000,0.000732,0.000244,-0.000170,0.234080,-0.000076,0,0,0,0
15.778550,-0.013422,-0.000361,-0.034797,-0.005645,-0.000030,0.037326,0.000000,0.000732,0.000244,-0.000170,0.234080,-0.000076,0,0,0,0
15.788320,-0.013431,-0.000361,-0.034797,-0.005645,-0.000030,0.037326,0.000000,0.000732,0.000244,-0.000170,0.234080,-0.000076,0,0,0,0
15.798090,-0.013439,-0.000361,-0.034797,-0.005645,-0.000030,0.037326,0.000000,0.000732,0.000244,-0.000170,0.234080,-0.000076,0,0,0,0
15.807860,-0.013448,-0.000362,-0.034797,-0.005645,-0.000030,0.037326,0.000000,0.000732,0.000244,-0.000170,0.234080,-0.000076,0,0,0,0
15.817630,-0.013456,-0.000362,-0.034797,-0.005645,-0.000030,0.037326,0.000000,0.000732,0.000244,-0.000170,0.234080,-0.000076,0,0,0,0
15.827400,-0.013464,-0.000362,-0.034797,-0.005645,-0.000030,0.037326,0.000000,0.000732,0.000244,-0.000170,0.234080,-0.000076,0,0,0,0
15.837170,-0.013473,-0.000362,-0.034797,-0.005645,-0.000030,0.037326,0.000000,0.000732,0.000244,-0.000170,0.234080,-0.000076,0,0,0,0
15.846940,-0.013481,-0.000363,-0.034797,-0.005645,-0.000030,0.037326,0.000000,0.000732,0.000244,-0.000170,0.234080,-0.000076,0,0,0,0
15.856710,-0.013489,-0.000363,-0.034797,-0.005645,-0.000030,0.037326,0.000000,0.000732,0.000244,-0.000170,0.234080,-0.000076,0,0,0,0
15.866480,-0.013498,-0.000363,-0.034797,-0.005645,-0.000030,0.037326,0.000000,0.000732,0.000244,-0.000170,0.234080,-0.000076,0,0,0,0
15.876250,-0.013506,-0.000363,-0.034797,-0.005645,-0.000030,0.037326,0.000000,0.000732,0.000244,-0.000170,0.234080,-0.000076,0,0,0,0
15.886020,-0.013515,-0.000363,-0.034797,-0.005645,-0.000030,0.037326,0.000000,0.000732,0.000244,-0.000170,0.234080,-0.000076,0,0,0,0
15.895790,-0.013523,-0.000364,-0.034797,-0.005645,-0.000030,0.037326,0.000000,0.000732,0.000244,-0.000170,0.234080,-0.000076,0,0,0,0
15.905560,-0.013531,-0.000364,-0.034797,-0.005645,-0.000030,0.037326,0.000000,0.000732,0.000244,-0.000170,0.234080,-0.000076,0,0,0,0
15.915330,-0.013540,-0.000364,-0.034797,-0.005645,-0.000030,0.037326,0.000000,0.000732,0.000244,-0.000170,0.234080,-0.000076,0,0,0,0
15.925100,-0.013548,-0.000364,-0.034797,-0.005645,-0.000030,0.037326,0.000000,0.000732,0.000244,-0.000170,0.234080,-0.000076,0,0,0,0
15.934870,-0.013556,-0.000365,-0.034797,-0.005645,-0.000030,0.037326,0.000000,0.000732,0.000244,-0.000170,0.234080,-0.000076,0,0,0,0
15.944640,-0.013565,-0.000365,-0.034797,-0.005645,-0.000030,0.037326,0.000000,0.000732,0.000244,-0.000170,0.234080,-0.000076,0,0,0,0
15.954410,-0.013573,-0.000365,-0.034797,-0.005645,-0.000030,0.037326,0.000000,0.000732,0.000244,-0.000170,0.234080,-0.000076,0,0,0,0
15.964180,-0.013581,-0.000365,-0.034797,-0.005645,-0.000030,0.037326,0.000000,0.000732,0.000244,-0.000170,0.234080,-0.000076,0,0,0,0
15.973950,-0.013590,-0.000366,-0.034797,-0.005645,-0.000030,0.037326,0.000000,0.000732,0.000244,-0.000170,0.234080,-0.000076,0,0,0,0
15.983720,-0.013598,-0.000366,-0.034797,-0.005645,-0.000030,0.037326,0.000000,0.000732,0.000244,-0.000170,0.234080,-0.000076,0,0,0,0
15.993490,-0.013607,-0.000366,-0.034797,-0.005645,-0.000030,0.037326,0.000000,0.000732,0.000244,-0.000170,0.234080,-0.000076,0,0,0,0
16.003260,-0.013615,-0.000366,-0.034797,-0.005645,-0.000030,0.037326,0.000000,0.000732,0.000244,-0.000170,0.234080,-0.000076,0,0,0,0
16.013029,-0.013623,-0.000366,-0.034797,-0.005645,-0.000030,0.037326,0.000000,0.000732,0.000244,-0.000170,0.234080,-0.000076,0,0,0,0
16.022800,-0.013632,-0.000367,-0.034797,-0.005645,-0.000030,0.037326,0.000000,0.000732,0.000244,-0.000170,0.234080,-0.000076,0,0,0,0
16.032570,-0.013640,-0.000367,-0.034797,-0.005645,-0.000030,0.037326,0.000000,0.000732,0.000244,-0.000170,0.234080,-0.000076,0,0,0,0
16.042339,-0.013648,-0.000367,-0.034797,-0.005645,-0.000030,0.037326,0.000000,0.000732,0.000244,-0.000170,0.234080,-0.000076,0,0,0,0
16.052111,-0.013657,-0.000367,-0.034797,-0.005645,-0.000030,0.037326,0.000000,0.000732,0.000244,-0.000170,0.234080,-0.000076,0,0,0,0
16.061880,-0.013665,-0.000368,-0.034797,-0.005645,-0.000030,0.037326,0.000000,0.000732,0.000244,-0.000170,0.234080,-0.000076,0,0,0,0
16.071650,-0.013674,-0.000368,-0.034797,-0.005645,-0.000030,0.037326,0.000000,0.000732,0.000244,-0.000170,0.234080,-0.000076,0,0,0,0
16.081421,-0.013682,-0.000368,-0.034797,-0.005645,-0.000030,0.037326,0.000000,0.000732,0.000244,-0.000170,0.234080,-0.000076,0,0,0,0
16.091190,-0.013690,-0.000368,-0.034797,-0.005645,-0.000030,0.037326,0.000000,0.000732,0.000244,-0.000170,0.234080,-0.000076,0,0,0,0
16.100960,-0.013699,-0.000369,-0.034797,-0.005645,-0.000030,0.037326,0.000000,0.000732,0.000244,-0.000170,0.234080,-0.000076,0,0,0,0
16.110729,-0.013707,-0.000369,-0.034797,-0.005645,-0.000030,0.037326,0.000000,0.000732,0.000244,-0.000170,0.234080,-0.000076,0,0,0,0
16.120501,-0.013715,-0.000369,-0.034797,-0.005645,-0.000030,0.037326,0.000000,0.000732,0.000244,-0.000170,0.234080,-0.000076,0,0,0,0
16.130270,-0.013724,-0.000369,-0.034797,-0.005645,-0.000030,0.037326,0.000000,0.000732,0.000244,-0.000170,0.234080,-0.000076,0,0,0,0
16.140039,-0.013732,-0.000369,-0.034797,-0.005645,-0.000030,0.037326,0.000000,0.000732,0.000244,-0.000170,0.234080,-0.000076,0,0,0,0
16.149811,-0.013741,-0.000370,-0.034797,-0.005645,-0.000030,0.037326,0.000000,0.000732,0.000244,-0.000170,0.234080,-0.000076,0,0,0,0
16.159580,-0.013749,-0.000370,-0.034797,-0.005645,-0.000030,0.037326,0.000000,0.000732,0.000244,-0.000170,0.234080,-0.000076,0,0,0,0
16.169350,-0.013757,-0.000370,-0.034797,-0.005645,-0.000030,0.037326,0.000000,0.000732,0.000244,-0.000170,0.234080,-0.000076,0,0,0,0
16.179119,-0.013766,-0.000370,-0.034797,-0.005645,-0.000030,0.037326,0.000000,0.000732,0.000244,-0.000170,0.234080,-0.000076,0,0,0,0
16.188890,-0.013774,-0.000371,-0.034797,-0.005645,-0.000030,0.037326,0.000000,0.000732,0.000244,-0.000170,0.234080,-0.000076,0,0,0,0
16.198660,-0.013782,-0.000371,-0.034797,-0.005645,-0.000030,0.037326,0.000000,0.000732,0.000244,-0.000170,0.234080,-0.000076,0,0,0,0
16.208429,-0.013791,-0.000371,-0.034797,-0.005645,-0.000030,0.037326,0.000000,0.000732,0.000244,-0.000170,0.234080,-0.000076,0,0,0,0
16.218201,-0.013799,-0.000371,-0.034797,-0.005645,-0.000030,0.037326,0.000000,0.000732,0.000244,-0.000170,0.234080,-0.000076,0,0,0,0
16.227970,-0.013808,-0.000371,-0.034797,-0.005645,-0.000030,0.037326,0.000000,0.000732,0.000244,-0.000170,0.234080,-0.000076,0,0,0,0
16.237740,-0.013816,-0.000372,-0.034797,-0.005645,-0.000030,0.037326,0.000000,0.000732,0.000244,-0.000170,0.234080,-0.000076,0,0,0,0
16.247511,-0.013824,-0.000372,-0.034797,-0.005645,-0.000030,0.037326,0.000000,0.000732,0.000244,-0.000170,0.234080,-0.000076,0,0,0,0
16.257280,-0.013833,-0.000372,-0.034797,-0.005645,-0.000030,0.037326,0.000000,0.000732,0.000244,-0.000171,0.234080,-0.000076,0,0,0,0
16.267050,-0.013841,-0.000372,-0.034797,-0.005645,-0.000030,0.037326,0.000000,0.000732,0.000244,-0.000171,0.234080,-0.000076,0,0,0,0
16.276819,-0.013849,-0.000373,-0.034797,-0.005645,-0.000030,0.037326,0.000000,0.000732,0.000244,-0.000171,0.234080,-0.000076,0,0,0,0
16.286591,-0.013858,-0.000373,-0.034797,-0.005645,-0.000030,0.037326,0.000000,0.000732,0.000244,-0.000171,0.234080,-0.000076,0,0,0,0
16.296360,-0.013866,-0.000373,-0.034797,-0.005645,-0.000030,0.037326,0.000000,0.000732,0.000244,-0.000171,0.234080,-0.000076,0,0,0,0
16.306129,-0.013875,-0.000373,-0.034797,-0.005645,-0.000030,0.037326,0.000000,0.000732,0.000244,-0.000171,0.234080,-0.000076,0,0,0,0
16.315901,-0.013883,-0.000374,-0.034797,-0.005645,-0.000030,0.037326,0.000000,0.000732,0.000244,-0.000171,0.234080,-0.000076,0,0,0,0
16.325670,-0.013891,-0.000374,-0.034797,-0.005645,-0.000030,0.037326,0.000000,0.000732,0.000244,-0.000171,0.234080,-0.000076,0,0,0,0
16.335440,-0.013900,-0.000374,-0.034797,-0.005645,-0.000030,0.037326,0.000000,0.000732,0.000244,-0.000171,0.234080,-0.000076,0,0,0,0
16.345209,-0.013908,-0.000374,-0.034797,-0.005645,-0.000030,0.037326,0.000000,0.000732,0.000244,-0.000171,0.234080,-0.000076,0,0,0,0
16.354980,-0.013916,-0.000374,-0.034797,-0.005645,-0.000030,0.037326,0.000000,0.000732,0.000244,-0.000171,0.234080,-0.000076,0,0,0,0
16.364750,-0.013925,-0.000375,-0.034797,-0.005645,-0.000030,0.037326,0.000000,0.000732,0.000244,-0.000171,0.234080,-0.000076,0,0,0,0
16.374519,-0.013933,-0.000375,-0.034797,-0.005645,-0.000030,0.037326,0.000000,0.000732,0.000244,-0.000171,0.234080,-0.000076,0,0,0,0
16.384291,-0.013942,-0.000375,-0.034797,-0.005645,-0.000030,0.037326,0.000000,0.000732,0.000244,-0.000171,0.234080,-0.000076,0,0,0,0
16.394060,-0.013950,-0.000375,-0.034797,-0.005645,-0.000030,0.037326,0.000000,0.000732,0.000244,-0.000171,0.234080,-0.000076,0,0,0,0
16.403830,-0.013958,-0.000376,-0.034797,-0.005645,-0.000030,0.037326,0.000000,0.000732,0.000244,-0.000171,0.234080,-0.000076,0,0,0,0
16.413601,-0.013967,-0.000376,-0.034797,-0.005645,-0.000030,0.037326,0.000000,0.000732,0.000244,-0.000171,0.234080,-0.000076,0,0,0,0
16.423370,-0.013975,-0.000376,-0.034797,-0.005645,-0.000030,0.037326,0.000000,0.000732,0.000244,-0.000171,0.234080,-0.000076,0,0,0,0
16.433140,-0.013983,-0.000376,-0.034797,-0.005645,-0.000030,0.037326,0.000000,0.000732,0.000244,-0.000171,0.234080,-0.000076,0,0,0,0
16.442909,-0.013992,-0.000377,-0.034797,-0.005645,-0.000030,0.037326,0.000000,0.000732,0.000244,-0.000171,0.234080,-0.000076,0,0,0,0
16.452681,-0.014000,-0.000377,-0.034797,-0.005645,-0.000030,0.037326,0.000000,0.000732,0.000244,-0.000171,0.234080,-0.000076,0,0,0,0
16.462450,-0.014009,-0.000377,-0.034797,-0.005645,-0.000030,0.037326,0.000000,0.000732,0.000244,-0.000171,0.234080,-0.000076,0,0,0,0
16.472219,-0.014017,-0.000377,-0.034797,-0.005645,-0.000030,0.037326,0.000000,0.000732,0.000244,-0.000171,0.234080,-0.000076,0,0,0,0
16.481991,-0.014025,-0.000377,-0.034797,-0.005645,-0.000030,0.037326,0.000000,0.000732,0.000244,-0.000171,0.234080,-0.000076,0,0,0,0
16.491760,-0.014034,-0.000378,-0.034797,-0.005645,-0.000030,0.037326,0.000000,0.000732,0.000244,-0.000171,0.234080,-0.000076,0,0,0,0
16.501530,-0.014042,-0.000378,-0.034797,-0.005645,-0.000030,0.037326,0.000000,0.000732,0.000244,-0.000171,0.234080,-0.000076,0,0,0,0
16.511299,-0.014050,-0.000378,-0.034797,-0.005645,-0.000030,0.037326,0.000000,0.000732,0.000244,-0.000171,0.234080,-0.000076,0,0,0,0
16.521070,-0.014059,-0.000378,-0.034797,-0.005645,-0.000030,0.037326,0.000000,0.000732,0.000244,-0.000171,0.234080,-0.000076,0,0,0,0
16.530840,-0.014067,-0.000379,-0.034797,-0.005645,-0.000030,0.037326,0.000000,0.000732,0.000244,-0.000171,0.234080,-0.000076,0,0,0,0
16.540609,-0.014076,-0.000379,-0.034797,-0.005645,-0.000030,0.037326,0.000000,0.000732,0.000244,-0.000171,0.234080,-0.000076,0,0,0,0
16.550381,-0.014084,-0.000379,-0.034797,-0.005645,-0.000030,0.037326,0.000000,0.000732,0.000244,-0.000171,0.234080,-0.000076,0,0,0,0
16.560150,-0.014092,-0.000379,-0.034797,-0.005645,-0.000030,0.037326,0.000000,0.000732,0.000244,-0.000171,0.234080,-0.000076,0,0,0,0
16.569920,-0.014101,-0.000379,-0.034797,-0.005645,-0.000030,0.037326,0.000000,0.000732,0.000244,-0.000171,0.234080,-0.000076,0,0,0,0
16.579689,-0.014109,-0.000380,-0.034797,-0.005645,-0.000030,0.037326,0.000000,0.000732,0.000244,-0.000171,0.234080,-0.000076,0,0,0,0
16.589460,-0.014117,-0.000380,-0.034797,-0.005645,-0.000030,0.037326,0.000000,0.000732,0.000244,-0.000171,0.234080,-0.000076,0,0,0,0
16.599230,-0.014126,-0.000380,-0.034797,-0.005645,-0.000030,0.037326,0.000000,0.000732,0.000244,-0.000171,0.234080,-0.000076,0,0,0,0
16.608999,-0.014134,-0.000380,-0.034797,-0.005645,-0.000030,0.037326,0.000000,0.000732,0.000244,-0.000171,0.234080,-0.000076,0,0,0,0
16.618771,-0.014143,-0.000381,-0.034797,-0.005645,-0.000030,0.037326,0.000000,0.000732,0.000244,-0.000171,0.234080,-0.000076,0,0,0,0
16.628540,-0.014151,-0.000381,-0.034797,-0.005645,-0.000030,0.037326,0.000000,0.000732,0.000244,-0.000171,0.234080,-0.000076,0,0,0,0
16.638309,-0.014159,-0.000381,-0.034797,-0.005645,-0.000030,0.037326,0.000000,0.000732,0.000244,-0.000171,0.234080,-0.000076,0,0,0,0
16.648081,-0.014168,-0.000381,-0.034797,-0.005645,-0.000030,0.037326,0.000000,0.000732,0.000244,-0.000171,0.234080,-0.000076,0,0,0,0
16.657850,-0.014176,-0.000382,-0.034797,-0.005645,-0.000030,0.037326,0.000000,0.000732,0.000244,-0.000171,0.234080,-0.000076,0,0,0,0
16.667620,-0.014184,-0.000382,-0.034797,-0.005645,-0.000030,0.037326,0.000000,0.000732,0.000244,-0.000171,0.234080,-0.000076,0,0,0,0
16.677389,-0.014193,-0.000382,-0.034797,-0.005645,-0.000030,0.037326,0.000000,0.000732,0.000244,-0.000171,0.234080,-0.000076,0,0,0,0
16.687160,-0.014201,-0.000382,-0.034797,-0.005645,-0.000030,0.037326,0.000000,0.000732,0.000244,-0.000171,0.234080,-0.000076,0,0,0,0
16.696930,-0.014210,-0.000382,-0.034797,-0.005645,-0.000030,0.037326,0.000000,0.000732,0.000244,-0.000171,0.234080,-0.000076,0,0,0,0
16.706699,-0.014218,-0.000383,-0.034797,-0.005645,-0.000030,0.037326,0.000000,0.000732,0.000244,-0.000171,0.234080,-0.000076,0,0,0,0
16.716471,-0.014226,-0.000383,-0.034797,-0.005645,-0.000030,0.037326,0.000000,0.000732,0.000244,-0.000171,0.234080,-0.000076,0,0,0,0
16.726240,-0.014235,-0.000383,-0.034797,-0.005645,-0.000030,0.037326,0.000000,0.000732,0.000244,-0.000171,0.234080,-0.000076,0,0,0,0
16.736010,-0.014243,-0.000383,-0.034797,-0.005645,-0.000030,0.037326,0.000000,0.000732,0.000244,-0.000171,0.234080,-0.000076,0,0,0,0
16.745781,-0.014251,-0.000384,-0.034797,-0.005645,-0.000030,0.037326,0.000000,0.000732,0.000244,-0.000171,0.234080,-0.000076,0,0,0,0
16.755550,-0.014260,-0.000384,-0.034797,-0.005645,-0.000030,0.037326,0.000000,0.000732,0.000244,-0.000171,0.234080,-0.000076,0,0,0,0
16.765320,-0.014268,-0.000384,-0.034797,-0.005645,-0.000030,0.037326,0.000000,0.000732,0.000244,-0.000171,0.234080,-0.000076,0,0,0,0
16.775089,-0.014277,-0.000384,-0.034797,-0.005645,-0.000030,0.037326,0.000000,0.000732,0.000244,-0.000171,0.234080,-0.000076,0,0,0,0
16.784861,-0.014285,-0.000385,-0.034797,-0.005645,-0.000030,0.037326,0.000000,0.000732,0.000244,-0.000171,0.234080,-0.000076,0,0,0,0
16.794630,-0.014293,-0.000385,-0.034797,-0.005645,-0.000030,0.037326,0.000000,0.000732,0.000244,-0.000171,0.234080,-0.000076,0,0,0,0
16.804399,-0.014302,-0.000385,-0.034797,-0.005645,-0.000030,0.037326,0.000000,0.000732,0.000244,-0.000171,0.234080,-0.000076,0,0,0,0
16.814171,-0.014310,-0.000385,-0.034797,-0.005645,-0.000030,0.037326,0.000000,0.000732,0.000244,-0.000171,0.234080,-0.000076,0,0,0,0
16.823940,-0.014318,-0.000385,-0.034797,-0.005645,-0.000030,0.037326,0.000000,0.000732,0.000244,-0.000171,0.234080,-0.000076,0,0,0,0
16.833710,-0.014327,-0.000386,-0.034797,-0.005645,-0.000030,0.037326,0.000000,0.000732,0.000244,-0.000171,0.234080,-0.000076,0,0,0,0
16.843479,-0.014335,-0.000386,-0.034797,-0.005645,-0.000030,0.037326,0.000000,0.000732,0.000244,-0.000171,0.234080,-0.000076,0,0,0,0
16.853251,-0.014343,-0.000386,-0.034797,-0.005645,-0.000030,0.037326,0.000000,0.000732,0.000244,-0.000171,0.234080,-0.000076,0,0,0,0
16.863020,-0.014352,-0.000386,-0.034797,-0.005645,-0.000030,0.037326,0.000000,0.000732,0.000244,-0.000171,0.234080,-0.000076,0,0,0,0
16.872789,-0.014360,-0.000387,-0.034797,-0.005645,-0.000030,0.037326,0.000000,0.000732,0.000244,-0.000171,0.234080,-0.000076,0,0,0,0
16.882561,-0.014369,-0.000387,-0.034797,-0.005645,-0.000030,0.037326,0.000000,0.000732,0.000244,-0.000171,0.234080,-0.000076,0,0,0,0
16.892330,-0.014377,-0.000387,-0.034797,-0.005645,-0.000030,0.037326,0.000000,0.000732,0.000244,-0.000171,0.234080,-0.000076,0,0,0,0
16.902100,-0.014385,-0.000387,-0.034797,-0.005645,-0.000030,0.037326,0.000000,0.000732,0.000244,-0.000171,0.234080,-0.000076,0,0,0,0
16.911869,-0.014394,-0.000387,-0.034797,-0.005645,-0.000030,0.037326,0.000000,0.000732,0.000244,-0.000171,0.234080,-0.000076,0,0,0,0
16.921640,-0.014402,-0.000388,-0.034797,-0.005645,-0.000030,0.037326,0.000000,0.000732,0.000244,-0.000171,0.234080,-0.000076,0,0,0,0
16.931410,-0.014410,-0.000388,-0.034797,-0.005645,-0.000030,0.037326,0.000000,0.000732,0.000244,-0.000171,0.234080,-0.000076,0,0,0,0
16.941179,-0.014419,-0.000388,-0.034797,-0.005645,-0.000030,0.037326,0.000000,0.000732,0.000244,-0.000171,0.234080,-0.000076,0,0,0,0
16.950951,-0.014427,-0.000388,-0.034797,-0.005645,-0.000030,0.037326,0.000000,0.000732,0.000244,-0.000171,0.234080,-0.000076,0,0,0,0
16.960720,-0.014436,-0.000389,-0.034797,-0.005645,-0.000030,0.037326,0.000000,0.000732,0.000244,-0.000171,0.234080,-0.000076,0,0,0,0
16.970490,-0.014444,-0.000389,-0.034797,-0.005645,-0.000030,0.037326,0.000000,0.000732,0.000244,-0.000171,0.234080,-0.000076,0,0,0,0
16.980261,-0.014452,-0.000389,-0.034797,-0.005645,-0.000030,0.037326,0.000000,0.000732,0.000244,-0.000171,0.234080,-0.000076,0,0,0,0
16.990030,-0.014461,-0.000389,-0.034797,-0.005645,-0.000030,0.037326,0.000000,0.000732,0.000244,-0.000171,0.234080,-0.000076,0,0,0,0
16.999800,-0.014469,-0.000390,-0.034797,-0.005645,-0.000030,0.037326,0.000000,0.000732,0.000244,-0.000171,0.234080,-0.000076,0,0,0,0
17.009569,-0.014477,-0.000390,-0.034797,-0.005645,-0.000030,0.037326,0.000000,0.000732,0.000244,-0.000171,0.234080,-0.000076,0,0,0,0
17.019341,-0.014486,-0.000390,-0.034797,-0.005645,-0.000030,0.037326,0.000000,0.000732,0.000244,-0.000171,0.234080,-0.000076,0,0,0,0
17.029110,-0.014494,-0.000390,-0.034797,-0.005645,-0.000030,0.037326,0.000000,0.000732,0.000244,-0.000171,0.234080,-0.000076,0,0,0,0
17.038879,-0.014503,-0.000390,-0.034797,-0.005645,-0.000030,0.037326,0.000000,0.000732,0.000244,-0.000171,0.234080,-0.000076,0,0,0,0
17.048651,-0.014511,-0.000391,-0.034797,-0.005645,-0.000030,0.037326,0.000000,0.000732,0.000244,-0.000171,0.234080,-0.000076,0,0,0,0
17.058420,-0.014519,-0.000391,-0.034797,-0.005645,-0.000030,0.037326,0.000000,0.000732,0.000244,-0.000171,0.234080,-0.000076,0,0,0,0
17.068190,-0.014528,-0.000391,-0.034797,-0.005645,-0.000030,0.037326,0.000000,0.000732,0.000244,-0.000171,0.234080,-0.000076,0,0,0,0
17.077959,-0.014536,-0.000391,-0.034797,-0.005645,-0.000030,0.037326,0.000000,0.000732,0.000244,-0.000171,0.234080,-0.000076,0,0,0,0
17.087730,-0.014544,-0.000392,-0.034797,-0.005645,-0.000030,0.037326,0.000000,0.000732,0.000244,-0.000171,0.234080,-0.000076,0,0,0,0
17.097500,-0.014553,-0.000392,-0.034797,-0.005645,-0.000030,0.037326,0.000000,0.000732,0.000244,-0.000171,0.234080,-0.000076,0,0,0,0
17.107269,-0.014561,-0.000392,-0.034797,-0.005645,-0.000030,0.037326,0.000000,0.000732,0.000244,-0.000171,0.234080,-0.000076,0,0,0,0
17.117041,-0.014570,-0.000392,-0.034797,-0.005645,-0.000030,0.037326,0.000000,0.000732,0.000244,-0.000171,0.234080,-0.000076,0,0,0,0
17.126810,-0.014578,-0.000393,-0.034797,-0.005645,-0.000030,0.037326,0.000000,0.000732,0.000244,-0.000171,0.234080,-0.000076,0,0,0,0
17.136580,-0.014586,-0.000393,-0.034797,-0.005645,-0.000030,0.037326,0.000000,0.000732,0.000244,-0.000171,0.234080,-0.000076,0,0,0,0
17.146351,-0.014595,-0.000393,-0.034797,-0.005645,-0.000030,0.037326,0.000000,0.000732,0.000244,-0.000171,0.234080,-0.000076,0,0,0,0
17.156120,-0.014603,-0.000393,-0.034797,-0.005645,-0.000030,0.037326,0.000000,0.000732,0.000244,-0.000171,0.234080,-0.000076,0,0,0,0
17.165890,-0.014611,-0.000393,-0.034797,-0.005645,-0.000030,0.037326,0.000000,0.000732,0.000244,-0.000171,0.234080,-0.000076,0,0,0,0
17.175659,-0.014620,-0.000394,-0.034797,-0.005645,-0.000030,0.037326,0.000000,0.000732,0.000244,-0.000171,0.234080,-0.000076,0,0,0,0
17.185431,-0.014628,-0.000394,-0.034797,-0.005645,-0.000030,0.037326,0.000000,0.000732,0.000244,-0.000171,0.234080,-0.000076,0,0,0,0
17.195200,-0.014637,-0.000394,-0.034797,-0.005645,-0.000030,0.037326,0.000000,0.000732,0.000244,-0.000171,0.234080,-0.000076,0,0,0,0
17.204969,-0.014645,-0.000394,-0.034797,-0.005645,-0.000030,0.037326,0.000000,0.000732,0.000244,-0.000171,0.234080,-0.000076,0,0,0,0
17.214741,-0.014653,-0.000395,-0.034797,-0.005645,-0.000030,0.037326,0.000000,0.000732,0.000244,-0.000171,0.234080,-0.000076,0,0,0,0
17.224510,-0.014662,-0.000395,-0.034797,-0.005645,-0.000030,0.037326,0.000000,0.000732,0.000244,-0.000171,0.234080,-0.000076,0,0,0,0
17.234280,-0.014670,-0.000395,-0.034797,-0.005645,-0.000030,0.037326,0.000000,0.000732,0.000244,-0.000171,0.234080,-0.000076,0,0,0,0
17.244049,-0.014678,-0.000395,-0.034797,-0.005645,-0.000030,0.037326,0.000000,0.000732,0.000244,-0.000171,0.234080,-0.000076,0,0,0,0
17.253820,-0.014687,-0.000395,-0.034797,-0.005645,-0.000030,0.037326,0.000000,0.000732,0.000244,-0.000171,0.234080,-0.000076,0,0,0,0
17.263590,-0.014695,-0.000396,-0.034797,-0.005645,-0.000030,0.037326,0.000000,0.000732,0.000244,-0.000171,0.234080,-0.000076,0,0,0,0
17.273359,-0.014704,-0.000396,-0.034797,-0.005645,-0.000030,0.037326,0.000000,0.000732,0.000244,-0.000171,0.234080,-0.000076,0,0,0,0
17.283131,-0.014712,-0.000396,-0.034797,-0.005645,-0.000030,0.037326,0.000000,0.000732,0.000244,-0.000171,0.234080,-0.000076,0,0,0,0
17.292900,-0.014720,-0.000396,-0.034797,-0.005645,-0.000030,0.037326,0.000000,0.000732,0.000244,-0.000171,0.234080,-0.000076,0,0,0,0
17.302670,-0.014729,-0.000397,-0.034797,-0.005645,-0.000030,0.037326,0.000000,0.000732,0.000244,-0.000171,0.234080,-0.000076,0,0,0,0
17.312441,-0.014737,-0.000397,-0.034797,-0.005645,-0.000030,0.037326,0.000000,0.000732,0.000244,-0.000171,0.234080,-0.000076,0,0,0,0
17.322210,-0.014745,-0.000397,-0.034797,-0.005645,-0.000030,0.037326,0.000000,0.000732,0.000244,-0.000171,0.234080,-0.000076,0,0,0,0
17.331980,-0.014754,-0.000397,-0.034797,-0.005645,-0.000030,0.037326,0.000000,0.000732,0.000244,-0.000171,0.234080,-0.000076,0,0,0,0
17.341749,-0.014762,-0.000398,-0.034797,-0.005645,-0.000030,0.037326,0.000000,0.000732,0.000244,-0.000171,0.234080,-0.000076,0,0,0,0
17.351521,-0.014771,-0.000398,-0.034797,-0.005645,-0.000030,0.037326,0.000000,0.000732,0.000244,-0.000171,0.234080,-0.000076,0,0,0,0
17.361290,-0.014779,-0.000398,-0.034797,-0.005645,-0.000030,0.037326,0.000000,0.000732,0.000244,-0.000171,0.234080,-0.000076,0,0,0,0
17.371059,-0.014787,-0.000398,-0.034797,-0.005645,-0.000030,0.037326,0.000000,0.000732,0.000244,-0.000171,0.234080,-0.000076,0,0,0,0
17.380831,-0.014796,-0.000398,-0.034797,-0.005645,-0.000030,0.037326,0.000000,0.000732,0.000244,-0.000171,0.234080,-0.000076,0,0,0,0
17.390600,-0.014804,-0.000399,-0.034797,-0.005645,-0.000030,0.037326,0.000000,0.000732,0.000244,-0.000171,0.234080,-0.000076,0,0,0,0
17.400370,-0.014812,-0.000399,-0.034797,-0.005645,-0.000030,0.037326,0.000000,0.000732,0.000244,-0.000171,0.234080,-0.000076,0,0,0,0
17.410139,-0.014821,-0.000399,-0.034797,-0.005645,-0.000030,0.037326,0.000000,0.000732,0.000244,-0.000171,0.234080,-0.000076,0,0,0,0
17.419910,-0.014829,-0.000399,-0.034797,-0.005645,-0.000030,0.037326,0.000000,0.000732,0.000244,-0.000171,0.234080,-0.000076,0,0,0,0
17.429680,-0.014838,-0.000400,-0.034797,-0.005645,-0.000030,0.037326,0.000000,0.000732,0.000244,-0.000171,0.234080,-0.000076,0,0,0,0
17.439449,-0.014846,-0.000400,-0.034797,-0.005645,-0.000030,0.037326,0.000000,0.000732,0.000244,-0.000171,0.234080,-0.000076,0,0,0,0
17.449221,-0.014854,-0.000400,-0.034797,-0.005645,-0.000030,0.037326,0.000000,0.000732,0.000244,-0.000171,0.234080,-0.000076,0,0,0,0
17.458990,-0.014863,-0.000400,-0.034797,-0.005645,-0.000030,0.037326,0.000000,0.000732,0.000244,-0.000171,0.234080,-0.000076,0,0,0,0
17.468760,-0.014871,-0.000401,-0.034797,-0.005645,-0.000030,0.037326,0.000000,0.000732,0.000244,-0.000171,0.234080,-0.000076,0,0,0,0
17.478531,-0.014879,-0.000401,-0.034797,-0.005645,-0.000030,0.037326,0.000000,0.000732,0.000244,-0.000171,0.234080,-0.000076,0,0,0,0
17.488300,-0.014888,-0.000401,-0.034797,-0.005645,-0.000030,0.037326,0.000000,0.000732,0.000244,-0.000171,0.234080,-0.000076,0,0,0,0
17.498070,-0.014896,-0.000401,-0.034797,-0.005645,-0.000030,0.037326,0.000000,0.000732,0.000244,-0.000171,0.234080,-0.000076,0,0,0,0
17.507839,-0.014905,-0.000401,-0.034797,-0.005645,-0.000030,0.037326,0.000000,0.000732,0.000244,-0.000171,0.234080,-0.000076,0,0,0,0
17.517611,-0.014913,-0.000402,-0.034797,-0.005645,-0.000030,0.037326,0.000000,0.000732,0.000244,-0.000171,0.234080,-0.000076,0,0,0,0
17.527380,-0.014921,-0.000402,-0.034797,-0.005645,-0.000030,0.037326,0.000000,0.000732,0.000244,-0.000171,0.234080,-0.000076,0,0,0,0
17.537149,-0.014930,-0.000402,-0.034797,-0.005645,-0.000030,0.037326,0.000000,0.000732,0.000244,-0.000171,0.234080,-0.000076,0,0,0,0
17.546921,-0.014938,-0.000402,-0.034797,-0.005645,-0.000030,0.037326,0.000000,0.000732,0.000244,-0.000171,0.234080,-0.000076,0,0,0,0
17.556690,-0.014946,-0.000403,-0.034797,-0.005645,-0.000030,0.037326,0.000000,0.000732,0.000244,-0.000171,0.234080,-0.000076,0,0,0,0
17.566460,-0.014955,-0.000403,-0.034797,-0.005645,-0.000030,0.037326,0.000000,0.000732,0.000244,-0.000171,0.234080,-0.000076,0,0,0,0
17.576229,-0.014963,-0.000403,-0.034797,-0.005645,-0.000030,0.037326,0.000000,0.000732,0.000244,-0.000171,0.234080,-0.000076,0,0,0,0
17.586000,-0.014972,-0.000403,-0.034797,-0.005645,-0.000030,0.037326,0.000000,0.000732,0.000244,-0.000171,0.234080,-0.000076,0,0,0,0
17.595770,-0.014980,-0.000404,-0.034797,-0.005645,-0.000030,0.037326,0.000000,0.000732,0.000244,-0.000171,0.234080,-0.000076,0,0,0,0
17.605539,-0.014988,-0.000404,-0.034797,-0.005645,-0.000030,0.037326,0.000000,0.000732,0.000244,-0.000171,0.234080,-0.000076,0,0,0,0
17.615311,-0.014997,-0.000404,-0.034797,-0.005645,-0.000030,0.037326,0.000000,0.000732,0.000244,-0.000171,0.234080,-0.000076,0,0,0,0
17.625080,-0.015005,-0.000404,-0.034797,-0.005645,-0.000030,0.037326,0.000000,0.000732,0.000244,-0.000171,0.234080,-0.000076,0,0,0,0
17.634850,-0.015013,-0.000404,-0.034797,-0.005645,-0.000030,0.037326,0.000000,0.000732,0.000244,-0.000171,0.234080,-0.000076,0,0,0,0
17.644621,-0.015022,-0.000405,-0.034797,-0.005645,-0.000030,0.037326,0.000000,0.000732,0.000244,-0.000171,0.234080,-0.000076,0,0,0,0
17.654390,-0.015030,-0.000405,-0.034797,-0.005645,-0.000030,0.037326,0.000000,0.000732,0.000244,-0.000171,0.234080,-0.000076,0,0,0,0
17.664160,-0.015039,-0.000405,-0.034797,-0.005645,-0.000030,0.037326,0.000000,0.000732,0.000244,-0.000171,0.234080,-0.000076,0,0,0,0
17.673929,-0.015047,-0.000405,-0.034797,-0.005645,-0.000030,0.037326,0.000000,0.000732,0.000244,-0.000171,0.234080,-0.000076,0,0,0,0
17.683701,-0.015055,-0.000406,-0.034797,-0.005645,-0.000030,0.037326,0.000000,0.000732,0.000244,-0.000171,0.234080,-0.000076,0,0,0,0
17.693470,-0.015064,-0.000406,-0.034797,-0.005645,-0.000030,0.037326,0.000000,0.000732,0.000244,-0.000171,0.234080,-0.000076,0,0,0,0
17.703239,-0.015072,-0.000406,-0.034797,-0.005645,-0.000030,0.037326,0.000000,0.000732,0.000244,-0.000171,0.234080,-0.000076,0,0,0,0
17.713011,-0.015080,-0.000406,-0.034797,-0.005645,-0.000030,0.037326,0.000000,0.000732,0.000244,-0.000171,0.234080,-0.000076,0,0,0,0
17.722780,-0.015089,-0.000406,-0.034797,-0.005645,-0.000030,0.037326,0.000000,0.000732,0.000244,-0.000171,0.234080,-0.000076,0,0,0,0
17.732550,-0.015097,-0.000407,-0.034797,-0.005645,-0.000030,0.037326,0.000000,0.000732,0.000244,-0.000171,0.234080,-0.000076,0,0,0,0
17.742319,-0.015105,-0.000407,-0.034797,-0.005645,-0.000030,0.037326,0.000000,0.000732,0.000244,-0.000171,0.234080,-0.000076,0,0,0,0
17.752090,-0.015114,-0.000407,-0.034797,-0.005645,-0.000030,0.037326,0.000000,0.000732,0.000244,-0.000171,0.234080,-0.000076,0,0,0,0
17.761860,-0.015122,-0.000407,-0.034797,-0.005645,-0.000030,0.037326,0.000000,0.000732,0.000244,-0.000171,0.234080,-0.000076,0,0,0,0
17.771629,-0.015131,-0.000408,-0.034797,-0.005645,-0.000030,0.037326,0.000000,0.000732,0.000244,-0.000171,0.234080,-0.000076,0,0,0,0
17.781401,-0.015139,-0.000408,-0.034797,-0.005645,-0.000030,0.037326,0.000000,0.000732,0.000244,-0.000171,0.234080,-0.000076,0,0,0,0
17.791170,-0.015147,-0.000408,-0.034797,-0.005645,-0.000030,0.037326,0.000000,0.000732,0.000244,-0.000171,0.234080,-0.000076,0,0,0,0
17.800940,-0.015156,-0.000408,-0.034797,-0.005645,-0.000030,0.037326,0.000000,0.000732,0.000244,-0.000171,0.234080,-0.000076,0,0,0,0
17.810711,-0.015164,-0.000409,-0.034797,-0.005645,-0.000030,0.037326,0.000000,0.000732,0.000244,-0.000171,0.234080,-0.000076,0,0,0,0
17.820480,-0.015172,-0.000409,-0.034797,-0.005645,-0.000030,0.037326,0.000000,0.000732,0.000244,-0.000171,0.234080,-0.000076,0,0,0,0
17.830250,-0.015181,-0.000409,-0.034797,-0.005645,-0.000030,0.037326,0.000000,0.000732,0.000244,-0.000171,0.234080,-0.000076,0,0,0,0
17.840019,-0.015189,-0.000409,-0.034797,-0.005645,-0.000030,0.037326,0.000000,0.000732,0.000244,-0.000171,0.234080,-0.000076,0,0,0,0
17.849791,-0.015198,-0.000409,-0.034797,-0.005645,-0.000030,0.037326,0.000000,0.000732,0.000244,-0.000171,0.234080,-0.000076,0,0,0,0
17.859560,-0.015206,-0.000410,-0.034797,-0.005645,-0.000030,0.037326,0.000000,0.000732,0.000244,-0.000171,0.234080,-0.000076,0,0,0,0
17.869329,-0.015214,-0.000410,-0.034797,-0.005645,-0.000030,0.037326,0.000000,0.000732,0.000244,-0.000171,0.234080,-0.000076,0,0,0,0
17.879101,-0.015223,-0.000410,-0.034797,-0.005645,-0.000030,0.037326,0.000000,0.000732,0.000244,-0.000171,0.234080,-0.000076,0,0,0,0
17.888870,-0.015231,-0.000410,-0.034797,-0.005645,-0.000030,0.037326,0.000000,0.000732,0.000244,-0.000171,0.234080,-0.000076,0,0,0,0
17.898640,-0.015239,-0.000411,-0.034797,-0.005645,-0.000030,0.037326,0.000000,0.000732,0.000244,-0.000171,0.234080,-0.000076,0,0,0,0
17.908409,-0.015248,-0.000411,-0.034797,-0.005645,-0.000030,0.037326,0.000000,0.000732,0.000244,-0.000171,0.234080,-0.000076,0,0,0,0
17.918180,-0.015256,-0.000411,-0.034797,-0.005645,-0.000030,0.037326,0.000000,0.000732,0.000244,-0.000171,0.234080,-0.000076,0,0,0,0
17.927950,-0.015265,-0.000411,-0.034797,-0.005645,-0.000030,0.037326,0.000000,0.000732,0.000244,-0.000171,0.234080,-0.000076,0,0,0,0
17.937719,-0.015273,-0.000412,-0.034797,-0.005645,-0.000030,0.037326,0.000000,0.000732,0.000244,-0.000171,0.234080,-0.000076,0,0,0,0
17.947491,-0.015281,-0.000412,-0.034797,-0.005645,-0.000030,0.037326,0.000000,0.000732,0.000244,-0.000171,0.234080,-0.000076,0,0,0,0
17.957260,-0.015290,-0.000412,-0.034797,-0.005645,-0.000030,0.037326,0.000000,0.000732,0.000244,-0.000171,0.234080,-0.000076,0,0,0,0
17.967030,-0.015298,-0.000412,-0.034797,-0.005645,-0.000030,0.037326,0.000000,0.000732,0.000244,-0.000171,0.234080,-0.000076,0,0,0,0
17.976801,-0.015306,-0.000412,-0.034797,-0.005645,-0.000030,0.037326,0.000000,0.000732,0.000244,-0.000171,0.234080,-0.000076,0,0,0,0
17.986570,-0.015315,-0.000413,-0.034797,-0.005645,-0.000030,0.037326,0.000000,0.000732,0.000244,-0.000171,0.234080,-0.000076,0,0,0,0
17.996340,-0.015323,-0.000413,-0.034797,-0.005645,-0.000030,0.037326,0.000000,0.000732,0.000244,-0.000171,0.234080,-0.000076,0,0,0,0
18.006109,-0.015332,-0.000413,-0.034797,-0.005645,-0.000030,0.037326,0.000000,0.000732,0.000244,-0.000171,0.234080,-0.000076,0,0,0,0
18.015881,-0.015340,-0.000413,-0.034797,-0.005645,-0.000030,0.037326,0.000000,0.000732,0.000244,-0.000171,0.234080,-0.000076,0,0,0,0
18.025650,-0.015348,-0.000414,-0.034797,-0.005645,-0.000030,0.037326,0.000000,0.000732,0.000244,-0.000171,0.234080,-0.000076,0,0,0,0
18.035419,-0.015357,-0.000414,-0.034797,-0.005645,-0.000030,0.037326,0.000000,0.000732,0.000244,-0.000171,0.234080,-0.000076,0,0,0,0
18.045191,-0.015365,-0.000414,-0.034797,-0.005645,-0.000030,0.037326,0.000000,0.000732,0.000244,-0.000171,0.234080,-0.000076,0,0,0,0
18.054960,-0.015373,-0.000414,-0.034797,-0.005645,-0.000030,0.037326,0.000000,0.000732,0.000244,-0.000171,0.234080,-0.000076,0,0,0,0
18.064730,-0.015382,-0.000415,-0.034797,-0.005645,-0.000030,0.037326,0.000000,0.000732,0.000244,-0.000171,0.234080,-0.000076,0,0,0,0
18.074499,-0.015390,-0.000415,-0.034797,-0.005645,-0.000030,0.037326,0.000000,0.000732,0.000244,-0.000171,0.234080,-0.000076,0,0,0,0
18.084270,-0.015399,-0.000415,-0.034797,-0.005645,-0.000030,0.037326,0.000000,0.000732,0.000244,-0.000171,0.234080,-0.000076,0,0,0,0
18.094040,-0.015407,-0.000415,-0.034797,-0.005645,-0.000030,0.037326,0.000000,0.000732,0.000244,-0.000171,0.234080,-0.000076,0,0,0,0
18.103809,-0.015415,-0.000415,-0.034797,-0.005645,-0.000030,0.037326,0.000000,0.000732,0.000244,-0.000171,0.234080,-0.000076,0,0,0,0
18.113581,-0.015424,-0.000416,-0.034797,-0.005645,-0.000030,0.037326,0.000000,0.000732,0.000244,-0.000171,0.234080,-0.000076,0,0,0,0
18.123350,-0.015432,-0.000416,-0.034797,-0.005645,-0.000030,0.037326,0.000000,0.000732,0.000244,-0.000171,0.234080,-0.000076,0,0,0,0
18.133120,-0.015440,-0.000416,-0.034797,-0.005645,-0.000030,0.037326,0.000000,0.000732,0.000244,-0.000171,0.234080,-0.000076,0,0,0,0
18.142891,-0.015449,-0.000416,-0.034797,-0.005645,-0.000030,0.037326,0.000000,0.000732,0.000244,-0.000171,0.234080,-0.000076,0,0,0,0
18.152660,-0.015457,-0.000417,-0.034797,-0.005645,-0.000030,0.037326,0.000000,0.000732,0.000244,-0.000171,0.234080,-0.000076,0,0,0,0
18.162430,-0.015466,-0.000417,-0.034797,-0.005645,-0.000030,0.037326,0.000000,0.000732,0.000244,-0.000171,0.234080,-0.000076,0,0,0,0
18.172199,-0.015474,-0.000417,-0.034797,-0.005645,-0.000030,0.037326,0.000000,0.000732,0.000244,-0.000171,0.234080,-0.000076,0,0,0,0
18.181971,-0.015482,-0.000417,-0.034797,-0.005645,-0.000030,0.037326,0.000000,0.000732,0.000244,-0.000171,0.234080,-0.000076,0,0,0,0
18.191740,-0.015491,-0.000417,-0.034797,-0.005645,-0.000030,0.037326,0.000000,0.000732,0.000244,-0.000171,0.234080,-0.000076,0,0,0,0
18.201509,-0.015499,-0.000418,-0.034797,-0.005645,-0.000030,0.037326,0.000000,0.000732,0.000244,-0.000171,0.234080,-0.000076,0,0,0,0
18.211281,-0.015507,-0.000418,-0.034797,-0.005645,-0.000030,0.037326,0.000000,0.000732,0.000244,-0.000171,0.234080,-0.000076,0,0,0,0
18.221050,-0.015516,-0.000418,-0.034797,-0.005645,-0.000030,0.037326,0.000000,0.000732,0.000244,-0.000171,0.234080,-0.000076,0,0,0,0
18.230820,-0.015524,-0.000418,-0.034797,-0.005645,-0.000030,0.037326,0.000000,0.000732,0.000244,-0.000171,0.234080,-0.000076,0,0,0,0
18.240589,-0.015533,-0.000419,-0.034797,-0.005645,-0.000030,0.037326,0.000000,0.000732,0.000244,-0.000171,0.234080,-0.000076,0,0,0,0
18.250360,-0.015541,-0.000419,-0.034797,-0.005645,-0.000030,0.037326,0.000000,0.000732,0.000244,-0.000171,0.234080,-0.000076,0,0,0,0
18.260130,-0.015549,-0.000419,-0.034797,-0.005645,-0.000030,0.037326,0.000000,0.000732,0.000244,-0.000171,0.234080,-0.000076,0,0,0,0
18.269899,-0.015558,-0.000419,-0.034797,-0.005645,-0.000030,0.037326,0.000000,0.000732,0.000244,-0.000171,0.234080,-0.000076,0,0,0,0
18.279671,-0.015566,-0.000420,-0.034797,-0.005645,-0.000030,0.037326,0.000000,0.000732,0.000244,-0.000171,0.234080,-0.000076,0,0,0,0
18.289440,-0.015574,-0.000420,-0.034797,-0.005645,-0.000030,0.037326,0.000000,0.000732,0.000244,-0.000171,0.234080,-0.000076,0,0,0,0
18.299210,-0.015583,-0.000420,-0.034797,-0.005645,-0.000030,0.037326,0.000000,0.000732,0.000244,-0.000171,0.234080,-0.000076,0,0,0,0
18.308979,-0.015591,-0.000420,-0.034797,-0.005645,-0.000030,0.037326,0.000000,0.000732,0.000244,-0.000171,0.234080,-0.000076,0,0,0,0
18.318750,-0.015600,-0.000420,-0.034797,-0.005645,-0.000030,0.037326,0.000000,0.000732,0.000244,-0.000171,0.234080,-0.000076,0,0,0,0
18.328520,-0.015608,-0.000421,-0.034797,-0.005645,-0.000030,0.037326,0.000000,0.000732,0.000244,-0.000171,0.234080,-0.000076,0,0,0,0
18.338289,-0.015616,-0.000421,-0.034797,-0.005645,-0.000030,0.037326,0.000000,0.000732,0.000244,-0.000171,0.234080,-0.000076,0,0,0,0
18.348061,-0.015625,-0.000421,-0.034797,-0.005645,-0.000030,0.037326,0.000000,0.000732,0.000244,-0.000171,0.234080,-0.000076,0,0,0,0
18.357830,-0.015633,-0.000421,-0.034797,-0.005645,-0.000030,0.037326,0.000000,0.000732,0.000244,-0.000171,0.234080,-0.000076,0,0,0,0
18.367599,-0.015641,-0.000422,-0.034797,-0.005645,-0.000030,0.037326,0.000000,0.000732,0.000244,-0.000171,0.234080,-0.000076,0,0,0,0
18.377371,-0.015650,-0.000422,-0.034797,-0.005645,-0.000030,0.037326,0.000000,0.000732,0.000244,-0.000171,0.234080,-0.000076,0,0,0,0
18.387140,-0.015658,-0.000422,-0.034797,-0.005645,-0.000030,0.037326,0.000000,0.000732,0.000244,-0.000171,0.234080,-0.000076,0,0,0,0
18.396910,-0.015667,-0.000422,-0.034797,-0.005645,-0.000030,0.037326,0.000000,0.000732,0.000244,-0.000171,0.234080,-0.000076,0,0,0,0
18.406679,-0.015675,-0.000423,-0.034797,-0.005645,-0.000030,0.037326,0.000000,0.000732,0.000244,-0.000171,0.234080,-0.000076,0,0,0,0
18.416451,-0.015683,-0.000423,-0.034797,-0.005645,-0.000030,0.037326,0.000000,0.000732,0.000244,-0.000171,0.234080,-0.000076,0,0,0,0
18.426220,-0.015692,-0.000423,-0.034797,-0.005645,-0.000030,0.037326,0.000000,0.000732,0.000244,-0.000171,0.234080,-0.000076,0,0,0,0
18.435989,-0.015700,-0.000423,-0.034797,-0.005645,-0.000030,0.037326,0.000000,0.000732,0.000244,-0.000171,0.234080,-0.000076,0,0,0,0
18.445761,-0.015708,-0.000423,-0.034797,-0.005645,-0.000030,0.037326,0.000000,0.000732,0.000244,-0.000171,0.234080,-0.000076,0,0,0,0
18.455530,-0.015717,-0.000424,-0.034797,-0.005645,-0.000030,0.037326,0.000000,0.000732,0.000244,-0.000171,0.234080,-0.000076,0,0,0,0
18.465300,-0.015725,-0.000424,-0.034797,-0.005645,-0.000030,0.037326,0.000000,0.000732,0.000244,-0.000171,0.234080,-0.000076,0,0,0,0
18.475071,-0.015734,-0.000424,-0.034797,-0.005645,-0.000030,0.037326,0.000000,0.000732,0.000244,-0.000171,0.234080,-0.000076,0,0,0,0
18.484840,-0.015742,-0.000424,-0.034797,-0.005645,-0.000030,0.037326,0.000000,0.000732,0.000244,-0.000171,0.234080,-0.000076,0,0,0,0
18.494610,-0.015750,-0.000425,-0.034797,-0.005645,-0.000030,0.037326,0.000000,0.000732,0.000244,-0.000171,0.234080,-0.000076,0,0,0,0
18.504379,-0.015759,-0.000425,-0.034797,-0.005645,-0.000030,0.037326,0.000000,0.000732,0.000244,-0.000171,0.234080,-0.000076,0,0,0,0
18.514151,-0.015767,-0.000425,-0.034797,-0.005645,-0.000030,0.037326,0.000000,0.000732,0.000244,-0.000171,0.234080,-0.000076,0,0,0,0
18.523920,-0.015775,-0.000425,-0.034797,-0.005645,-0.000030,0.037326,0.000000,0.000732,0.000244,-0.000171,0.234080,-0.000076,0,0,0,0
18.533689,-0.015784,-0.000426,-0.034797,-0.005645,-0.000030,0.037326,0.000000,0.000732,0.000244,-0.000171,0.234080,-0.000076,0,0,0,0
18.543461,-0.015792,-0.000426,-0.034797,-0.005645,-0.000030,0.037326,0.000000,0.000732,0.000244,-0.000171,0.234080,-0.000076,0,0,0,0
18.553230,-0.015800,-0.000426,-0.034797,-0.005645,-0.000030,0.037326,0.000000,0.000732,0.000244,-0.000171,0.234080,-0.000076,0,0,0,0
18.563000,-0.015809,-0.000426,-0.034797,-0.005645,-0.000030,0.037326,0.000000,0.000732,0.000244,-0.000171,0.234080,-0.000076,0,0,0,0
18.572769,-0.015817,-0.000426,-0.034797,-0.005645,-0.000030,0.037326,0.000000,0.000732,0.000244,-0.000171,0.234080,-0.000076,0,0,0,0
18.582541,-0.015826,-0.000427,-0.034797,-0.005645,-0.000030,0.037326,0.000000,0.000732,0.000244,-0.000171,0.234080,-0.000076,0,0,0,0
18.592310,-0.015834,-0.000427,-0.034797,-0.005645,-0.000030,0.037326,0.000000,0.000732,0.000244,-0.000171,0.234080,-0.000076,0,0,0,0
18.602079,-0.015842,-0.000427,-0.034797,-0.005645,-0.000030,0.037326,0.000000,0.000732,0.000244,-0.000171,0.234080,-0.000076,0,0,0,0
18.611851,-0.015851,-0.000427,-0.034797,-0.005645,-0.000030,0.037326,0.000000,0.000732,0.000244,-0.000171,0.234080,-0.000076,0,0,0,0
18.621620,-0.015859,-0.000428,-0.034797,-0.005645,-0.000030,0.037326,0.000000,0.000732,0.000244,-0.000171,0.234080,-0.000076,0,0,0,0
18.631390,-0.015867,-0.000428,-0.034797,-0.005645,-0.000030,0.037326,0.000000,0.000732,0.000244,-0.000171,0.234080,-0.000076,0,0,0,0
18.641159,-0.015876,-0.000428,-0.034797,-0.005645,-0.000030,0.037326,0.000000,0.000732,0.000244,-0.000171,0.234080,-0.000076,0,0,0,0
18.650930,-0.015884,-0.000428,-0.034797,-0.005645,-0.000030,0.037326,0.000000,0.000732,0.000244,-0.000171,0.234080,-0.000076,0,0,0,0
18.660700,-0.015893,-0.000429,-0.034797,-0.005645,-0.000030,0.037326,0.000000,0.000732,0.000244,-0.000171,0.234080,-0.000076,0,0,0,0
18.670469,-0.015901,-0.000429,-0.034797,-0.005645,-0.000030,0.037326,0.000000,0.000732,0.000244,-0.000171,0.234080,-0.000076,0,0,0,0
18.680241,-0.015909,-0.000429,-0.034797,-0.005645,-0.000030,0.037326,0.000000,0.000732,0.000244,-0.000171,0.234080,-0.000076,0,0,0,0
18.690010,-0.015918,-0.000429,-0.034797,-0.005645,-0.000030,0.037326,0.000000,0.000732,0.000244,-0.000171,0.234080,-0.000076,0,0,0,0
18.699780,-0.015926,-0.000429,-0.034797,-0.005645,-0.000030,0.037326,0.000000,0.000732,0.000244,-0.000171,0.234080,-0.000076,0,0,0,0
18.709551,-0.015934,-0.000430,-0.034797,-0.005645,-0.000030,0.037326,0.000000,0.000732,0.000244,-0.000171,0.234080,-0.000076,0,0,0,0
18.719320,-0.015943,-0.000430,-0.034797,-0.005645,-0.000030,0.037326,0.000000,0.000732,0.000244,-0.000171,0.234080,-0.000076,0,0,0,0
18.729090,-0.015951,-0.000430,-0.034797,-0.005645,-0.000030,0.037326,0.000000,0.000732,0.000244,-0.000171,0.234080,-0.000076,0,0,0,0
18.738859,-0.015960,-0.000430,-0.034797,-0.005645,-0.000030,0.037326,0.000000,0.000732,0.000244,-0.000171,0.234080,-0.000076,0,0,0,0
18.748631,-0.015968,-0.000431,-0.034797,-0.005645,-0.000030,0.037326,0.000000,0.000732,0.000244,-0.000171,0.234080,-0.000076,0,0,0,0
18.758400,-0.015976,-0.000431,-0.034797,-0.005645,-0.000030,0.037326,0.000000,0.000732,0.000244,-0.000171,0.234080,-0.000076,0,0,0,0
18.768169,-0.015985,-0.000431,-0.034797,-0.005645,-0.000030,0.037326,0.000000,0.000732,0.000244,-0.000171,0.234080,-0.000076,0,0,0,0
18.777941,-0.015993,-0.000431,-0.034797,-0.005645,-0.000030,0.037326,0.000000,0.000732,0.000244,-0.000171,0.234080,-0.000076,0,0,0,0
18.787710,-0.016001,-0.000431,-0.034797,-0.005645,-0.000030,0.037326,0.000000,0.000732,0.000244,-0.000171,0.234080,-0.000076,0,0,0,0
18.797480,-0.016010,-0.000432,-0.034797,-0.005645,-0.000030,0.037326,0.000000,0.000732,0.000244,-0.000171,0.234080,-0.000076,0,0,0,0
18.807251,-0.016018,-0.000432,-0.034797,-0.005645,-0.000030,0.037326,0.000000,0.000732,0.000244,-0.000171,0.234080,-0.000076,0,0,0,0
18.817020,-0.016027,-0.000432,-0.034797,-0.005645,-0.000030,0.037326,0.000000,0.000732,0.000244,-0.000171,0.234080,-0.000076,0,0,0,0
18.826790,-0.016035,-0.000432,-0.034797,-0.005645,-0.000030,0.037326,0.000000,0.000732,0.000244,-0.000171,0.234080,-0.000076,0,0,0,0
18.836559,-0.016043,-0.000433,-0.034797,-0.005645,-0.000030,0.037326,0.000000,0.000732,0.000244,-0.000171,0.234080,-0.000076,0,0,0,0
18.846331,-0.016052,-0.000433,-0.034797,-0.005645,-0.000030,0.037326,0.000000,0.000732,0.000244,-0.000171,0.234080,-0.000076,0,0,0,0
18.856100,-0.016060,-0.000433,-0.034797,-0.005645,-0.000030,0.037326,0.000000,0.000732,0.000244,-0.000171,0.234080,-0.000076,0,0,0,0
18.865870,-0.016068,-0.000433,-0.034797,-0.005645,-0.000030,0.037326,0.000000,0.000732,0.000244,-0.000171,0.234080,-0.000076,0,0,0,0
18.875641,-0.016077,-0.000434,-0.034797,-0.005645,-0.000030,0.037326,0.000000,0.000732,0.000244,-0.000171,0.234080,-0.000076,0,0,0,0
18.885410,-0.016085,-0.000434,-0.034797,-0.005645,-0.000030,0.037326,0.000000,0.000732,0.000244,-0.000171,0.234080,-0.000076,0,0,0,0
18.895180,-0.016094,-0.000434,-0.034797,-0.005645,-0.000030,0.037326,0.000000,0.000732,0.000244,-0.000171,0.234080,-0.000076,0,0,0,0
18.904949,-0.016102,-0.000434,-0.034797,-0.005645,-0.000030,0.037326,0.000000,0.000732,0.000244,-0.000171,0.234080,-0.000076,0,0,0,0
18.914721,-0.016110,-0.000434,-0.034797,-0.005645,-0.000030,0.037326,0.000000,0.000732,0.000244,-0.000171,0.234080,-0.000076,0,0,0,0
18.924490,-0.016119,-0.000435,-0.034797,-0.005645,-0.000030,0.037326,0.000000,0.000732,0.000244,-0.000171,0.234080,-0.000076,0,0,0,0
18.934259,-0.016127,-0.000435,-0.034797,-0.005645,-0.000030,0.037326,0.000000,0.000732,0.000244,-0.000171,0.234080,-0.000076,0,0,0,0
18.944031,-0.016135,-0.000435,-0.034797,-0.005645,-0.000030,0.037326,0.000000,0.000732,0.000244,-0.000171,0.234080,-0.000076,0,0,0,0
18.953800,-0.016144,-0.000435,-0.034797,-0.005645,-0.000030,0.037326,0.000000,0.000732,0.000244,-0.000171,0.234080,-0.000076,0,0,0,0
18.963570,-0.016152,-0.000436,-0.034797,-0.005645,-0.000030,0.037326,0.000000,0.000732,0.000244,-0.000171,0.234080,-0.000076,0,0,0,0
18.973339,-0.016161,-0.000436,-0.034797,-0.005645,-0.000030,0.037326,0.000000,0.000732,0.000244,-0.000171,0.234080,-0.000076,0,0,0,0
18.983110,-0.016169,-0.000436,-0.034797,-0.005645,-0.000030,0.037326,0.000000,0.000732,0.000244,-0.000171,0.234080,-0.000076,0,0,0,0
18.992880,-0.016177,-0.000436,-0.034797,-0.005645,-0.000030,0.037326,0.000000,0.000732,0.000244,-0.000171,0.234080,-0.000076,0,0,0,0
19.002649,-0.016186,-0.000437,-0.034797,-0.005645,-0.000030,0.037326,0.000000,0.000732,0.000244,-0.000171,0.234080,-0.000076,0,0,0,0
19.012421,-0.016194,-0.000437,-0.034797,-0.005645,-0.000030,0.037326,0.000000,0.000732,0.000244,-0.000171,0.234080,-0.000076,0,0,0,0
19.022190,-0.016202,-0.000437,-0.034797,-0.005645,-0.000030,0.037326,0.000000,0.000732,0.000244,-0.000171,0.234080,-0.000076,0,0,0,0
19.031960,-0.016211,-0.000437,-0.034797,-0.005645,-0.000030,0.037326,0.000000,0.000732,0.000244,-0.000171,0.234080,-0.000076,0,0,0,0
19.041731,-0.016219,-0.000437,-0.034797,-0.005645,-0.000030,0.037326,0.000000,0.000732,0.000244,-0.000171,0.234080,-0.000076,0,0,0,0
19.051500,-0.016228,-0.000438,-0.034797,-0.005645,-0.000030,0.037326,0.000000,0.000732,0.000244,-0.000171,0.234080,-0.000076,0,0,0,0
19.061270,-0.016236,-0.000438,-0.034797,-0.005645,-0.000030,0.037326,0.000000,0.000732,0.000244,-0.000171,0.234080,-0.000076,0,0,0,0
19.071039,-0.016244,-0.000438,-0.034797,-0.005645,-0.000030,0.037326,0.000000,0.000732,0.000244,-0.000171,0.234080,-0.000076,0,0,0,0
19.080811,-0.016253,-0.000438,-0.034797,-0.005645,-0.000030,0.037326,0.000000,0.000732,0.000244,-0.000171,0.234080,-0.000076,0,0,0,0
19.090580,-0.016261,-0.000439,-0.034797,-0.005645,-0.000030,0.037326,0.000000,0.000732,0.000244,-0.000171,0.234080,-0.000076,0,0,0,0
19.100349,-0.016269,-0.000439,-0.034797,-0.005645,-0.000030,0.037326,0.000000,0.000732,0.000244,-0.000171,0.234080,-0.000076,0,0,0,0
19.110121,-0.016278,-0.000439,-0.034797,-0.005645,-0.000030,0.037326,0.000000,0.000732,0.000244,-0.000171,0.234080,-0.000076,0,0,0,0
19.119890,-0.016286,-0.000439,-0.034797,-0.005645,-0.000030,0.037326,0.000000,0.000732,0.000244,-0.000171,0.234080,-0.000076,0,0,0,0
19.129660,-0.016295,-0.000440,-0.034797,-0.005645,-0.000030,0.037326,0.000000,0.000732,0.000244,-0.000171,0.234080,-0.000076,0,0,0,0
19.139429,-0.016303,-0.000440,-0.034797,-0.005645,-0.000030,0.037326,0.000000,0.000732,0.000244,-0.000171,0.234080,-0.000076,0,0,0,0
19.149200,-0.016311,-0.000440,-0.034797,-0.005645,-0.000030,0.037326,0.000000,0.000732,0.000244,-0.000171,0.234080,-0.000076,0,0,0,0
19.158970,-0.016320,-0.000440,-0.034797,-0.005645,-0.000030,0.037326,0.000000,0.000732,0.000244,-0.000171,0.234080,-0.000076,0,0,0,0
19.168739,-0.016328,-0.000440,-0.034797,-0.005645,-0.000030,0.037326,0.000000,0.000732,0.000244,-0.000171,0.234080,-0.000076,0,0,0,0
19.178511,-0.016336,-0.000441,-0.034797,-0.005645,-0.000030,0.037326,0.000000,0.000732,0.000244,-0.000171,0.234080,-0.000076,0,0,0,0
19.188280,-0.016345,-0.000441,-0.034797,-0.005645,-0.000030,0.037326,0.000000,0.000732,0.000244,-0.000171,0.234080,-0.000076,0,0,0,0
19.198050,-0.016353,-0.000441,-0.034797,-0.005645,-0.000030,0.037326,0.000000,0.000732,0.000244,-0.000171,0.234080,-0.000076,0,0,0,0
19.207821,-0.016362,-0.000441,-0.034797,-0.005645,-0.000030,0.037326,0.000000,0.000732,0.000244,-0.000171,0.234080,-0.000076,0,0,0,0
19.217590,-0.016370,-0.000442,-0.034797,-0.005645,-0.000030,0.037326,0.000000,0.000732,0.000244,-0.000171,0.234080,-0.000076,0,0,0,0
19.227360,-0.016378,-0.000442,-0.034797,-0.005645,-0.000030,0.037326,0.000000,0.000732,0.000244,-0.000171,0.234080,-0.000076,0,0,0,0
19.237129,-0.016387,-0.000442,-0.034797,-0.005645,-0.000030,0.037326,0.000000,0.000732,0.000244,-0.000171,0.234080,-0.000076,0,0,0,0
19.246901,-0.016395,-0.000442,-0.034797,-0.005645,-0.000030,0.037326,0.000000,0.000732,0.000244,-0.000171,0.234080,-0.000076,0,0,0,0
19.256670,-0.016403,-0.000443,-0.034797,-0.005645,-0.000030,0.037326,0.000000,0.000732,0.000244,-0.000171,0.234080,-0.000076,0,0,0,0
19.266439,-0.016412,-0.000443,-0.034797,-0.005645,-0.000030,0.037326,0.000000,0.000732,0.000244,-0.000171,0.234080,-0.000076,0,0,0,0
19.276211,-0.016420,-0.000443,-0.034797,-0.005645,-0.000030,0.037326,0.000000,0.000732,0.000244,-0.000171,0.234080,-0.000076,0,0,0,0
19.285980,-0.016429,-0.000443,-0.034797,-0.005645,-0.000030,0.037326,0.000000,0.000732,0.000244,-0.000171,0.234080,-0.000076,0,0,0,0
19.295750,-0.016437,-0.000443,-0.034797,-0.005645,-0.000030,0.037326,0.000000,0.000732,0.000244,-0.000171,0.234080,-0.000076,0,0,0,0
19.305519,-0.016445,-0.000444,-0.034797,-0.005645,-0.000030,0.037326,0.000000,0.000732,0.000244,-0.000171,0.234080,-0.000076,0,0,0,0
19.315290,-0.016454,-0.000444,-0.034797,-0.005645,-0.000030,0.037326,0.000000,0.000732,0.000244,-0.000171,0.234080,-0.000076,0,0,0,0
19.325060,-0.016462,-0.000444,-0.034797,-0.005645,-0.000030,0.037326,0.000000,0.000732,0.000244,-0.000171,0.234080,-0.000076,0,0,0,0
19.334829,-0.016470,-0.000444,-0.034797,-0.005645,-0.000030,0.037326,0.000000,0.000732,0.000244,-0.000171,0.234080,-0.000076,0,0,0,0
19.344601,-0.016479,-0.000445,-0.034797,-0.005645,-0.000030,0.037326,0.000000,0.000732,0.000244,-0.000171,0.234080,-0.000076,0,0,0,0
19.354370,-0.016487,-0.000445,-0.034797,-0.005645,-0.000030,0.037326,0.000000,0.000732,0.000244,-0.000171,0.234080,-0.000076,0,0,0,0
19.364140,-0.016496,-0.000445,-0.034797,-0.005645,-0.000030,0.037326,0.000000,0.000732,0.000244,-0.000171,0.234080,-0.000076,0,0,0,0
19.373911,-0.016504,-0.000445,-0.034797,-0.005645,-0.000030,0.037326,0.000000,0.000732,0.000244,-0.000171,0.234080,-0.000076,0,0,0,0
19.383680,-0.016512,-0.000445,-0.034797,-0.005645,-0.000030,0.037326,0.000000,0.000732,0.000244,-0.000171,0.234080,-0.000076,0,0,0,0
19.393450,-0.016521,-0.000446,-0.034797,-0.005645,-0.000030,0.037326,0.000000,0.000732,0.000244,-0.000171,0.234080,-0.000076,0,0,0,0
19.403219,-0.016529,-0.000446,-0.034797,-0.005645,-0.000030,0.037326,0.000000,0.000732,0.000244,-0.000171,0.234080,-0.000076,0,0,0,0
